     3.03           OBSERVATION DATA    G: GPS              RINEX VERSION / TYPE
RinexPrep v0.1      UNKNOWN             20260417 16:21:09   PGM / RUN BY / DATE 
UNKNOWN                                                     MARKER NAME         
UNKNOWN                                                     MARKER NUMBER       
                                                            MARKER TYPE         
UNKNOWN             UNKNOWN                                 OBSERVER / AGENCY   
                    UNKNOWN                                 REC # / TYPE / VERS 
                    UNKNOWN NONE                            ANT # / TYPE        
        0.0000        0.0000        0.0000                  APPROX POSITION XYZ 
        0.0000        0.0000        0.0000                  ANTENNA: DELTA H/E/N
G    8 C1C L1C D1C S1C C2X L2X D2X S2X                      SYS / # / OBS TYPES 
    30.000                                                  INTERVAL            
  2026     4    14     0    52   30.0000000     GPS         TIME OF FIRST OBS   
  2026     4    14     3    13   30.0000000     GPS         TIME OF LAST OBS    
G                                                           SYS / PHASE SHIFT   
  0                                                         GLONASS SLOT / FRQ #
 C1C    0.000 C1P    0.000 C2C    0.000 C2P    0.000        GLONASS COD/PHS/BIS 
                                                            END OF HEADER       
> 2026  4 14  0 52 30.0000000  0 11
G08  22704349.553   119312157.485        1774.402          42.000 7  22704349.790    92970522.420        1382.508          43.000 7
G10  21086898.208   110812395.037         976.134          51.000 8  21086896.263    86347311.425         760.406          46.000 7
G13  25097202.215   131886679.369       -3871.075          36.000 6                                                                
G15  22681348.714   119191289.205       -3391.096          42.000 7  22681346.318    92876322.404       -2642.294          41.000 6
G16  25163036.031   132232648.135       -3346.016          30.000 5                                                                
G18  21608253.896   113552140.830       -2463.344          46.000 7  21608251.214    88482173.894       -1919.366          45.000 7
G20  25006396.030   131409495.209       -3626.860          38.000 6  25006394.400   102396996.742       -2825.985          36.000 6
G23  20333809.763   106854889.742       -1205.579          48.000 8  20333805.867    83263538.456        -939.541          48.000 8
G24  23571544.659   123869297.877        1915.920          41.000 6  23571544.216    96521537.097        1492.650          38.000 6
G27  21260241.372   111723318.122        -198.281          48.000 8  21260239.652    87057119.935        -154.558          46.000 7
G32  23485425.213   123416741.089        3278.120          43.000 7  23485425.877    96168927.204        2554.218          39.000 6
> 2026  4 14  0 53  0.0000000  0 11
G08  22694287.689   119259281.460        1751.318          43.000 7  22694287.602    92929320.348        1364.805          43.000 7
G10  21081378.578   110783389.285         958.454          51.000 8  21081376.529    86324709.553         746.818          46.000 7
G13  25119344.042   132003037.731       -3884.905          36.000 6                                                                
G15  22700763.955   119293317.386       -3409.926          43.000 7  22700761.813    92955824.825       -2657.136          40.000 6
G16  25182163.005   132333163.260       -3354.732          34.000 5                                                                
G18  21622370.514   113626321.307       -2481.310          46.000 7  21622367.313    88539976.829       -1933.340          45.000 7
G20  25027141.188   131518510.067       -3639.836          40.000 6  25027140.008   102481943.372       -2836.202          39.000 6
G23  20340746.508   106891343.624       -1223.770          48.000 8  20340742.865    83291944.066        -953.650          48.000 8
G24  23560671.469   123812159.519        1894.400          39.000 6  23560671.306    96477013.745        1476.168          38.000 6
G27  21261454.573   111729695.473        -226.129          48.000 8  21261453.008    87062089.294        -176.200          45.000 7
G32  23466750.548   123318605.069        3265.372          42.000 7  23466751.098    96092457.649        2544.485          40.000 6
> 2026  4 14  0 53 30.0000000  0 11
G08  22684354.919   119207084.493        1728.365          44.000 7  22684354.588    92888647.419        1346.862          42.000 7
G10  21075956.281   110754894.212         941.300          51.000 8  21075954.249    86302505.609         733.619          46.000 7
G13  25141561.091   132119787.384       -3898.165          35.000 5                                                                
G15  22720283.680   119395893.194       -3428.187          43.000 7  22720281.047    93035754.009       -2671.638          40.000 6
G16  25201339.160   132433926.199       -3363.013          36.000 6                                                                
G18  21636585.175   113701020.724       -2498.752          46.000 7  21636582.160    88598184.119       -1946.781          45.000 7
G20  25047955.340   131627889.636       -3652.172          40.000 6  25047954.022   102567174.142       -2845.487          40.000 6
G23  20347783.148   106928321.840       -1241.479          48.000 8  20347779.553    83320758.262        -967.306          48.000 8
G24  23549917.066   123755647.670        1873.049          39.000 6  23549917.212    96432978.612        1459.649          38.000 6
G27  21262823.941   111736890.997        -253.440          48.000 8  21262822.067    87067696.214        -197.554          45.000 7
G32  23448144.273   123220830.341        3253.069          43.000 7  23448145.154    96016269.641        2535.091          40.000 6
> 2026  4 14  0 54  0.0000000  0 11
G08  22674547.571   119155544.735        1707.111          43.000 7  22674546.774    92848486.597        1330.046          42.000 7
G10  21070626.515   110726886.012         925.687          51.000 8  21070624.233    86280681.070         721.182          47.000 7
G13  25163847.205   132236901.518       -3909.896          35.000 5                                                                
G15  22739902.472   119498990.001       -3445.166          43.000 7  22739899.922    93116089.122       -2684.424          40.000 6
G16  25220556.196   132534910.401       -3369.594          39.000 6                                                                
G18  21650893.677   113776214.679       -2514.498          45.000 7  21650891.151    88656776.802       -1959.486          45.000 7
G20  25068834.062   131737607.474       -3662.732          40.000 6  25068832.784   102652668.509       -2853.958          41.000 6
G23  20354914.925   106965799.512       -1257.382          48.000 8  20354911.320    83349961.650        -980.017          48.000 8
G24  23539278.550   123699741.528        1853.619          40.000 6  23539278.881    96389415.446        1444.379          38.000 6
G27  21264344.223   111744880.812        -279.458          48.000 8  21264342.721    87073922.048        -218.077          45.000 7
G32  23429602.802   123123395.485        3242.235          43.000 7  23429603.910    95940346.471        2526.339          40.000 6
> 2026  4 14  0 54 30.0000000  0 11
G08  22664861.579   119104646.083        1686.382          44.000 7  22664861.029    92808825.342        1314.178          42.000 7
G10  21065385.563   110699346.546         910.711          51.000 8  21065383.441    86259221.762         709.486          46.000 7
G13  25186198.399   132354359.319       -3920.283          35.000 5                                                                
G15  22759616.242   119602586.724       -3461.067          43.000 7  22759613.951    93196813.811       -2696.966          40.000 6
G16  25239811.794   132636094.778       -3375.740          41.000 6                                                                
G18  21665293.174   113851884.448       -2529.886          46.000 7  21665290.490    88715740.218       -1971.175          45.000 7
G20  25089773.251   131847643.020       -3672.775          40.000 6  25089772.195   102738410.440       -2861.750          41.000 6
G23  20362138.222   107003757.584       -1272.861          48.000 8  20362134.549    83379539.345        -991.762          48.000 8
G24  23528752.618   123644425.992        1834.442          40.000 6  23528752.627    96346312.485        1429.245          39.000 6
G27  21266012.320   111753646.827        -304.722          48.000 8  21266010.646    87080752.691        -237.466          45.000 7
G32  23411123.620   123026284.772        3232.030          44.000 7  23411124.464    95864675.857        2518.560          41.000 6
> 2026  4 14  0 55  0.0000000  0 11
G08  22655293.841   119054366.456        1666.118          44.000 7  22655293.027    92769646.452        1298.209          42.000 7
G10  21060229.754   110672251.796         896.094          51.000 8  21060227.547    86238108.989         698.251          47.000 7
G13  25208609.948   132472133.797       -3930.689          35.000 5                                                                
G15  22779420.420   119706656.368       -3476.481          43.000 7  22779417.760    93277906.989       -2708.752          39.000 6
G16  25259099.420   132737452.266       -3381.073          40.000 6                                                                
G18  21679778.778   113928005.331       -2544.504          46.000 7  21679775.580    88775055.181       -1982.889          45.000 7
G20  25110767.537   131957969.777       -3682.110          38.000 6  25110766.699   102824379.286       -2869.085          41.000 6
G23  20369447.968   107042170.967       -1287.713          48.000 8  20369444.297    83409471.845       -1003.299          48.000 8
G24  23518334.672   123589679.970        1815.420          40.000 6  23518334.745    96303653.314        1414.746          39.000 6
G27  21267823.807   111763164.958        -329.399          48.000 8  21267821.791    87088169.420        -256.814          45.000 7
G32  23392701.416   122929476.454        3222.162          43.000 7  23392702.388    95789240.901        2510.749          41.000 6
> 2026  4 14  0 55 30.0000000  0 11
G08  22645842.463   119004699.224        1645.380          44.000 7  22645841.619    92730944.735        1282.200          42.000 7
G10  21055156.790   110645593.083         881.328          51.000 8  21055154.689    86217335.985         686.774          47.000 7
G13  25231080.061   132590213.526       -3941.094          37.000 6                                                                
G15  22799312.346   119811187.500       -3491.935          44.000 7  22799309.000    93359359.789       -2721.029          39.000 6
G16  25278418.277   132838971.096       -3386.715          42.000 7                                                                
G18  21694348.135   114004568.139       -2559.428          46.000 7  21694345.286    88834714.471       -1994.450          45.000 7
G20  25131815.116   132068576.718       -3691.327          36.000 6  25131814.438   102910566.417       -2876.394          41.000 6
G23  20376842.656   107081030.102       -1302.810          48.000 8  20376839.170    83439751.684       -1015.088          49.000 8
G24  23508023.878   123535497.885        1796.502          40.000 6  23508024.553    96261433.562        1399.809          39.000 6
G27  21269776.104   111773426.534        -354.331          48.000 8  21269774.975    87096165.448        -276.036          46.000 7
G32  23374335.998   122832964.361        3212.173          44.000 7  23374336.417    95714036.707        2503.317          41.000 6
> 2026  4 14  0 56  0.0000000  0 11
G08  22636506.230   118955638.639        1625.426          44.000 7  22636505.831    92692715.740        1266.609          42.000 7
G10  21050165.247   110619362.675         867.488          51.000 8  21050163.182    86196896.739         675.806          47.000 7
G13  25253605.439   132708587.994       -3950.417          38.000 6                                                                
G15  22819289.621   119916169.356       -3506.612          43.000 7  22819286.152    93441163.797       -2732.356          39.000 6
G16  25297765.787   132940640.594       -3390.929          40.000 6                                                                
G18  21708999.992   114081564.525       -2573.433          46.000 7  21708997.028    88894711.635       -2005.401          45.000 7
G20  25152914.366   132179453.629       -3699.937          35.000 5  25152913.303   102996963.949       -2882.995          39.000 6
G23  20384320.423   107120326.236       -1316.908          48.000 8  20384316.756    83470372.041       -1026.134          48.000 8
G24  23497819.806   123481874.970        1778.237          40.000 6  23497820.169    96219649.545        1385.785          39.000 6
G27  21271869.187   111784423.809        -378.567          48.000 8  21271867.302    87104734.757        -294.983          45.000 7
G32  23356025.396   122736743.071        3202.771          44.000 7  23356026.529    95639059.204        2495.583          41.000 6
> 2026  4 14  0 56 30.0000000  0 11
G08  22627281.882   118907163.122        1606.012          44.000 7  22627281.070    92654942.631        1251.442          42.000 7
G10  21045250.666   110593537.104         853.936          51.000 8  21045248.868    86176772.927         665.281          47.000 7
G13  25276183.088   132827230.902       -3959.487          39.000 6                                                                
G15  22839347.733   120021575.731       -3520.930          42.000 7  22839344.727    93523298.600       -2743.337          39.000 6
G16  25317135.921   133042434.565       -3395.302          38.000 6                                                                
G18  21723729.746   114158970.436       -2587.185          46.000 7  21723726.980    88955027.884       -2015.944          45.000 7
G20  25174059.554   132290574.590       -3708.204          35.000 5  25174059.321   103083551.599       -2889.931          38.000 6
G23  20391876.852   107160034.939       -1330.615          48.000 8  20391873.092    83501313.873       -1036.891          48.000 8
G24  23487718.121   123428790.767        1760.211          40.000 6  23487718.254    96178285.265        1371.742          38.000 6
G27  21274097.427   111796133.186        -402.505          48.000 8  21274095.548    87113858.955        -313.646          45.000 7
G32  23337766.896   122640791.555        3193.713          44.000 7  23337767.509    95564291.844        2488.871          41.000 6
> 2026  4 14  0 57  0.0000000  0 11
G08  22618168.656   118859275.235        1586.618          43.000 7  22618168.684    92617627.427        1236.425          43.000 7
G10  21040413.366   110568116.983         840.730          51.000 8  21040411.507    86156965.062         655.208          46.000 7
G13  25298811.387   132946140.133       -3967.630          38.000 6                                                                
G15  22859485.942   120127404.130       -3534.265          42.000 7  22859483.471    93605762.252       -2754.414          40.000 6
G16  25336530.217   133144350.383       -3398.698          36.000 6                                                                
G18  21738537.930   114236785.821       -2600.419          46.000 7  21738534.398    89015663.241       -2026.397          44.000 7
G20  25195250.654   132401937.791       -3715.960          36.000 6  25195251.088   103170328.015       -2895.635          37.000 6
G23  20399511.356   107200155.808       -1344.147          48.000 8  20399507.867    83532576.881       -1047.308          48.000 8
G24  23477719.523   123376248.809        1742.468          41.000 6  23477719.814    96137343.523        1357.645          38.000 6
G27  21276461.160   111808555.154        -425.801          48.000 8  21276459.498    87123538.410        -331.827          45.000 7
G32  23319559.791   122545112.725        3184.908          44.000 7  23319560.288    95489737.018        2481.737          41.000 6
> 2026  4 14  0 57 30.0000000  0 11
G02  25208798.631   132473131.238        2855.679          32.000 5                                                                
G08  22609166.198   118811964.729        1568.322          43.000 7  22609166.055    92580762.125        1222.141          43.000 7
G10  21035651.020   110543090.021         828.812          51.000 8  21035649.101    86137463.531         645.845          46.000 7
G13  25321487.163   133065300.988       -3974.948          37.000 6                                                                
G15  22879702.263   120233639.667       -3546.779          42.000 7  22879698.843    93688543.153       -2763.854          39.000 6
G18  21753421.440   114314997.815       -2612.603          47.000 7  21753417.898    89076607.627       -2035.681          44.000 7
G20  25216486.293   132513528.539       -3722.212          37.000 6  25216486.069   103257281.806       -2901.326          34.000 5
G23  20407222.154   107240675.597       -1356.226          48.000 8  20407218.297    83564150.742       -1056.756          48.000 8
G24  23467822.586   123324239.830        1725.622          40.000 6  23467822.853    96096817.119        1344.647          38.000 6
G27  21278958.321   111821677.321        -448.064          48.000 8  21278956.625    87133763.468        -348.883          45.000 7
G32  23301402.572   122449696.729        3177.079          45.000 7  23301403.077    95415386.980        2475.659          41.000 6
> 2026  4 14  0 58  0.0000000  0 12
G02  25192510.379   132387534.290        2852.151          33.000 5                                                                
G08  22600269.679   118765215.727        1549.487          44.000 7  22600269.998    92544334.379        1207.227          43.000 7
G10  21030959.968   110518438.508         815.736          51.000 8  21030958.068    86118254.576         635.758          47.000 7
G13  25344206.102   133184692.368       -3983.202          37.000 6                                                                
G15  22899991.297   120340261.617       -3559.933          42.000 7  22899988.639    93771625.112       -2773.746          40.000 6
G16  25375374.139   133348477.9023      -3404.258          31.000 5                                                                
G18  21768376.145   114393588.075       -2625.627          46.000 7  21768373.486    89137846.780       -2046.126          45.000 7
G20  25237760.642   132625326.731       -3729.697          37.000 6  25237760.903   103344397.260       -2906.134          35.000 5
G23  20415004.917   107281575.672       -1369.351          48.000 8  20415001.616    83596020.916       -1067.043          48.000 8
G24  23458024.457   123272749.049        1708.178          41.000 6  23458024.184    96056694.484        1330.969          38.000 6
G27  21281585.340   111835481.845        -471.057          48.000 8  21281583.363    87144520.237        -367.026          45.000 7
G32  23283292.389   122354528.262        3168.314          44.000 7  23283292.853    95341229.825        2469.033          41.000 6
> 2026  4 14  0 58 30.0000000  0 12
G02  25176234.417   132301999.095        2851.363          35.000 5                                                                
G08  22591480.288   118719026.950        1530.655          43.000 7  22591480.650    92508343.155        1192.625          44.000 7
G10  21026339.701   110494159.178         803.573          51.000 8  21026337.696    86099335.635         626.099          46.000 7
G13  25366967.178   133304309.073       -3990.402          34.000 5                                                                
G15  22920353.415   120447264.099       -3572.557          43.000 7  22920350.766    93855003.619       -2783.717          40.000 6
G16  25394818.718   133450665.8111      -3407.243          35.000 5                                                                
G18  21783402.905   114472552.775       -2637.834          46.000 7  21783399.895    89199377.681       -2055.531          44.000 7
G20  25259074.671   132737326.719       -3736.604          40.000 6  25259073.215   103431669.989       -2911.643          34.000 5
G23  20422859.883   107322851.786       -1381.687          48.000 8  20422856.319    83628184.107       -1076.545          48.000 8
G24  23448324.711   123221776.170        1690.823          42.000 7  23448324.102    96016975.417        1317.373          37.000 6
G27  21284340.854   111849965.282        -493.647          48.000 8  21284339.789    87155806.051        -384.759          45.000 7
G32  23265229.126   122259606.389        3160.453          44.000 7  23265229.359    95267264.854        2462.679          40.000 6
> 2026  4 14  0 59  0.0000000  0 12
G02  25159966.679   132216511.519        2848.781          35.000 5                                                                
G08  22582794.675   118673384.367        1512.468          43.000 7  22582795.043    92472777.539        1178.555          44.000 7
G10  21021787.396   110470236.132         791.657          51.000 8  21021785.335    86080694.316         616.898          46.000 7
G13  25389769.647   133424132.353       -3996.974          33.000 5                                                                
G15  22940784.440   120554628.034       -3584.543          43.000 7  22940781.284    93938663.818       -2793.320          40.000 6
G16  25414277.768   133552915.171       -3408.852          39.000 6                                                                
G18  21798497.525   114551875.349       -2649.930          46.000 7  21798494.459    89261187.443       -2064.796          44.000 7
G20  25280422.456   132849510.200       -3742.377          40.000 6  25280421.299   103519085.654       -2916.455          37.000 6
G23  20430782.947   107364487.068       -1393.695          48.000 8  20430779.125    83660627.186       -1086.017          48.000 8
G24  23438721.082   123171308.244        1673.981          41.000 6  23438720.673    95977649.791        1304.290          37.000 6
G27  21287223.273   111865111.559        -515.703          48.000 8  21287221.888    87167608.354        -402.021          45.000 7
G32  23247211.008   122164917.656        3152.503          43.000 7  23247210.703    95193481.513        2456.656          40.000 6
> 2026  4 14  0 59 30.0000000  0 12
G02  25143708.224   132131074.070        2847.236          36.000 6                                                                
G08  22574213.185   118628291.329        1493.979          43.000 7  22574213.921    92437640.145        1164.415          44.000 7
G10  21017302.977   110446670.849         779.718          51.000 8  21017300.940    86062331.765         607.466          47.000 7
G13  25412608.272   133544161.185       -4003.801          30.000 5                                                                
G15  22961283.319   120662352.137       -3596.697          43.000 7  22961280.833    94022604.619       -2802.583          39.000 6
G16  25433745.922   133655224.001       -3411.034          39.000 6                                                                
G18  21813660.754   114631556.635       -2661.828          46.000 7  21813657.393    89323276.731       -2074.021          44.000 7
G20  25301804.908   132961876.266       -3748.432          40.000 6  25301803.766   103606643.563       -2920.959          38.000 6
G23  20438774.010   107406482.021       -1405.611          48.000 8  20438770.528    83693350.516       -1095.203          48.000 8
G24  23429213.938   123121349.589        1657.117          41.000 6  23429213.780    95938721.009        1291.080          37.000 6
G27  21290232.092   111880921.917        -537.667          48.000 8  21290230.124    87179928.111        -419.216          45.000 7
G32  23229236.863   122070465.829        3144.607          43.000 7  23229237.159    95119882.829        2450.431          41.000 6
> 2026  4 14  1  0  0.0000000  0 12
G02  25127454.383   132045660.727        2846.264          36.000 6                                                                
G08  22565732.822   118583722.796        1476.285          44.000 7  22565732.603    92402911.458        1150.474          44.000 7
G10  21012881.632   110423436.343         768.392          51.000 8  21012879.464    86044226.968         598.779          47.000 7
G13  25435484.294   133664365.402       -4010.130          32.000 5                                                                
G15  22981845.550   120770406.426       -3607.642          43.000 7  22981843.027    94106802.740       -2811.329          39.000 6
G16  25453221.461   133757562.443       -3411.966          39.000 6                                                                
G18  21828886.418   114711569.052       -2673.161          46.000 7  21828883.316    89385624.041       -2082.863          44.000 7
G20  25323216.929   133074395.595       -3753.503          39.000 6  25323215.659   103694320.898       -2924.719          39.000 6
G23  20446828.544   107448808.755       -1416.902          48.000 8  20446825.129    83726332.381       -1103.986          48.000 8
G24  23419799.232   123071876.217        1640.723          40.000 6  23419799.404    95900170.398        1278.314          39.000 6
G27  21293361.725   111897369.162        -559.572          48.000 8  21293359.784    87192744.133        -435.933          45.000 7
G32  23211303.925   121976226.375        3137.365          44.000 7  23211303.813    95046449.621        2445.064          41.000 6
> 2026  4 14  1  0 30.0000000  0 12
G02  25111211.258   131960301.161        2844.170          37.000 6                                                                
G08  22557357.631   118539708.830        1457.704          44.000 7  22557356.983    92368614.885        1135.772          43.000 7
G10  21008528.580   110400560.818         756.438          51.000 8  21008526.616    86026401.897         589.332          46.000 7
G13  25458397.257   133784771.475       -4017.373          31.000 5                                                                
G15  23002475.584   120878816.573       -3619.744          43.000 7  23002472.693    94191278.153       -2821.045          39.000 6
G16  25472706.469   133859955.885       -3413.777          40.000 6                                                                
G18  21844180.328   114791940.139       -2685.102          46.000 7  21844177.377    89448250.839       -2092.273          44.000 7
G20  25344662.810   133187094.060       -3759.608          38.000 6  25344661.936   103782137.832       -2929.581          39.000 6
G23  20454951.630   107491494.519       -1429.071          48.000 8  20454948.019    83759594.003       -1113.507          48.000 8
G24  23410483.147   123022919.221        1623.188          41.000 6  23410483.265    95862022.147        1264.610          38.000 6
G27  21296617.633   111914481.220        -581.516          47.000 7  21296616.314    87206078.213        -453.059          45.000 7
G32  23193417.101   121882229.881        3129.112          44.000 7  23193416.771    94973205.715        2438.103          40.000 6
> 2026  4 14  1  1  0.0000000  0 12
G02  25094980.465   131875008.637        2842.353          39.000 6                                                                
G08  22549089.833   118496263.470        1439.164          44.000 7  22549088.954    92334761.381        1121.354          43.000 7
G10  21004246.190   110378056.507         744.343          51.000 8  21004244.097    86008866.079         579.968          47.000 7
G13  25481348.850   133905388.475       -4023.477          26.000 4                                                                
G15  23023174.496   120987591.965       -3631.743          42.000 7  23023171.682    94276038.135       -2829.753          38.000 6
G16  25492203.625   133962413.505       -3415.891          38.000 6                                                                
G18  21859545.244   114872681.540       -2697.197          46.000 7  21859541.951    89511166.191       -2101.857          44.000 7
G20  25366144.469   133299981.562       -3765.369          38.000 6  25366143.897   103870102.087       -2934.254          41.000 6
G23  20463144.903   107534550.576       -1441.142          48.000 8  20463141.263    83793144.179       -1123.022          48.000 8
G24  23401268.346   122974493.710        1605.802          41.000 6  23401267.646    95824288.006        1251.234          38.000 6
G27  21300002.951   111932270.074        -603.922          48.000 8  21300001.439    87219939.659        -470.560          45.000 7
G32  23175578.535   121788490.958        3120.622          44.000 7  23175578.450    94900162.509        2431.744          41.000 6
> 2026  4 14  1  1 30.0000000  0 12
G02  25078763.414   131789784.814        2839.284          39.000 6                                                                
G08  22540931.036   118453389.275        1419.498          44.000 7  22540930.520    92301352.963        1105.785          43.000 7
G10  21000034.224   110355924.087         731.344          51.000 8  21000032.371    85991620.054         569.782          47.000 7
G13  25504345.965                       -4029.626          13.000 2                                                                
G15  23043943.128   121096730.183       -3644.165          42.000 7  23043940.606    94361080.860       -2839.789          39.000 6
G16  25511712.635   134064933.354       -3418.139          37.000 6                                                                
G18  21874980.370   114953793.246       -2709.933          46.000 7  21874976.984    89574370.089       -2111.736          44.000 7
G20  25387661.664   133413056.345       -3772.566          36.000 6  25387661.442   103958212.202       -2939.445          40.000 6
G23  20471408.417   107577976.650       -1453.860          48.000 8  20471405.293    83826982.674       -1132.900          48.000 8
G24  23392154.702   122926603.211        1587.408          41.000 6  23392154.674    95786970.815        1236.980          39.000 6
G27  21303517.000   111950736.033        -626.943          48.000 8  21303515.492    87234328.722        -488.551          45.000 7
G32  23157790.240   121695012.627        3111.439          44.000 7  23157790.409    94827322.366        2424.632          41.000 6
> 2026  4 14  1  2  0.0000000  0 11
G02  25062557.177   131704620.864        2837.346          40.000 6                                                                
G08  22532880.056   118411077.535        1400.717          44.000 7  22532878.933    92268382.768        1091.453          43.000 7
G10  20995891.357   110334153.004         719.283          51.000 8  20995889.623    85974655.581         560.569          47.000 7
G15  23064778.342   121206218.033       -3655.811          43.000 7  23064775.333    94446396.034       -2848.776          39.000 6
G16  25531230.749   134167501.792       -3419.663          37.000 6                                                                
G18  21890483.729   115035264.105       -2721.966          46.000 7  21890480.558    89637853.837       -2120.936          45.000 7
G20  25409211.862   133526305.709       -3778.335          34.000 5  25409212.059   104046458.372       -2944.019          41.000 6
G23  20479740.536   107621761.258       -1465.686          48.000 8  20479737.091    83861100.549       -1142.133          48.000 8
G24  23383141.769   122879240.054        1569.643          41.000 6  23383141.543    95750064.535        1223.204          39.000 6
G27  21307157.792   111969868.287        -649.059          48.000 8  21307156.698    87249236.980        -505.793          45.000 7
G32  23140049.786   121601786.750        3102.996          45.000 7  23140049.466    94754678.948        2417.901          40.000 6
> 2026  4 14  1  2 30.0000000  0 11
G02  25046360.783   131619506.208        2836.060          41.000 6                                                                
G08  22524932.873   118369318.344        1382.998          44.000 7  22524932.618    92235843.164        1077.535          43.000 7
G10  20991814.812   110312731.558         708.074          51.000 8  20991813.236    85957963.566         551.766          47.000 7
G15  23085676.333   121316040.944       -3666.142          41.000 6  23085673.851    94531972.293       -2856.980          39.000 6
G16  25550754.740   134270104.369       -3420.555          32.000 5                                                                
G18  21906052.943   115117081.739       -2733.001          46.000 7  21906050.050    89701607.801       -2129.654          45.000 7
G20  25430792.817   133639715.477       -3782.966          35.000 5  25430793.439   104134829.511       -2947.904          39.000 6
G23  20488138.320   107665891.810       -1476.624          48.000 8  20488134.510    83895487.983       -1150.666          48.000 8
G24  23374227.532   122832395.453        1552.717          41.000 6  23374227.574    95713562.302        1209.802          39.000 6
G27  21310923.341   111989654.774        -670.486          48.000 8  21310921.848    87264655.017        -522.472          45.000 7
G32  23122355.936   121508804.012        3095.277          45.000 7  23122355.455    94682224.959        2412.261          41.000 6
> 2026  4 14  1  3  0.0000000  0 11
G02  25030168.777   131534418.612        2836.078          41.000 6                                                                
G08  22517087.210   118328090.422        1365.786          44.000 7  22517087.811    92203717.561        1064.219          44.000 7
G10  20987800.708   110291636.663         698.038          51.000 8  20987798.832    85941526.010         543.828          46.000 7
G15  23106634.107   121426173.042       -3675.855          41.000 6  23106631.043    94617789.433       -2864.209          39.000 6
G16  25570280.790   134372715.384       -3420.747          32.000 5                                                                
G18  21921683.721   115199222.426       -2743.077          46.000 7  21921680.985    89765613.511       -2137.645          45.000 7
G20  25452399.823   133753260.364       -3786.773          34.000 5  25452400.300   104223305.984       -2951.124          38.000 6
G23  20496597.024   107710344.261       -1486.823          48.000 8  20496593.539    83930126.260       -1158.557          48.000 8
G24  23365408.079   122786049.092        1537.047          41.000 6  23365408.354    95677448.306        1197.679          39.000 6
G27  21314808.651   112010072.048        -690.785          48.000 8  21314806.826    87280564.577        -538.440          45.000 7
G32  23104703.718   121416043.729        3088.556          45.000 7  23104703.779    94609944.322        2406.651          41.000 6
> 2026  4 14  1  3 30.0000000  0 11
G02  25013979.486   131449343.036        2835.499          42.000 7                                                                
G08  22509340.406   118287379.043        1348.048          44.000 7  22509340.301    92171994.441        1050.348          44.000 7
G10  20983845.647   110270851.752         687.384          51.000 8  20983843.516    85925329.983         535.449          47.000 7
G15  23127646.444   121536594.891       -3685.651          41.000 6  23127643.723    94703832.396       -2872.193          40.000 6
G16  25589803.817   134475315.326       -3420.621          31.000 5                                                                
G18  21937373.091   115281668.950       -2753.719          46.000 7  21937370.149    89829857.508       -2145.724          45.000 7
G20  25474028.454   133866921.532       -3790.969          35.000 5  25474028.721   104311873.067       -2953.972          37.000 6
G23  20505114.349   107755101.128       -1497.403          48.000 8  20505110.620    83965001.717       -1166.652          48.000 8
G24  23356680.364   122740187.261        1520.338          41.000 6  23356681.330    95641711.885        1184.757          40.000 6
G27  21318810.248   112031103.145        -711.686          48.000 8  21318809.107    87296952.435        -554.377          45.000 7
G32  23087091.743   121323491.646        3081.375          45.000 7  23087091.363    94537825.916        2400.891          41.000 6
> 2026  4 14  1  4  0.0000000  0 11
G02  24997797.031   131364304.712        2833.520          42.000 7                                                                
G08  22501696.123   118247209.654        1329.773          44.000 7  22501695.733    92140693.620        1036.073          43.000 7
G10  20979953.866   110250400.540         675.873          51.000 8  20979951.833    85909393.990         526.642          47.000 7
G15  23148718.266   121647327.494       -3696.597          42.000 7  23148715.584    94790117.468       -2880.110          39.000 6
G16  25609329.234   134577924.873       -3421.147          33.000 5                                                                
G18  21953124.319   115364444.355       -2764.890          46.000 7  21953121.655    89894357.799       -2154.645          45.000 7
G20  25495684.012   133980720.420       -3795.726          37.000 6  25495684.311   104400547.483       -2957.925          37.000 6
G23  20513693.467   107800185.175       -1508.453          48.000 8  20513689.853    84000132.151       -1175.453          48.000 8
G24  23348051.060   122694836.497        1502.966          41.000 6  23348051.171    95606373.677        1170.992          39.000 6
G27  21322933.711   112052771.353        -733.354          48.000 8  21322932.107    87313836.757        -571.259          45.000 7
G32  23069524.420   121231173.959        3072.868          44.000 7  23069524.281    94465890.125        2394.578          42.000 7
> 2026  4 14  1  4 30.0000000  0 11
G02  24981622.947   131279308.555        2832.493          42.000 7                                                                
G08  22494156.167   118207587.968        1311.724          44.000 7  22494155.666    92109819.606        1021.938          43.000 7
G10  20976126.284   110230286.978         664.832          51.000 8  20976124.218    85893721.102         517.938          46.000 7
G15  23169849.752   121758371.825       -3706.530          42.000 7  23169846.572    94876645.482       -2888.150          39.000 6
G16  25628857.847   134680545.171       -3420.899          35.000 5                                                                
G18  21968939.487   115447552.008       -2775.668          45.000 7  21968936.469    89959116.931       -2162.700          45.000 7
G20  25517366.646   134094658.791       -3800.322          37.000 6  25517366.939   104489330.532       -2961.105          37.000 6
G23  20522335.641   107845599.435       -1519.226          48.000 8  20522331.681    84035519.890       -1183.961          48.000 8
G24  23339519.769   122650003.574        1485.923          41.000 6  23339519.695    95571438.980        1157.862          39.000 6
G27  21327178.956   112075080.184        -754.258          48.000 8  21327177.028    87331220.264        -587.769          45.000 7
G32  23052002.346   121139096.911        3065.095          44.000 7  23052002.674    94394141.878        2388.382          41.000 6
> 2026  4 14  1  5  0.0000000  0 11
G02  24965456.048   131194351.282        2831.670          42.000 7                                                                
G08  22486720.503   118168511.214        1293.838          44.000 7  22486720.102    92079370.211        1007.955          43.000 7
G10  20972362.412   110210506.473         654.022          51.000 8  20972360.255    85878307.726         509.711          47.000 7
G15  23191038.284   121869720.634       -3716.255          42.000 7  23191035.672    94963410.740       -2895.663          39.000 6
G16  25648387.535   134783168.865       -3420.630          36.000 6                                                                
G18  21984816.143   115530986.598       -2786.254          45.000 7  21984813.673    90024130.867       -2171.010          45.000 7
G20  25539073.186   134208729.869       -3804.346          37.000 6  25539073.597   104578217.037       -2964.466          37.000 6
G23  20531039.560   107891338.439       -1529.606          48.000 8  20531035.581    84071160.661       -1191.887          48.000 8
G24  23331086.109   122605686.658        1468.752          40.000 6  23331086.082    95536906.359        1144.489          39.000 6
G27  21331545.129   112098024.623        -775.034          48.000 8  21331543.369    87349099.042        -603.892          45.000 7
G32  23034526.142   121047258.384        3057.590          44.000 7  23034525.684    94322579.438        2382.816          41.000 6
> 2026  4 14  1  5 30.0000000  0 11
G02  24949292.024   131109408.643        2831.652          42.000 7                                                                
G08  22479383.650   118129955.470        1276.830          43.000 7  22479382.798    92049326.770         995.109          43.000 7
G10  20968656.576   110191033.469         644.385          51.000 8  20968654.583    85863133.982         502.094          47.000 7
G15  23212280.021   121981345.734       -3724.909          41.000 6  23212277.702    95050391.275       -2902.601          39.000 6
G16  25667911.905   134885767.536       -3419.536          36.000 6                                                                
G18  22000750.843   115614721.874       -2795.688          45.000 7  22000748.127    90089379.103       -2178.389          45.000 7
G20  25560800.587   134322905.557       -3807.087          37.000 6  25560800.059   104667185.023       -2965.966          36.000 6
G23  20539800.168   107937375.672       -1539.069          48.000 8  20539796.253    84107033.822       -1199.286          48.000 8
G24  23322746.319   122561862.952        1452.982          40.000 6  23322746.831    95502758.076        1132.165          39.000 6
G27  21336027.699   112121578.596        -794.948          48.000 8  21336026.107    87367452.778        -619.452          45.000 7
G32  23017090.548   120955635.113        3050.938          43.000 7  23017090.424    94251184.745        2377.441          41.000 6
> 2026  4 14  1  6  0.0000000  0 11
G02  24933129.065   131024473.752        2830.861          41.000 6                                                                
G08  22472144.480   118091914.135        1259.173          44.000 7  22472143.993    92019684.191         981.242          43.000 7
G10  20965007.892   110171859.572         634.088          51.000 8  20965005.927    85848193.294         494.116          47.000 7
G15  23233572.172   122093235.736       -3734.259          41.000 6  23233569.338    95137578.230       -2909.844          39.000 6
G16  25687428.613   134988330.360       -3418.414          37.000 6                                                                
G18  22016740.278   115698748.831       -2805.869          45.000 7  22016737.961    90154854.605       -2186.361          45.000 7
G20  25582545.566   134437175.564       -3810.479          38.000 6  25582545.020   104756226.493       -2969.642          37.000 6
G23  20548615.379   107983701.844       -1549.043          47.000 7  20548611.861    84143132.129       -1207.107          48.000 8
G24  23314499.839   122518526.845        1436.360          40.000 6  23314499.840    95468989.720        1119.354          38.000 6
G27  21340624.065   112145733.230        -815.394          48.000 8  21340622.709    87386274.561        -635.328          46.000 7
G32  22999695.079   120864221.153        3043.510          45.000 7  22999695.003    94179953.149        2371.279          41.000 6
> 2026  4 14  1  6 30.0000000  0 11
G02  24916970.859   130939561.300        2829.639          40.000 6                                                                
G08  22465006.239   118054402.498        1241.140          44.000 7  22465005.233    91990454.368         966.988          43.000 7
G10  20961418.864   110152998.390         623.254          51.000 8  20961416.716    85833496.288         485.553          46.000 7
G15  23254916.349   122205401.396       -3743.540          42.000 7  23254913.398    95224980.009       -2917.187          38.000 6
G16  25706941.261   135090868.153       -3417.538          37.000 6                                                                
G18  22032788.286   115783080.356       -2816.482          45.000 7  22032785.806    90220567.433       -2194.563          45.000 7
G20  25604311.269   134551551.177       -3814.729          38.000 6  25604309.893   104845350.332       -2972.270          36.000 6
G23  20557488.468   108030329.722       -1559.651          48.000 8  20557484.951    84179465.521       -1215.253          48.000 8
G24  23306348.965   122475694.735        1419.058          40.000 6  23306349.293    95435614.100        1105.604          39.000 6
G27  21345337.182   112170501.603        -836.312          48.000 8  21345336.086    87405574.574        -651.593          46.000 7
G32  22982342.811   120773032.483        3035.596          45.000 7  22982342.151    94108897.071        2365.332          41.000 6
> 2026  4 14  1  7  0.0000000  0 11
G02  24900821.472   130854696.157        2827.807          39.000 6                                                                
G08  22457973.702   118017445.763        1222.381          44.000 7  22457972.943    91961656.910         952.574          43.000 7
G10  20957893.872   110134473.402         611.774          51.000 8  20957891.311    85819061.230         476.904          47.000 7
G15  23276317.814   122317863.764       -3754.020          42.000 7  23276314.819    95312612.953       -2925.373          38.000 6
G16  25726453.015   135193401.308       -3418.184          37.000 6                                                                
G18  22048898.462   115867739.246       -2827.371          46.000 7  22048895.485    90286535.375       -2203.411          44.000 7
G20  25626099.853   134666053.862       -3818.858          38.000 6  25626098.986   104934573.142       -2975.741          37.000 6
G23  20566423.177   108077281.793       -1570.497          47.000 7  20566419.694    84216051.540       -1223.713          48.000 8
G24  23298299.356   122433392.773        1401.005          40.000 6  23298298.878    95402651.562        1092.010          39.000 6
G27  21350171.622   112195906.640        -857.533          48.000 8  21350170.328    87425370.687        -668.315          45.000 7
G32  22965037.584   120682094.939        3026.940          45.000 7  22965037.468    94038036.693        2358.519          42.000 7
> 2026  4 14  1  7 30.0000000  0 11
G02  24884682.533   130769886.409        2826.312          38.000 6                                                                
G08  22451048.343   117981052.213        1203.692          44.000 7  22451047.612    91933298.318         937.790          44.000 7
G10  20954433.685   110116291.246         600.299          51.000 8  20954431.415    85804893.347         467.712          47.000 7
G15  23297775.544   122430626.494       -3763.856          43.000 7  23297772.697    95400479.969       -2932.574          39.000 6
G16  25745964.119   135295934.011       -3417.759          36.000 6                                                                
G18  22065072.163   115952731.512       -2838.669          46.000 7  22065069.355    90352763.080       -2212.153          44.000 7
G20  25647913.906   134780687.924       -3823.287          37.000 6  25647913.069   105023898.384       -2979.322          35.000 5
G23  20575420.557   108124563.847       -1581.647          48.000 8  20575417.283    84252894.694       -1232.434          48.000 8
G24  23290352.208   122391630.330        1383.139          40.000 6  23290352.141    95370109.480        1077.583          39.000 6
G27  21355128.227   112221954.400        -878.982          47.000 7  21355126.892    87445667.634        -684.769          45.000 7
G32  22947782.368   120591417.550        3018.008          45.000 7  22947782.461    93967378.994        2351.903          41.000 6
> 2026  4 14  1  8  0.0000000  0 11
G02  24868553.503   130685129.607        2824.807          37.000 6                                                                
G08  22444229.344   117945219.793        1185.177          44.000 7  22444229.145    91905376.960         923.550          44.000 7
G10  20951038.030   110098448.187         589.197          51.000 8  20951036.259    85790989.670         459.216          47.000 7
G15  23319289.419   122543682.944       -3773.037          43.000 7  23319286.753    95488575.865       -2940.223          39.000 6
G16  25765474.859   135398459.675       -3417.180          36.000 6                                                                
G18  22081308.522   116038052.667       -2849.346          46.000 7  22081305.219    90419247.065       -2220.452          44.000 7
G20  25669752.190   134895447.689       -3826.991          37.000 6  25669751.531   105113321.516       -2982.384          37.000 6
G23  20584480.054   108172171.237       -1592.188          48.000 8  20584476.439    84289991.357       -1240.649          48.000 8
G24  23282507.492   122350406.379        1365.512          41.000 6  23282507.395    95337986.978        1063.892          39.000 6
G27  21360206.548   112248640.583        -899.897          48.000 8  21360204.920    87466462.049        -701.370          45.000 7
G32  22930576.245   120500998.957        3009.764          45.000 7  22930576.076    93896922.994        2345.167          41.000 6
> 2026  4 14  1  8 30.0000000  0 11
G02  24852433.357   130600419.608        2822.858          37.000 6                                                                
G08  22437516.079   117909942.529        1166.347          44.000 7  22437515.888    91877888.201         908.782          44.000 7
G10  20947705.800   110080936.596         577.972          51.000 8  20947703.773    85777344.288         450.378          46.000 7
G15  23340857.582   122657023.020       -3782.806          42.000 7  23340854.561    95576892.775       -2948.063          39.000 6
G16  25784980.588   135500967.777       -3416.698          34.000 5                                                                
G18  22097605.220   116123694.478       -2860.233          46.000 7  22097602.125    90485980.906       -2228.634          44.000 7
G20  25691612.531   135010323.210       -3830.971          37.000 6  25691611.517   105202834.923       -2985.672          37.000 6
G23  20593599.792   108220095.449       -1602.961          48.000 8  20593596.215    84327334.888       -1249.049          48.000 8
G24  23274764.483   122309716.030        1347.226          41.000 6  23274764.111    95306280.234        1049.652          39.000 6
G27  21365404.655   112275956.936        -921.216          47.000 7  21365402.902    87487747.506        -717.899          45.000 7
G32  22913418.164   120410833.927        3001.223          45.000 7  22913418.028    93826664.548        2338.724          42.000 7
> 2026  4 14  1  9  0.0000000  0 11
G02  24836323.397   130515760.024        2820.938          39.000 6                                                                
G08  22430909.838   117875224.502        1147.755          44.000 7  22430909.512    91850835.187         894.453          44.000 7
G10  20944437.303   110063758.894         566.968          51.000 8  20944434.885    85763959.077         441.797          47.000 7
G15  23362479.286   122770646.184       -3791.869          42.000 7  23362476.191    95665430.263       -2955.017          38.000 6
G16  25804484.967   135603458.328       -3415.363          34.000 5                                                                
G18  22113963.816   116209658.594       -2870.776          46.000 7  22113961.234    90552965.884       -2237.027          44.000 7
G20  25713495.214   135125315.004       -3834.927          39.000 6  25713493.464   105292438.883       -2987.744          37.000 6
G23  20602780.068   108268338.049       -1613.448          48.000 8  20602776.510    84364926.518       -1257.173          48.000 8
G24  23267123.571   122269564.322        1329.255          40.000 6  23267123.695    95274993.244        1035.948          39.000 6
G27  21370723.175   112303905.256        -942.060          48.000 8  21370721.458    87509525.389        -734.021          45.000 7
G32  22896309.734   120320927.272        2992.467          46.000 7  22896309.393    93756607.425        2332.007          42.000 7
> 2026  4 14  1  9 30.0000000  0 11
G02  24820225.475   130431162.133        2818.866          40.000 6                                                                
G08  22424411.922   117841077.070        1129.087          44.000 7  22424411.253    91824226.810         879.655          43.000 7
G10  20941233.764   110046924.916         555.579          51.000 8  20941231.605    85750841.694         433.002          47.000 7
G15  23384156.455   122884559.529       -3801.738          42.000 7  23384153.988    95754193.849       -2962.438          40.000 6
G16  25823986.297   135705938.508       -3415.209          35.000 5                                                                
G18  22130385.590   116295954.154       -2881.792          46.000 7  22130382.257    90620209.151       -2245.764          44.000 7
G20  25735400.905   135240430.804       -3839.248          39.000 6  25735399.318   105382139.466       -2991.623          38.000 6
G23  20612022.729   108316907.892       -1624.167          47.000 7  20612019.168    84402773.147       -1265.617          48.000 8
G24  23259587.901   122229963.684        1311.083          41.000 6  23259587.955    95244135.690        1021.369          39.000 6
G27  21376163.747   112332494.657        -963.407          48.000 8  21376161.866    87531802.830        -750.651          45.000 7
G32  22879252.419   120231291.097        2983.528          45.000 7  22879252.350    93686761.108        2324.790          42.000 7
> 2026  4 14  1 10  0.0000000  0 11
G02  24804134.902   130346604.961        2817.181          41.000 6                                                                
G08  22418018.321   117807479.384        1110.139          44.000 7  22418017.712    91798046.804         864.906          43.000 7
G10  20938091.235   110030412.143         544.397          51.000 8  20938089.140    85737974.610         424.237          47.000 7
G15  23405883.388   122998738.063       -3810.951          40.000 6  23405881.580    95843164.058       -2969.785          41.000 6
G16  25843480.924   135808382.950       -3414.603          36.000 6                                                                
G18  22146865.818   116382557.986       -2892.615          46.000 7  22146862.666    90687692.606       -2253.970          44.000 7
G20  25757325.397   135355645.631       -3842.877          38.000 6  25757324.480   105471917.250       -2994.400          38.000 6
G23  20621323.120   108365781.675       -1634.829          48.000 8  20621319.414    84440856.599       -1273.996          48.000 8
G24  23252153.204   122190894.327        1292.968          40.000 6  23252153.076    95213692.085        1007.382          39.000 6
G27  21381721.658   112361701.997        -984.398          48.000 8  21381719.698    87554561.781        -767.113          45.000 7
G32  22862242.822   120141905.353        2974.588          46.000 7  22862242.700    93617109.910        2317.775          42.000 7
> 2026  4 14  1 10 30.0000000  0 11
G02  24788050.004   130262080.531        2817.305          41.000 6                                                                
G08  22411727.723   117774423.860        1093.730          43.000 7  22411727.391    91772289.253         852.096          43.000 7
G10  20935008.395   110014211.418         535.339          51.000 8  20935006.470    85725350.693         417.072          47.000 7
G15  23427659.245   123113169.959       -3818.338          40.000 6  23427657.277    95932331.686       -2975.159          41.000 6
G16  25862965.965   135910780.054       -3411.626          35.000 5                                                                
G18  22163402.601   116469460.191       -2901.380          45.000 7  22163399.403    90755408.578       -2260.676          43.000 7
G20  25779266.847   135470948.485       -3844.342          38.000 6  25779265.951   105561763.665       -2996.117          38.000 6
G23  20630679.495   108414949.339       -1643.298          48.000 8  20630675.791    84479169.056       -1280.580          48.000 8
G24  23244818.791   122152349.694        1276.554          41.000 6  23244818.198    95183657.354         994.576          40.000 6
G27  21387395.101   112391517.398       -1003.470          47.000 7  21387393.918    87577794.563        -782.031          45.000 7
G32  22845279.783   120052763.221        2967.819          45.000 7  22845279.966    93547648.558        2312.590          42.000 7
> 2026  4 14  1 11  0.0000000  0 11
G02  24771966.585   130177562.185        2817.307          42.000 7                                                                
G08  22405535.960   117741884.059        1076.186          44.000 7  22405535.199    91746933.569         838.503          44.000 7
G10  20931979.865   109998294.722         525.867          51.000 8  20931977.444    85712948.070         409.741          47.000 7
G15  23449477.883   123227824.300       -3825.532          41.000 6  23449475.339    96021672.667       -2981.162          40.000 6
G16  25882436.564   136013099.156       -3409.513          36.000 6                                                                
G18  22179990.565   116556632.044       -2910.234          45.000 7  22179987.664    90823334.677       -2267.731          44.000 7
G20  25801218.556   135586309.956       -3846.500          37.000 6  25801218.107   105651655.758       -2997.157          38.000 6
G23  20640085.785   108464381.985       -1652.149          47.000 7  20640082.256    84517687.997       -1287.477          48.000 8
G24  23237578.537   122114304.365        1259.713          40.000 6  23237578.518    95154011.670         981.567          40.000 6
G27  21393179.107   112421912.130       -1022.783          47.000 7  21393177.786    87601478.739        -797.006          45.000 7
G32  22828357.589   119963839.028        2960.600          45.000 7  22828358.051    93478357.031        2306.771          42.000 7
> 2026  4 14  1 11 30.0000000  0 11
G02  24755880.037   130093027.697        2817.253          42.000 7                                                                
G08  22399437.798   117709837.547        1059.035          44.000 7  22399437.486    91721962.265         825.283          44.000 7
G10  20929000.366   109982638.043         516.748          51.000 8  20928997.994    85700748.067         402.631          46.000 7
G15  23471332.852   123342674.272       -3832.242          41.000 6  23471330.466    96111166.085       -2986.203          40.000 6
G16  25901887.781   136115313.104       -3406.139          35.000 5                                                                
G18  22196625.548   116644048.861       -2918.799          45.000 7  22196622.963    90891451.624       -2274.370          44.000 7
G20  25823177.170   135701703.510       -3847.710          37.000 6  25823177.289   105741572.829       -2998.091          37.000 6
G23  20649538.516   108514054.765       -1660.539          48.000 8  20649534.719    84556394.044       -1293.956          48.000 8
G24  23230429.572   122076736.927        1243.590          40.000 6  23230429.700    95124738.429         968.887          40.000 6
G27  21399068.422   112452861.449       -1041.796          47.000 7  21399067.002    87625595.087        -811.758          45.000 7
G32  22811473.587   119875111.169        2953.555          46.000 7  22811473.634    93409218.486        2301.396          42.000 7
> 2026  4 14  1 12  0.0000000  0 11
G02  24739802.499   130008538.990        2815.425          42.000 7                                                                
G08  22393445.123   117678346.706        1040.260          44.000 7  22393444.874    91697423.980         810.715          44.000 7
G10  20926081.799   109967302.321         505.743          51.000 8  20926079.585    85688798.161         394.073          46.000 7
G15  23493236.272   123457778.146       -3841.150          41.000 6  23493234.061    96200857.342       -2992.986          39.000 6
G16  25921329.806   136217480.939       -3404.578          37.000 6                                                                
G18  22213318.431   116731770.776       -2929.129          45.000 7  22213315.810    90959806.315       -2282.345          44.000 7
G20  25845153.040   135817188.183       -3851.007          37.000 6  25845153.335   105831560.931       -3000.613          37.000 6
G23  20659048.013   108564027.701       -1670.831          47.000 7  20659044.285    84595333.988       -1302.034          48.000 8
G24  23223383.754   122039710.893        1224.991          40.000 6  23223383.713    95095887.016         954.410          39.000 6
G27  21405074.875   112484425.474       -1062.654          47.000 7  21405073.592    87650190.406        -827.982          45.000 7
G32  22794638.744   119786642.922        2944.312          46.000 7  22794638.665    93340282.251        2294.321          43.000 7
> 2026  4 14  1 12 30.0000000  0 11
G02  24723731.339   129924085.582        2814.543          42.000 7                                                                
G08  22387556.444   117647401.068        1022.299          44.000 7  22387555.839    91673310.496         796.998          44.000 7
G10  20923222.424   109952275.484         495.630          51.000 8  20923220.193    85677088.947         386.298          46.000 7
G15  23515185.543   123573121.235       -3848.550          41.000 6  23515183.035    96290735.027       -2999.034          39.000 6
G16  25940759.939   136319587.672       -3402.651          36.000 6                                                                
G18  22230067.110   116819785.047       -2938.775          45.000 7  22230064.623    91028388.831       -2290.018          44.000 7
G20  25867143.849   135932750.377       -3853.427          38.000 6  25867143.427   105921609.552       -3002.457          37.000 6
G23  20668612.296   108614287.887       -1680.113          47.000 7  20668608.461    84634497.760       -1309.290          48.000 8
G24  23216439.137   122003216.726        1207.488          41.000 6  23216439.109    95067450.020         941.132          40.000 6
G27  21411195.806   112516591.350       -1082.244          47.000 7  21411194.746    87675254.708        -843.331          45.000 7
G32  22777851.240   119698424.534        2936.425          46.000 7  22777850.973    93271540.734        2287.983          42.000 7
> 2026  4 14  1 13  0.0000000  0 11
G02  24707668.832   129839676.884        2812.788          42.000 7                                                                
G08  22381773.340   117617010.037        1004.051          44.000 7  22381773.249    91649629.207         782.485          44.000 7
G10  20920423.362   109937565.445         485.364          51.000 8  20920421.032    85665626.599         378.137          46.000 7
G15  23537181.422   123688708.501       -3856.809          42.000 7  23537178.589    96380802.980       -3005.585          38.000 6
G16  25960179.888   136421638.783       -3400.279          36.000 6                                                                
G18  22246872.819   116908098.872       -2948.627          45.000 7  22246870.433    91097204.741       -2297.586          44.000 7
G20                                                                  25889147.828                       -3012.002          22.000 3
G23  20678232.443   108664842.410       -1689.878          48.000 8  20678228.859    84673890.890       -1316.757          48.000 8
G24  23209597.506   121967264.875        1189.632          41.000 6  23209597.462    95039435.683         926.888          40.000 6
G27  21417432.903   112549366.245       -1102.583          47.000 7  21417431.107    87700793.573        -859.122          44.000 7
G32  22761113.323   119610466.320        2927.732          46.000 7  22761112.953    93203001.932        2281.303          43.000 7
> 2026  4 14  1 13 30.0000000  0 10
G02  24690006.322   129746861.174        2811.621          41.000 6                                                                
G08  22375530.674   117584202.341         983.949          44.000 7  22375529.854    91624064.782         766.681          44.000 7
G10  20917409.710   109921730.424         473.755          51.000 8  20917407.810    85653287.629         369.220          47.000 7
G15  23561425.869   123816113.903       -3865.278          43.000 7  23561423.176    96480079.867       -3011.798          38.000 6
G16  25981524.951   136533807.309       -3398.184          37.000 6                                                                
G18  22265420.908   117005569.280       -2959.396          45.000 7  22265417.982    91173155.646       -2305.893          44.000 7
G23  20688875.161   108720771.404       -1700.360          47.000 7  20688872.041    84717471.908       -1324.908          48.000 8
G24  23202188.139   121928327.401        1169.654          41.000 6  23202187.772    95009094.827         911.571          39.000 6
G27  21424423.027   112586101.059       -1124.639          47.000 7  21424421.380    87729418.101        -876.354          45.000 7
G32  22742755.053   119513995.645        2918.416          46.000 7  22742755.264    93127830.057        2273.991          43.000 7
> 2026  4 14  1 14  0.0000000  0 10
G02  24675565.036   129670972.503        2810.385          40.000 6                                                                
G08  22370519.355   117557870.013         967.496          44.000 7  22370518.919    91603546.107         753.524          44.000 7
G10  20915000.360   109909068.121         464.618          51.000 8  20914998.208    85643420.916         361.908          46.000 7
G15  23581304.361   123920578.291       -3872.147          42.000 7  23581302.006    96561480.656       -3017.517          36.000 6
G16  25998980.217   136625534.968       -3396.254          35.000 5                                                                
G18  22280649.056   117085594.534       -2968.028          45.000 7  22280646.505    91235512.948       -2312.684          45.000 7
G23  20697634.758   108766803.324       -1708.868          47.000 7  20697631.601    84753340.926       -1331.500          48.000 8
G24  23196221.283   121896970.669        1153.544          41.000 6  23196220.966    94984661.039         898.766          40.000 6
G27  21430248.027   112616711.844       -1142.318          47.000 7  21430246.511    87753270.655        -890.175          44.000 7
G32  22727782.419   119435312.053        2910.413          46.000 7  22727782.315    93066518.218        2267.842          43.000 7
> 2026  4 14  1 14 30.0000000  0 10
G02  24659530.920   129586712.818        2808.105          40.000 6                                                                
G08  22365055.680   117529157.516         947.926          44.000 7  22365055.371    91581172.735         738.648          44.000 7
G10  20912382.992   109895314.407         453.265          51.000 8  20912381.032    85632703.732         353.284          46.000 7
G15  23603437.917   124036889.014       -3880.865          42.000 7  23603434.699    96652112.356       -3023.936          35.000 5
G16  26018366.382   136727408.958       -3394.408          33.000 5                                                                
G18  22297625.926   117174808.470       -2978.704          45.000 7  22297622.851    91305030.255       -2321.162          44.000 7
G23  20707423.197   108818241.581       -1719.348          47.000 7  20707419.964    84793422.685       -1339.868          48.000 8
G24  23189693.652   121862666.805        1134.229          41.000 6  23189692.882    94957930.800         883.787          40.000 6
G27  21436832.826   112651314.413       -1163.472          47.000 7  21436831.053    87780233.696        -906.539          45.000 7
G32  22711196.644   119348154.230        2900.959          46.000 7  22711196.445    92998603.109        2260.564          43.000 7
> 2026  4 14  1 15  0.0000000  0 10
G02  24643507.712   129502507.810        2805.467          40.000 6                                                                
G08  22359699.012   117501009.545         928.411          44.000 7  22359698.316    91559239.266         723.411          44.000 7
G10  20909826.755   109881881.616         442.151          51.000 8  20909824.732    85622236.628         344.409          47.000 7
G15  23625616.510   124153437.580       -3889.122          43.000 7  23625613.553    96742929.436       -3030.900          35.000 5
G16  26037739.182   136829221.318       -3393.291          34.000 5                                                                
G18  22314660.217   117264323.123       -2989.234          45.000 7  22314657.325    91374781.877       -2329.137          44.000 7
G23  20717267.943   108869974.901       -1729.791          47.000 7  20717264.315    84833734.343       -1347.888          48.000 8
G24  23183271.602   121828919.313        1115.075          41.000 6  23183270.705    94931634.096         869.012          39.000 6
G27  21443533.685   112686526.588       -1184.463          47.000 7  21443531.855    87807671.737        -922.810          45.000 7
G32  22694663.373   119261270.061        2891.247          46.000 7  22694662.999    92930901.223        2252.988          43.000 7
> 2026  4 14  1 15 30.0000000  0 10
G02  24627495.847   129418366.714        2804.057          41.000 6                                                                
G08  22354451.806   117473434.896         909.678          44.000 7  22354451.251    91537752.540         708.904          44.000 7
G10  20907333.108   109868777.093         431.580          51.000 8  20907330.874    85612025.323         336.249          47.000 7
G15  23647841.088   124270228.750       -3896.796          42.000 7  23647838.337    96833935.532       -3036.705          38.000 6
G16  26057104.182   136930976.994       -3391.104          27.000 4                                                                
G18  22331752.786   117354145.084       -2998.966          45.000 7  22331750.185    91444772.972       -2336.897          45.000 7
G23  20727169.713   108922009.774       -1739.178          47.000 7  20727166.222    84874280.982       -1355.237          48.000 8
G24  23176957.313   121795738.132        1096.793          42.000 7  23176956.598    94905778.658         854.854          40.000 6
G27  21450351.253   112722354.781       -1204.310          47.000 7  21450349.710    87835589.825        -938.464          45.000 7
G32  22678183.603   119174669.212        2882.244          46.000 7  22678183.608    92863420.124        2245.860          43.000 7
> 2026  4 14  1 16  0.0000000  0  9
G02  24611490.151   129334258.798        2802.650          41.000 6                                                                
G08  22349307.913   117446403.333         891.697          44.000 7  22349307.586    91516689.009         694.840          44.000 7
G10  20904895.883   109855969.251         421.613          51.000 8  20904893.726    85602045.192         328.418          46.000 7
G15  23670105.026   124387228.463       -3903.638          41.000 6  23670102.945    96925104.064       -3041.642          39.000 6
G18  22348897.473   117444241.984       -3008.140          45.000 7  22348895.054    91514978.285       -2343.998          44.000 7
G23  20737122.698   108974313.783       -1748.291          47.000 7  20737119.369    84915037.345       -1362.177          48.000 8
G24  23170744.980   121763093.968        1078.824          41.000 6  23170744.925    94880341.719         840.379          40.000 6
G27  21457280.556   112758766.496       -1223.933          47.000 7  21457278.719    87863962.570        -953.605          44.000 7
G32  22661752.242   119088322.429        2873.546          46.000 7  22661751.880    92796136.994        2238.904          43.000 7
> 2026  4 14  1 16 30.0000000  0  9
G02  24595491.962   129250187.879        2802.533          42.000 7                                                                
G08  22344268.069   117419918.169         874.262          44.000 7  22344267.286    91496051.246         681.383          44.000 7
G10  20902515.425   109843459.968         412.714          51.000 8  20902513.296    85592297.700         321.613          46.000 7
G15  23692408.261   124504435.762       -3909.973          38.000 6  23692406.940    97016434.343       -3046.460          40.000 6
G18  22366095.569   117534614.960       -3016.321          45.000 7  22366092.578    91585398.729       -2350.458          44.000 7
G23  20747127.356   109026888.009       -1756.360          47.000 7  20747124.036    84956004.262       -1368.628          48.000 8
G24  23164636.369   121730991.157        1061.763          41.000 6  23164635.938    94855326.557         827.425          40.000 6
G27  21464320.666   112795762.588       -1242.301          48.000 8  21464319.100    87892790.699        -968.007          45.000 7
G32  22645369.950   119002233.899        2865.881          46.000 7  22645369.635    92729055.066        2233.181          42.000 7
> 2026  4 14  1 17  0.0000000  0  9
G02  24579500.158   129166149.985        2800.681          43.000 7                                                                
G08  22339331.004   117393975.595         855.403          45.000 7  22339330.854    91475836.262         666.666          44.000 7
G10  20900190.939   109831244.117         402.173          51.000 8  20900188.484    85582778.869         313.275          46.000 7
G15  23714750.677   124621842.833       -3917.188          39.000 6  23714748.642    97107920.293       -3052.295          40.000 6
G18  22383343.897   117625258.199       -3026.265          45.000 7  22383341.051    91656029.787       -2358.249          44.000 7
G23  20757182.388   109079726.417       -1765.930          47.000 7  20757178.945    84997177.042       -1376.105          48.000 8
G24  23158629.284   121699426.933        1043.093          41.000 6  23158629.242    94830731.119         812.502          39.000 6
G27  21471470.886   112833336.964       -1262.350          47.000 7  21471469.408    87922069.420        -983.627          45.000 7
G32  22629036.564   118916400.830        2856.568          46.000 7  22629036.248    92662172.223        2225.774          43.000 7
> 2026  4 14  1 17 30.0000000  0  9
G02  24563514.976   129082144.818        2799.507          43.000 7                                                                
G08  22334497.708   117368574.731         837.604          45.000 7  22334497.010    91456043.393         652.682          44.000 7
G10  20897921.614   109819319.452         392.609          51.000 8  20897919.429    85573486.919         306.055          46.000 7
G15  23737130.142   124739444.845       -3923.407          40.000 6  23737127.676    97199558.163       -3057.037          40.000 6
G18  22400643.717   117716168.580       -3034.770          44.000 7  22400640.943    91726868.996       -2364.753          44.000 7
G23  20767286.769   109132826.003       -1774.402          47.000 7  20767283.484    85038553.324       -1382.648          48.000 8
G24  23152725.608   121668401.467        1025.133          40.000 6  23152725.095    94806555.459         799.039          39.000 6
G27  21478730.663   112871486.347       -1281.133          48.000 8  21478728.637    87951796.213        -998.391          44.000 7
G32  22612751.829   118830823.323        2848.126          46.000 7  22612751.161    92595488.501        2219.413          43.000 7
> 2026  4 14  1 18  0.0000000  0  9
G02  24547532.407   128998156.464        2799.182          42.000 7                                                                
G08  22329764.108   117343699.799         820.114          44.000 7  22329763.589    91436660.341         639.160          44.000 7
G10  20895704.685   109807668.894         383.368          51.000 8  20895702.242    85564408.566         298.767          46.000 7
G15  23759542.166   124857222.403       -3929.175          39.000 6  23759539.778    97291332.843       -3061.737          40.000 6
G18  22417990.117   117807328.300       -3042.857          44.000 7  22417988.073    91797902.464       -2371.049          44.000 7
G23  20777437.712   109186168.841       -1782.373          48.000 8  20777434.160    85080119.169       -1388.989          48.000 8
G24  23146921.345   121637899.990        1007.656          41.000 6  23146920.668    94782788.128         785.240          39.000 6
G27  21486095.768   112910192.663       -1299.844          47.000 7  21486093.928    87981956.978       -1012.866          44.000 7
G32  22596512.315   118745486.537        2840.386          46.000 7  22596512.152    92528992.368        2213.246          43.000 7
> 2026  4 14  1 18 30.0000000  0  9
G02  24531552.500   128914182.368        2798.463          42.000 7                                                                
G08  22325130.146   117319347.803         802.780          45.000 7  22325129.439    91417684.788         625.448          44.000 7
G10  20893538.847   109796288.140         374.677          51.000 8  20893536.706    85555540.452         291.876          46.000 7
G15  23781986.191   124975168.289       -3934.582          39.000 6  23781983.994    97383238.670       -3065.631          40.000 6
G18  22435384.499   117898732.288       -3051.004          44.000 7  22435381.904    91869126.296       -2377.428          44.000 7
G23  20787633.840   109239749.855       -1790.204          47.000 7  20787630.263    85121870.592       -1394.971          48.000 8
G24  23141216.611   121607920.548         990.119          42.000 7  23141215.844    94759427.565         771.619          39.000 6
G27  21493566.341   112949450.523       -1318.068          48.000 8  21493564.445    88012547.508       -1026.918          45.000 7
G32  22580318.709   118660388.585        2832.171          46.000 7  22580318.716    92462682.320        2206.977          43.000 7
> 2026  4 14  1 19  0.0000000  0  9
G02  24515573.914   128830216.671        2798.888          40.000 6                                                                
G08  22320594.320   117295512.731         785.923          45.000 7  22320593.054    91399111.997         612.463          43.000 7
G10  20891423.072   109785169.883         366.290          51.000 8  20891420.705    85546876.890         285.413          46.000 7
G15  23804460.894   125093272.847       -3939.209          40.000 6  23804458.910    97475268.099       -3069.525          40.000 6
G18  22452822.615   117990372.435       -3058.511          44.000 7  22452820.513    91940534.148       -2383.128          44.000 7
G23  20797873.738   109293560.923       -1797.394          47.000 7  20797870.101    85163801.286       -1400.470          48.000 8
G24  23135609.944   121578458.097         973.472          41.000 6  23135609.330    94736469.868         758.604          39.000 6
G27  21501140.571   112989251.566       -1335.566          48.000 8  21501138.662    88043561.319       -1040.654          44.000 7
G32  22564169.576   118575524.401        2825.002          46.000 7  22564169.263    92396554.422        2201.668          43.000 7
> 2026  4 14  1 19 30.0000000  0  9
G02  24499598.462   128746268.144        2798.315          38.000 6                                                                
G08  22316158.803   117272202.833         768.333          45.000 7  22316157.682    91380948.452         598.820          44.000 7
G10  20889358.908   109774321.146         357.349          52.000 8  20889356.327    85538423.316         278.467          46.000 7
G15  23826966.843   125211540.313       -3944.745          41.000 6  23826964.706    97567424.473       -3073.669          40.000 6
G18  22470308.010   118082254.972       -3066.575          44.000 7  22470305.298    92012130.889       -2389.595          44.000 7
G23  20808158.600   109347608.198       -1805.298          47.000 7  20808155.053    85205916.036       -1406.653          48.000 8
G24  23130103.608   121549521.996         956.045          42.000 7  23130102.888    94713922.276         745.042          39.000 6
G27  21508819.043   113029601.657       -1353.973          47.000 7  21508816.721    88075002.930       -1055.051          44.000 7
G32  22548066.607   118490903.309        2816.834          46.000 7  22548066.541    92330615.972        2194.985          43.000 7
> 2026  4 14  1 20  0.0000000  0  9
G02  24483626.579   128662335.794        2797.489          39.000 6                                                                
G08  22311822.577   117249416.836         750.706          45.000 7  22311821.798    91363193.146         584.895          44.000 7
G10  20887345.202   109763739.381         347.992          51.000 8  20887342.619    85530177.800         271.155          46.000 7
G15  23849502.537   125329965.454       -3950.415          42.000 7  23849500.577    97659703.758       -3078.357          40.000 6
G18  22487837.509   118174376.596       -3075.130          44.000 7  22487835.161    92083913.895       -2396.126          44.000 7
G23  20818487.753   109401888.390       -1813.470          47.000 7  20818484.216    85248212.297       -1413.226          48.000 8
G24  23124697.201   121521111.955         937.979          42.000 7  23124696.549    94691784.614         730.955          39.000 6
G27  21516600.952   113070497.192       -1372.378          47.000 7  21516599.113    88106869.589       -1069.458          45.000 7
G32  22532009.886   118406525.087        2808.176          46.000 7  22532009.936    92264866.770        2188.287          43.000 7
> 2026  4 14  1 20 30.0000000  0  9
G02  24467660.676   128578431.675        2796.576          40.000 6                                                                
G08  22307588.359   117227166.496         732.149          45.000 7  22307588.064    91345855.230         570.613          44.000 7
G10  20885384.067   109753435.096         338.348          51.000 8  20885381.802    85522148.494         263.696          46.000 7
G15  23872069.491   125448556.680       -3956.170          42.000 7  23872067.663    97752112.424       -3082.709          39.000 6
G18  22505415.806   118266746.955       -3083.647          45.000 7  22505412.724    92155890.741       -2402.669          44.000 7
G23  20828862.903   109456411.174       -1821.875          47.000 7  20828859.909    85290697.574       -1419.666          48.000 8
G24  23119393.784   121493240.739         919.770          42.000 7  23119392.983    94670066.824         716.624          40.000 6
G27  21524488.608   113111947.509       -1391.217          48.000 8  21524487.003    88139168.529       -1084.153          45.000 7
G32  22516001.955   118322402.524        2798.958          46.000 7  22516001.846    92199316.767        2181.349          43.000 7
> 2026  4 14  1 21  0.0000000  0  9
G02  24451706.288   128494590.061        2794.434          41.000 6                                                                
G08  22303462.720   117205485.787         713.570          45.000 7  22303462.044    91328961.189         555.944          44.000 7
G10  20883482.527   109743441.119         328.363          51.000 8  20883479.985    85514360.977         255.957          46.000 7
G15  23894674.521   125567343.743       -3962.469          42.000 7  23894671.878    97844673.720       -3087.384          37.000 6
G18  22523046.342   118359398.094       -3092.622          44.000 7  22523043.875    92228086.408       -2410.044          44.000 7
G23  20839290.537   109511208.593       -1830.804          47.000 7  20839287.319    85333396.843       -1426.440          48.000 8
G24  23114199.116   121465943.351         900.878          42.000 7  23114198.579    94648796.162         701.752          40.000 6
G27  21532488.013   113153984.275       -1410.683          47.000 7  21532486.566    88171924.441       -1099.154          45.000 7
G32  22500049.168   118238570.740        2789.819          46.000 7  22500049.007    92133993.377        2173.823          43.000 7
> 2026  4 14  1 21 30.0000000  0  9
G02  24435754.775   128410763.969        2793.790          41.000 6                                                                
G08  22299436.412   117184327.163         696.467          45.000 7  22299435.926    91312473.955         542.667          44.000 7
G10  20881630.611   109733708.650         319.916          52.000 8  20881627.832    85506777.243         249.359          46.000 7
G15  23917306.198   125686275.560       -3966.766          42.000 7  23917303.870    97937347.821       -3090.765          34.000 5
G18  22540721.363   118452280.479       -3099.927          45.000 7  22540718.518    92300462.213       -2415.592          44.000 7
G23  20849760.967   109566231.061       -1837.817          47.000 7  20849757.724    85376271.490       -1432.159          48.000 8
G24  23109104.707   121439173.247         883.503          41.000 6  23109104.199    94627936.383         688.313          40.000 6
G27  21540589.205   113196557.517       -1428.088          47.000 7  21540587.603    88205098.396       -1112.771          44.000 7
G32  22484143.323   118154983.260        2782.142          46.000 7  22484142.906    92068860.338        2167.993          43.000 7
> 2026  4 14  1 22  0.0000000  0  9
G02  24419808.600   128326968.409        2792.617          41.000 6                                                                
G08  22295512.378   117163705.184         678.428          45.000 7  22295512.144    91296404.880         528.545          45.000 7
G10  20879830.833   109724251.101         310.785          51.000 8  20879828.207    85499407.732         242.212          46.000 7
G15  23939967.761   125805362.996       -3971.985          41.000 6  23939965.072    98030143.272       -3095.435          32.000 5
G18  22558443.101   118545406.625       -3108.217          45.000 7  22558440.399    92373027.988       -2422.052          44.000 7
G23  20860276.489   109621491.219       -1845.874          47.000 7  20860273.254    85419331.342       -1438.440          48.000 8
G24  23104113.675   121412946.001         865.070          40.000 6  23104113.193    94607499.561         674.319          40.000 6
G27  21548795.306   113239679.420       -1446.415          47.000 7  21548793.404    88238699.871       -1127.025          44.000 7
G32  22468286.182   118071655.702        2773.317          47.000 7  22468286.110    92003929.840        2161.101          43.000 7
> 2026  4 14  1 22 30.0000000  0  9
G02  24403866.720   128243192.102        2791.938          42.000 7                                                                
G08  22291687.559   117143608.209         661.040          45.000 7  22291687.585    91280744.910         515.010          44.000 7
G10  20878080.978   109715055.734         302.045          51.000 8  20878078.557    85492242.528         235.236          46.000 7
G15  23962656.124   125924590.756       -3976.562          39.000 6  23962653.503    98123048.017       -3098.865          34.000 5
G18  22576208.036   118638763.020       -3115.953          45.000 7  22576205.553    92445773.161       -2427.832          44.000 7
G23  20870834.889   109676975.493       -1853.412          47.000 7  20870831.616    85462565.824       -1444.012          48.000 8
G24  23099224.022   121387250.990         847.829          41.000 6  23099223.602    94587477.515         660.079          40.000 6
G27  21557102.797   113283336.023       -1464.318          47.000 7  21557101.266    88272717.995       -1140.916          45.000 7
G32  22452477.242   117988577.608        2765.056          47.000 7  22452476.865    91939193.733        2154.832          43.000 7
> 2026  4 14  1 23  0.0000000  0  9
G02  24387929.972   128159443.624        2791.925          42.000 7                                                                
G08  22287964.937   117124044.336         644.071          45.000 7  22287964.464    91265500.333         501.887          44.000 7
G10  20876382.112   109706129.458         293.896          51.000 8  20876380.008    85485286.987         229.028          47.000 7
G15  23985371.894   126043963.412       -3980.838          39.000 6  23985369.400    98216065.580       -3101.893          36.000 6
G18  22594018.727   118732355.760       -3122.880          46.000 7  22594015.506    92518702.526       -2433.265          44.000 7
G23  20881437.332   109732690.064       -1860.095          47.000 7  20881433.809    85505979.768       -1449.384          48.000 8
G24  23094437.514   121362097.328         830.321          41.000 6  23094437.155    94567877.304         646.870          40.000 6
G27  21565513.079   113327533.008       -1481.290          47.000 7  21565511.536    88307157.188       -1154.248          45.000 7
G32  22436716.987   117905758.179        2757.217          47.000 7  22436716.708    91874659.214        2148.089          43.000 7
> 2026  4 14  1 23 30.0000000  0  9
G02  24371992.102   128075690.446        2790.513          42.000 7                                                                
G08  22284337.723   117104980.396         626.025          45.000 7  22284336.994    91250645.317         487.818          44.000 7
G10  20874728.430   109697438.017         284.790          51.000 8  20874726.024    85478514.454         221.851          46.000 7
G15  24008108.337   126163444.211       -3985.846          38.000 6  24008105.978    98309167.476       -3105.794          37.000 6
G18  22611866.825   118826149.758       -3130.881          45.000 7  22611864.193    92591788.704       -2439.562          44.000 7
G23  20892076.194   109788599.890       -1867.932          47.000 7  20892073.051    85549545.855       -1455.426          47.000 7
G24  23089747.698   121337452.887         811.751          40.000 6  23089747.469    94548673.860         632.701          40.000 6
G27  21574019.725   113372234.859       -1499.560          47.000 7  21574017.743    88341989.797       -1168.481          45.000 7
G32  22421000.306   117823165.408        2748.276          47.000 7  22420999.628    91810301.255        2141.600          43.000 7
> 2026  4 14  1 24  0.0000000  0  9
G02  24356058.819   127991960.022        2790.270          42.000 7                                                                
G08  22280810.092   117086443.322         609.038          46.000 7  22280809.052    91236200.858         474.478          44.000 7
G10  20873124.176   109689007.288         276.593          52.000 8  20873121.618    85471945.062         215.417          46.000 7
G15  24030869.966   126283056.332       -3989.720          37.000 6  24030867.869    98402371.618       -3108.226          38.000 6
G18  22629758.374   118920170.056       -3137.892          45.000 7  22629755.814    92665051.213       -2445.249          44.000 7
G23  20902757.678   109844730.046       -1874.762          47.000 7  20902754.053    85593283.640       -1461.017          47.000 7
G24  23085160.419   121313345.541         794.447          41.000 6  23085159.868    94529888.980         618.971          39.000 6
G27  21582627.026   113417466.102       -1516.621          47.000 7  21582625.269    88377234.923       -1181.825          45.000 7
G32  22405331.664   117740827.393        2740.215          47.000 7  22405331.067    91746141.837        2135.148          43.000 7
> 2026  4 14  1 24 30.0000000  0  9
G02  24340129.213   127908249.210        2790.849          43.000 7                                                                
G08  22277381.914   117068429.425         592.444          45.000 7  22277381.116    91222164.030         461.703          44.000 7
G10  20871568.552   109680832.481         268.860          51.000 8  20871565.837    85465575.080         209.540          46.000 7
G15  24053655.119   126402792.454       -3992.384          36.000 6  24053652.812    98495672.464       -3111.325          39.000 6
G18  22647691.977   119014411.045       -3144.402          45.000 7  22647688.891    92738485.681       -2449.952          44.000 7
G23  20913479.860   109901075.019       -1881.079          47.000 7  20913476.523    85637188.778       -1465.594          47.000 7
G24  23080674.507   121289772.649         777.451          41.000 6  23080673.750    94511520.495         606.077          39.000 6
G27  21591333.833   113463220.704       -1533.155          47.000 7  21591332.082    88412887.839       -1194.652          45.000 7
G32  22389711.454   117658741.628        2732.672          47.000 7  22389710.357    91682178.945        2129.427          43.000 7
> 2026  4 14  1 25  0.0000000  0  9
G02  24324198.854   127824536.013        2790.632          42.000 7                                                                
G08  22274048.893   117050915.899         575.559          45.000 7  22274048.979    91208517.172         448.325          44.000 7
G10  20870057.037   109672889.765         260.925          51.000 8  20870054.520    85459385.971         203.180          46.000 7
G15  24076458.844   126522626.467       -3996.005          39.000 6  24076456.501    98589049.533       -3113.943          39.000 6
G18  22665662.676   119108848.070       -3151.111          45.000 7  22665659.801    92812072.915       -2455.206          45.000 7
G23  20924238.205   109957610.196       -1887.732          47.000 7  20924234.500    85681242.167       -1470.911          47.000 7
G24  23076286.718   121266712.447         760.210          41.000 6  23076285.487    94493551.550         592.404          39.000 6
G27  21600135.528   113509473.503       -1549.894          48.000 8  21600133.594    88448928.976       -1207.878          45.000 7
G32  22374134.837   117576886.524        2724.678          47.000 7  22374133.905    91618395.802        2123.322          43.000 7
> 2026  4 14  1 25 30.0000000  0  9
G02  24308269.558   127740826.806        2790.774          42.000 7                                                                
G08  22270812.579   117033908.784         558.938          45.000 7  22270812.021    91195264.851         435.763          44.000 7
G10  20868590.799   109665184.132         253.485          51.000 8  20868588.348    85453381.575         197.449          46.000 7
G15  24099281.687   126642560.525       -3998.777          41.000 6  24099279.477    98682504.567       -3115.918          40.000 6
G18  22683672.097   119203485.263       -3157.339          45.000 7  22683668.857    92885816.139       -2460.366          44.000 7
G23  20935033.509   110014339.810       -1893.652          47.000 7  20935029.987    85725447.048       -1475.677          47.000 7
G24  23071996.751   121244171.913         742.959          41.000 6  23071996.225    94475987.510         579.307          39.000 6
G27  21609032.701   113556228.127       -1566.375          48.000 8  21609031.123    88485361.131       -1220.455          45.000 7
G32  22358603.087   117495269.324        2717.203          47.000 7  22358602.783    91554798.052        2117.129          43.000 7
> 2026  4 14  1 26  0.0000000  0  9
G02  24292335.717   127657094.713        2790.703          42.000 7                                                                
G08  22267667.304   117017380.552         542.143          45.000 7  22267666.823    91182385.725         422.362          44.000 7
G10  20867164.087   109657687.089         245.587          52.000 8  20867161.779    85447539.740         191.260          47.000 7
G15  24122117.454   126762563.854       -4001.930          42.000 7  24122115.568    98776013.600       -3118.416          40.000 6
G18  22701712.774   119298293.240       -3163.990          44.000 7  22701710.550    92959692.423       -2465.437          44.000 7
G23  20945860.124   110071234.581       -1900.110          47.000 7  20945856.645    85769780.624       -1480.670          47.000 7
G24  23067801.269   121222124.537         725.585          41.000 6  23067800.691    94458807.760         565.619          39.000 6
G27  21618019.555   113603454.681       -1582.928          47.000 7  21618017.614    88522161.037       -1233.612          45.000 7
G32  22343112.419   117413863.734        2708.975          47.000 7  22343111.580    91491365.177        2110.861          43.000 7
> 2026  4 14  1 26 30.0000000  0  9
G02  24276413.610   127573423.114        2787.823          42.000 7                                                                
G08  22264628.803   117001413.649         522.725          45.000 7  22264627.989    91169943.993         407.320          43.000 7
G10  20865792.588   109650480.092         235.223          52.000 8  20865790.189    85441923.907         183.368          46.000 7
G15  24144981.547   126882715.567       -4007.718          42.000 7  24144979.607    98869638.263       -3122.827          40.000 6
G18  22719801.693   119393352.714       -3172.993          43.000 7  22719799.520    93033764.659       -2472.542          44.000 7
G23  20956733.970   110128375.246       -1909.070          47.000 7  20956730.197    85814305.803       -1487.482          47.000 7
G24  23063715.759   121200653.741         705.753          41.000 6  23063715.124    94442077.322         549.752          39.000 6
G27  21627111.467   113651233.249       -1602.006          47.000 7  21627109.582    88559391.075       -1248.284          44.000 7
G32  22327677.341   117332753.428        2698.612          46.000 7  22327676.867    91428162.400        2102.857          43.000 7
> 2026  4 14  1 27  0.0000000  0  9
G02  24260503.679   127489815.781        2786.031          42.000 7                                                                
G08  22261698.255   116986011.268         504.128          45.000 7  22261696.760    91157942.121         393.067          44.000 7
G10  20864476.659   109643565.356         225.977          52.000 8  20864474.232    85436535.815         176.007          47.000 7
G15  24167873.903   127003015.248       -4012.030          42.000 7  24167871.934    98963378.238       -3126.445          40.000 6
G18  22737939.288   119488664.884       -3180.799          44.000 7  22737937.006    93108033.851       -2478.667          44.000 7
G23  20967654.490   110185763.238       -1916.656          47.000 7  20967650.982    85859023.713       -1493.530          47.000 7
G24  23059740.108   121179763.725         687.023          41.000 6  23059739.490    94425799.411         535.043          39.000 6
G27  21636308.871   113699564.613       -1620.007          48.000 8  21636306.751    88597051.863       -1262.492          44.000 7
G32  22312299.481   117251942.844        2688.882          47.000 7  22312299.028    91365193.180        2095.105          43.000 7
> 2026  4 14  1 27 30.0000000  0  9
G02  24244596.589   127406224.012        2785.662          42.000 7                                                                
G08  22258865.581   116971123.996         486.904          45.000 7  22258864.538    91146341.659         379.529          44.000 7
G10  20863207.182   109636892.555         217.755          52.000 8  20863204.537    85431336.225         169.592          47.000 7
G15  24190784.224   127123410.285       -4015.372          41.000 6  24190782.592    99057192.502       -3129.178          40.000 6
G18  22756115.060   119584178.705       -3187.949          44.000 7  22756112.336    93182460.134       -2484.169          44.000 7
G23  20978612.193   110243347.503       -1923.419          47.000 7  20978608.782    85903894.553       -1498.822          47.000 7
G24  23055866.496   121159406.084         669.222          41.000 6  23055865.373    94409936.333         520.883          38.000 6
G27  21645601.175   113748397.062       -1636.779          47.000 7  21645599.383    88635103.102       -1275.518          45.000 7
G32  22296969.951   117171383.874        2680.407          47.000 7  22296969.045    91302419.996        2088.868          43.000 7
> 2026  4 14  1 28  0.0000000  0  9
G02  24228699.788   127322686.485        2783.977          42.000 7                                                                
G08  22256136.953   116956789.582         468.873          44.000 7  22256136.443    91135171.992         365.424          44.000 7
G10  20861990.281   109630498.505         208.966          52.000 8  20861987.820    85426353.872         162.726          47.000 7
G15  24213719.382   127243935.035       -4019.534          40.000 6  24213717.377    99151107.830       -3131.908          39.000 6
G18  22774335.677   119679930.033       -3195.151          44.000 7  22774333.757    93257071.505       -2489.856          44.000 7
G23  20989614.366   110301164.134       -1930.716          47.000 7  20989610.703    85948946.463       -1504.590          47.000 7
G24  23052101.008   121139619.555         650.167          41.000 6  23052099.889    94394518.253         506.375          39.000 6
G27  21654995.750   113797765.929       -1654.331          47.000 7  21654993.896    88673572.332       -1288.974          45.000 7
G32  22281695.121   117091115.551        2671.126          47.000 7  22281694.562    91239873.315        2081.307          43.000 7
> 2026  4 14  1 28 30.0000000  0  9
G02  24212813.628   127239204.062        2781.087          42.000 7                                                                
G08  22253514.754   116943007.966         449.090          44.000 7  22253513.941    91124433.090         349.763          44.000 7
G10  20860826.184   109624382.262         198.340          52.000 8  20860823.931    85421587.978         154.468          47.000 7
G15  24236678.326   127364585.983       -4024.679          38.000 6  24236676.522    99245121.506       -3136.257          38.000 6
G18  22792601.548   119775917.116       -3204.554          44.000 7  22792599.082    93331866.554       -2497.025          43.000 7
G23  21000660.381   110359211.410       -1939.728          47.000 7  21000656.919    85994178.099       -1511.569          47.000 7
G24  23048444.632   121120405.033         629.856          42.000 7  23048443.914    94379545.912         490.999          39.000 6
G27  21664492.230   113847668.802       -1673.326          47.000 7  21664490.116    88712457.674       -1304.000          45.000 7
G32  22266476.031   117011139.104        2660.128          47.000 7  22266475.615    91177554.061        2072.779          43.000 7
> 2026  4 14  1 29  0.0000000  0  9
G02  24196939.658   127155787.266        2781.261          42.000 7                                                                
G08  22250998.772   116929789.066         432.999          44.000 7  22250998.533    91114132.662         337.353          44.000 7
G10  20859717.086   109618552.885         191.180          51.000 8  20859714.585    85417045.610         148.859          47.000 7
G15  24259663.230   127485369.873       -4026.745          38.000 6  24259660.858    99339238.760       -3137.636          38.000 6
G18  22810914.023   119872148.040       -3210.139          44.000 7  22810911.442    93406851.658       -2501.354          43.000 7
G23  21011751.679   110417497.675       -1945.123          47.000 7  21011748.301    86039595.954       -1515.768          47.000 7
G24  23044899.227   121101773.449         613.047          42.000 7  23044898.796    94365027.832         477.676          39.000 6
G27  21674091.152   113898113.249       -1688.850          47.000 7  21674089.235    88751765.016       -1316.024          45.000 7
G32  22251314.694   116931465.786        2652.355          47.000 7  22251314.290    91115471.014        2066.734          44.000 7
> 2026  4 14  1 29 30.0000000  0  9
G02  24181065.850   127072368.330        2779.035          43.000 7                                                                
G08  22248577.046   116917063.843         414.761          45.000 7  22248577.227    91104216.921         323.341          44.000 7
G10  20858648.599   109612940.428         182.336          51.000 8  20858646.515    85412672.276         141.998          47.000 7
G15  24282658.993   127606214.494       -4030.569          37.000 6  24282657.111    99433403.337       -3140.596          37.000 6
G18  22829259.115   119968552.072       -3217.378          44.000 7  22829256.434    93481971.624       -2507.270          42.000 7
G23  21022875.431   110475952.269       -1952.526          47.000 7  21022871.810    86085144.983       -1521.320          47.000 7
G24  23041452.024   121083656.730         593.994          42.000 7  23041451.086    94350910.934         462.875          39.000 6
G27  21683779.950   113949027.827       -1706.174          47.000 7  21683778.526    88791438.680       -1329.330          45.000 7
G32  22236198.002   116852027.835        2642.720          47.000 7  22236197.527    91053571.357        2059.305          43.000 7
> 2026  4 14  1 30  0.0000000  0  9
G02  24165203.149   126989008.497        2778.029          43.000 7                                                                
G08  22246262.156   116904893.113         396.694          45.000 7  22246261.062    91094733.238         309.183          44.000 7
G10  20857633.442   109607604.876         173.480          51.000 8  20857631.169    85408514.698         135.223          47.000 7
G15  24305677.845   127727177.271       -4033.668          39.000 6  24305675.281    99527659.998       -3143.027          37.000 6
G18  22847648.311   120065188.254       -3224.636          44.000 7  22847645.598    93557272.470       -2512.612          43.000 7
G23  21034042.228   110534634.436       -1959.566          47.000 7  21034038.663    86130871.329       -1526.878          47.000 7
G24  23038114.492   121066116.647         575.509          42.000 7  23038113.145    94337243.349         448.672          38.000 6
G27  21693569.096   114000470.978       -1723.091          47.000 7  21693567.905    88831524.254       -1342.831          45.000 7
G32  22221138.073   116772887.451        2633.396          47.000 7  22221137.546    90991903.591        2052.012          43.000 7
> 2026  4 14  1 30 30.0000000  0  9
G02  24149348.925   126905695.096        2775.004          43.000 7                                                                
G08  22244048.644   116893263.110         377.434          45.000 7  22244047.557    91085670.923         294.086          43.000 7
G10  20856668.542   109602531.742         163.373          52.000 8  20856665.743    85404561.607         127.405          47.000 7
G15  24328715.202   127848241.388       -4038.347          39.000 6  24328713.080    99621995.668       -3146.863          36.000 6
G18  22866078.688   120162041.201       -3233.429          44.000 7  22866076.662    93632742.247       -2519.477          43.000 7
G23  21045249.340   110593528.951       -1967.885          47.000 7  21045245.958    86176763.163       -1533.452          47.000 7
G24  23034883.724   121049140.461         555.215          41.000 6  23034882.277    94324015.192         432.506          38.000 6
G27  21703455.789   114052426.664       -1741.809          47.000 7  21703454.735    88872009.168       -1357.269          45.000 7
G32  22206132.359   116694032.249        2622.547          47.000 7  22206131.849    90930458.041        2043.287          44.000 7
> 2026  4 14  1 31  0.0000000  0  9
G02  24133516.324   126822494.211        2771.625          43.000 7                                                                
G08  22241950.860   116882238.956         357.547          45.000 7  22241949.446    91077080.688         278.596          43.000 7
G10  20855764.982   109597785.255         152.930          52.000 8  20855762.498    85400863.062         119.073          47.000 7
G15  24351784.122   127969468.873       -4043.455          40.000 6  24351782.159    99716458.608       -3151.064          36.000 6
G18  22884562.777   120259174.302       -3242.281          43.000 7  22884560.376    93708430.298       -2526.548          43.000 7
G23  21056509.615   110652699.363       -1976.706          47.000 7  21056505.795    86222869.964       -1540.400          47.000 7
G24  23031772.762   121032794.201         534.473          41.000 6  23031771.443    94311277.862         416.685          38.000 6
G27  21713452.370   114104957.570       -1760.347          47.000 7  21713450.870    88912942.326       -1371.934          45.000 7
G32  22191193.787   116615528.671        2611.093          47.000 7  22191193.002    90869286.451        2034.664          44.000 7
> 2026  4 14  1 31 30.0000000  0  9
G02  24117701.352   126739387.490        2768.561          42.000 7                                                                
G08  22239964.479   116871801.215         337.949          45.000 7  22239962.774    91068947.415         263.113          43.000 7
G10  20854919.902   109593345.304         142.651          51.000 8  20854917.538    85397403.360         111.395          47.000 7
G15  24374879.857   128090837.005       -4048.310          39.000 6  24374877.660    99811031.158       -3155.043          35.000 5
G18  22903095.889   120356566.494       -3250.936          44.000 7  22903093.495    93784320.249       -2533.201          43.000 7
G23  21067817.742   110712124.837       -1985.243          47.000 7  21067814.008    86269175.517       -1546.961          47.000 7
G24  23028777.931   121017059.468         514.216          40.000 6  23028777.231    94299017.053         400.556          38.000 6
G27  21723554.289   114158041.953       -1778.909          47.000 7  21723552.329    88954306.749       -1386.195          45.000 7
G32  22176318.662   116537358.727        2599.809          47.000 7  22176318.105    90808374.867        2025.844          44.000 7
> 2026  4 14  1 32  0.0000000  0  9
G02  24101901.268   126656358.820        2766.643          41.000 6                                                                
G08  22238086.929   116861932.729         319.660          45.000 7  22238085.331    91061257.684         249.079          43.000 7
G10  20854130.044   109589193.952         133.777          51.000 8  20854127.483    85394168.554         104.132          47.000 7
G15  24397998.203   128212325.536       -4051.394          38.000 6  24397996.305    99905697.524       -3156.815          34.000 5
G18  22921674.997   120454198.907       -3258.250          43.000 7  22921672.110    93860397.381       -2538.718          43.000 7
G23  21079171.178   110771786.673       -1992.365          47.000 7  21079167.338    86315665.242       -1552.612          47.000 7
G24  23025897.483   121001919.983         494.843          41.000 6  23025896.322    94287220.096         385.386          38.000 6
G27  21733757.191   114211660.273       -1796.043          47.000 7  21733755.713    88996087.238       -1399.401          45.000 7
G32  22161503.948   116459506.613        2589.993          47.000 7  22161503.075    90747710.941        2018.056          44.000 7
> 2026  4 14  1 32 30.0000000  0  9
G02  24086116.188   126573407.637        2764.117          42.000 7                                                                
G08  22236316.756   116852632.085         300.750          45.000 7  22236315.311    91054010.454         234.401          43.000 7
G10  20853394.811   109585329.105         124.286          51.000 8  20853392.003    85391156.983          96.851          47.000 7
G15  24421138.613   128333930.065       -4055.388          38.000 6  24421137.038   100000454.272       -3159.532          37.000 6
G18  22940299.136   120552068.583       -3266.087          44.000 7  22940296.513    93936659.400       -2544.998          43.000 7
G23  21090568.840   110831682.076       -2000.032          47.000 7  21090565.236    86362336.976       -1558.294          47.000 7
G24  23023130.347   120987375.430         475.148          41.000 6  23023128.757    94275886.663         370.467          39.000 6
G27  21744061.492   114265808.832       -1813.626          47.000 7  21744059.771    89038280.901       -1413.091          45.000 7
G32  22146749.076   116381972.357        2579.403          47.000 7  22146748.634    90687294.688        2009.926          44.000 7
> 2026  4 14  1 33  0.0000000  0  9
G02  24070346.576   126490538.418        2759.899          42.000 7                                                                
G08  22234655.931   116843902.568         280.308          45.000 7  22234654.069    91047208.229         218.674          43.000 7
G10  20852714.050   109581753.317         113.489          52.000 8  20852711.777    85388370.661          88.446          46.000 7
G15  24444301.417   128455650.706       -4060.194          37.000 6  24444299.622   100095301.498       -3164.241          36.000 6
G18  22958968.735   120650177.122       -3275.402          43.000 7  22958966.181    94013107.549       -2552.158          42.000 7
G23  21102011.156   110891812.911       -2009.358          47.000 7  21102007.560    86409192.166       -1565.737          47.000 7
G24  23020476.539   120973429.929         453.811          41.000 6  23020475.546    94265020.075         353.716          39.000 6
G27  21754466.745   114320488.514       -1832.776          47.000 7  21754465.241    89080888.416       -1428.064          45.000 7
G32  22132056.388   116304760.695        2567.275          47.000 7  22132055.782    90627129.817        2000.472          44.000 7
> 2026  4 14  1 33 30.0000000  0  9
G02  24054595.373   126407766.434        2757.381          43.000 7                                                                
G08  22233105.980   116835758.240         261.621          45.000 7  22233104.565    91040862.000         203.888          44.000 7
G10  20852091.299   109578479.980         104.083          52.000 8  20852088.750    85385820.010          81.146          47.000 7
G15  24467489.059   128577498.704       -4063.688          40.000 6  24467486.551   100190247.937       -3166.507          37.000 6
G18  22977685.722   120748537.064       -3282.818          43.000 7  22977683.310    94089751.595       -2557.911          43.000 7
G23  21113500.903   110952191.920       -2016.767          47.000 7  21113497.124    86456240.736       -1571.546          46.000 7
G24  23017939.028   120960098.583         434.001          41.000 6  23017938.239    94254632.057         337.944          39.000 6
G27  21764975.190   114375711.066       -1849.778          47.000 7  21764973.178    89123918.962       -1441.375          45.000 7
G32  22117427.487   116227887.099        2556.721          47.000 7  22117426.853    90567228.378        1992.275          44.000 7
> 2026  4 14  1 34  0.0000000  0  9
G02  24038863.189   126325090.872        2754.856          44.000 7                                                                
G08  22231665.922   116828197.263         242.974          44.000 7  22231666.110    91034970.378         189.177          43.000 7
G10  20851525.375   109575506.647          94.720          51.000 8  20851523.011    85383503.137          73.804          47.000 7
G15  24490699.354   128699469.169       -4066.770          41.000 6  24490696.828   100285289.851       -3169.253          38.000 6
G18  22996450.455   120847144.949       -3290.317          44.000 7  22996447.688    94166588.856       -2563.848          42.000 7
G23  21125036.971   111012815.917       -2024.170          47.000 7  21125033.391    86503480.218       -1577.477          46.000 7
G24  23015518.897   120947380.457         414.504          41.000 6  23015518.251    94244721.851         322.916          39.000 6
G27  21775586.250   114431472.367       -1867.171          47.000 7  21775584.563    89167369.296       -1454.851          45.000 7
G32  22102863.412   116151351.254        2545.990          48.000 8  22102862.367    90507590.092        1983.969          44.000 7
> 2026  4 14  1 34 30.0000000  0  9
G02  24023142.831   126242479.888        2752.233          44.000 7                                                                
G08  22230332.391   116821186.551         224.213          45.000 7  22230331.916    91029507.478         174.657          44.000 7
G10  20851010.473   109572799.567          85.443          51.000 8  20851007.947    85381393.726          66.608          47.000 7
G15  24513925.531   128821526.039       -4070.362          41.000 6  24513923.265   100380399.026       -3171.771          39.000 6
G18  23015255.051   120945966.123       -3297.851          43.000 7  23015253.548    94243592.327       -2569.748          44.000 7
G23  21136613.776   111073650.400       -2031.791          47.000 7  21136609.672    86550883.693       -1583.090          46.000 7
G24  23013209.386   120935243.428         394.517          41.000 6  23013208.057    94235264.418         307.400          38.000 6
G27  21786293.056   114487736.909       -1884.256          47.000 7  21786291.402    89211211.776       -1468.257          45.000 7
G32  22088357.625   116075121.479        2535.411          48.000 8  22088356.532    90448190.314        1975.737          44.000 7
> 2026  4 14  1 35  0.0000000  0  9
G02  24007434.937   126159932.964        2750.157          44.000 7                                                                
G08  22229102.498   116814724.299         205.885          44.000 7  22229102.384    91024471.957         160.622          44.000 7
G10  20850545.242   109570356.335          76.758          52.000 8  20850543.026    85379489.908          59.991          46.000 7
G15  24537167.764   128943664.635       -4072.905          41.000 6  24537165.442   100475571.928       -3173.879          38.000 6
G18  23034100.203   121044997.297       -3304.811          44.000 7  23034098.519    94320759.401       -2575.182          44.000 7
G23  21148229.710   111134692.342       -2038.520          47.000 7  21148225.800    86598448.833       -1588.397          46.000 7
G24  23011010.648   120923686.646         375.279          41.000 6  23011008.876    94226259.158         292.258          39.000 6
G27  21797094.721   114544500.611       -1900.609          47.000 7  21797093.378    89255443.221       -1481.190          45.000 7
G32  22073909.580   115999197.492        2525.299          48.000 8  22073908.365    90389028.821        1967.748          44.000 7
> 2026  4 14  1 35 30.0000000  0  9
G02  23991741.208   126077463.027        2747.420          44.000 7                                                                
G08  22227979.502   116808822.291         187.175          44.000 7  22227979.173    91019872.988         145.910          44.000 7
G10  20850132.524   109568188.165          67.627          51.000 8  20850130.327    85377800.434          52.631          47.000 7
G15  24560426.670   129065893.918       -4075.837          38.000 6  24560424.603   100570815.515       -3176.217          36.000 6
G18  23052987.522   121144248.594       -3312.164          44.000 7  23052985.029    94398098.015       -2580.931          44.000 7
G23  21159886.715   111195952.249       -2045.779          47.000 7  21159883.119    86646183.818       -1594.106          46.000 7
G24  23008924.050   120912722.808         355.507          42.000 7  23008922.584    94217715.921         276.854          39.000 6
G27  21807993.337   114601772.948       -1917.748          47.000 7  21807991.970    89300070.974       -1494.209          45.000 7
G32  22059522.188   115923592.577        2514.786          48.000 8  22059521.093    90330115.939        1959.510          44.000 7
> 2026  4 14  1 36  0.0000000  0  9
G02  23976065.925   125995089.996        2744.299          43.000 7                                                                
G08  22226966.372   116803499.289         168.151          44.000 7  22226966.764    91015725.214         131.033          44.000 7
G10  20849776.271   109566313.301          57.739          51.000 8  20849773.310    85376339.504          45.129          46.000 7
G15  24583705.309   129188230.031       -4079.603          35.000 5  24583704.388   100666142.269       -3179.236          35.000 5
G18  23071919.291   121243737.378       -3320.036          43.000 7  23071917.235    94475621.700       -2587.002          44.000 7
G23  21171589.352   111257447.655       -2053.609          47.000 7  21171585.422    86694102.301       -1600.300          46.000 7
G24  23006954.622   120902371.663         335.061          41.000 6  23006953.522    94209650.099         261.210          39.000 6
G27  21818991.981   114659570.378       -1935.068          47.000 7  21818990.304    89345107.917       -1507.925          45.000 7
G32  22045199.814   115848327.022        2503.284          48.000 8  22045198.532    90271467.488        1950.789          43.000 7
> 2026  4 14  1 36 30.0000000  0  9
G02  23960410.035   125912819.270        2740.381          43.000 7                                                                
G08  22226064.595   116798759.426         148.009          45.000 7  22226064.838    91012031.814         115.312          45.000 7
G10  20849475.759   109564735.274          47.333          51.000 8  20849472.925    85375109.889          36.798          46.000 7
G15  24607005.827   129310673.832       -4083.116          36.000 6  24607004.892   100761552.984       -3182.022          35.000 5
G18  23090897.417   121343466.268       -3328.652          43.000 7  23090895.414    94553332.448       -2593.576          44.000 7
G23  21183336.328   111319181.448       -2062.114          47.000 7  21183332.817    86742206.558       -1606.789          46.000 7
G24  23005101.754   120892638.246         314.023          41.000 6  23005101.270    94202065.655         244.623          39.000 6
G27  21830090.581   114717894.683       -1953.166          47.000 7  21830089.314    89390555.412       -1521.971          45.000 7
G32  22030942.816   115773406.479        2491.326          48.000 8  22030941.376    90213087.900        1941.160          43.000 7
> 2026  4 14  1 37  0.0000000  0  9
G02  23944778.490   125830673.747        2736.035          43.000 7                                                                
G08  22225277.846   116794624.047         127.785          45.000 7  22225278.032    91008809.439          99.744          45.000 7
G10  20849235.953   109563474.972          36.774          51.000 8  20849233.368    85374127.834          28.583          47.000 7
G15  24630331.339   129433244.262       -4087.711          39.000 6  24630329.561   100857062.409       -3185.352          35.000 5
G18  23109924.254   121443455.136       -3337.201          42.000 7  23109922.336    94631245.781       -2600.388          44.000 7
G23  21195133.386   111381173.846       -2070.615          47.000 7  21195129.636    86790512.308       -1613.525          46.000 7
G24  23003371.299   120883544.854         292.418          41.000 6  23003370.636    94194979.944         227.661          39.000 6
G27  21841293.065   114776764.930       -1971.461          46.000 7  21841292.060    89436428.311       -1536.268          45.000 7
G32  22016755.948   115698853.875        2478.962          48.000 8  22016754.734    90154994.996        1931.672          44.000 7
> 2026  4 14  1 37 30.0000000  0  9
G02  23929166.042   125748632.268        2733.777          43.000 7                                                                
G08  22224602.180   116791070.656         109.589          46.000 7  22224601.770    91006040.577          85.292          45.000 7
G10  20849052.056   109562509.386          28.125          52.000 8  20849049.849    85373375.447          21.881          47.000 7
G15  24653675.510   129555915.912       -4089.844          41.000 6  24653673.471   100952650.722       -3187.072          35.000 5
G18  23128996.464   121543680.008       -3343.783          43.000 7  23128995.142    94709343.017       -2605.867          44.000 7
G23  21206974.712   111443401.137       -2077.161          47.000 7  21206971.175    86839001.103       -1618.703          46.000 7
G24  23001758.864   120875069.928         273.000          41.000 6  23001757.915    94188376.097         212.824          39.000 6
G27  21852595.059   114836156.332       -1987.449          46.000 7  21852593.567    89482707.293       -1548.448          45.000 7
G32  22002634.934   115624648.245        2468.691          48.000 8  22002633.802    90097172.468        1923.644          44.000 7
> 2026  4 14  1 38  0.0000000  0  9
G02  23913573.179   125666688.700        2729.901          44.000 7                                                                
G08  22224035.557   116788091.675          89.994          46.000 7  22224034.355    91003719.300          70.018          44.000 7
G10  20848922.951   109561830.466          17.999          51.000 8  20848920.640    85372846.420          13.977          47.000 7
G15  24677036.459   129678678.361       -4093.153          41.000 6  24677034.330   101048309.803       -3190.251          36.000 6
G18  23148111.841   121644131.891       -3352.127          43.000 7  23148110.428    94787617.126       -2612.013          43.000 7
G23  21218859.205   111505854.610       -2085.228          47.000 7  21218855.689    86887666.132       -1624.920          46.000 7
G24  23000262.261   120867206.754         251.918          41.000 6  23000261.491    94182248.961         196.420          39.000 6
G27  21863994.400   114896058.981       -2005.080          46.000 7  21863992.654    89529384.670       -1562.312          44.000 7
G32  21988578.779   115550783.587        2456.794          48.000 8  21988578.003    90039615.645        1914.297          44.000 7
> 2026  4 14  1 38 30.0000000  0  9
G02  23897993.403   125584816.282        2726.996          43.000 7                                                                
G08  22223572.548   116785659.070          71.091          46.000 7  22223570.975    91001823.765          55.424          43.000 7
G10  20848843.086   109561409.760           9.143          51.000 8  20848840.734    85372518.607           6.927          46.000 7
G15  24700408.648   129801501.248       -4096.103          41.000 6  24700406.841   101144015.926       -3191.338          38.000 6
G18  23167265.137   121744781.320       -3358.933          43.000 7  23167263.268    94866045.215       -2617.790          43.000 7
G23  21230781.742   111568505.161       -2092.454          47.000 7  21230777.581    86936484.718       -1630.479          45.000 7
G24  22998877.557   120859928.274         231.891          41.000 6  22998876.401    94176577.439         180.905          39.000 6
G27  21875484.560   114956442.586       -2021.622          46.000 7  21875483.445    89576436.823       -1575.177          45.000 7
G32  21974582.743   115477233.498        2445.654          48.000 8  21974581.896    89982303.933        1905.811          44.000 7
> 2026  4 14  1 39  0.0000000  0  9
G02  23882430.231   125503032.011        2724.151          44.000 7                                                                
G08  22223216.074   116783788.567          52.637          45.000 7  22223215.119    91000366.228          41.033          44.000 7
G10  20848814.459   109561262.582          -0.104          52.000 8  20848812.317    85372403.910          -0.024          47.000 7
G15  24723795.426   129924397.606       -4098.396          40.000 6  24723792.979   101239779.326       -3193.407          38.000 6
G18  23186457.893   121845642.713       -3366.033          42.000 7  23186456.349    94944638.392       -2622.978          42.000 7
G23  21242743.840   111631367.405       -2099.275          47.000 7  21242739.875    86985468.285       -1635.820          45.000 7
G24  22997606.584   120853251.105         212.096          41.000 6  22997605.847    94171374.487         165.183          39.000 6
G27  21887069.438   115017320.609       -2038.034          46.000 7  21887068.048    89623874.202       -1588.036          45.000 7
G32  21960649.556   115404015.264        2434.585          48.000 8  21960648.580    89925250.807        1896.981          44.000 7
> 2026  4 14  1 39 30.0000000  0  9
G02  23866888.794   125421364.544        2720.538          44.000 7                                                                
G08  22222972.324   116782507.126          33.193          46.000 7  22222971.304    90999367.699          25.941          44.000 7
G10  20848843.987   109561415.469          -9.845          52.000 8  20848841.592    85372523.058          -7.635          47.000 7
G15  24747200.460   130047391.699       -4101.072          38.000 6  24747198.088   101335618.859       -3195.842          39.000 6
G18  23205697.109   121946741.515       -3373.873          42.000 7  23205694.791    95023416.605       -2628.882          43.000 7
G23  21254751.239   111694467.256       -2107.017          47.000 7  21254747.371    87034636.995       -1641.949          46.000 7
G24  22996455.941   120847203.128         191.214          41.000 6  22996454.835    94166661.774         148.995          39.000 6
G27  21898752.973   115078717.698       -2054.980          47.000 7  21898751.763    89671716.065       -1601.094          45.000 7
G32  21946785.171   115331157.459        2422.711          48.000 8  21946784.635    89868478.551        1887.763          44.000 7
> 2026  4 14  1 40  0.0000000  0  9
G02  23851366.121   125339790.927        2717.529          44.000 7                                                                
G08  22222835.817   116781790.413          14.408          45.000 7  22222834.647    90998809.244          11.264          43.000 7
G10  20848925.427   109561843.736         -18.933          51.000 8  20848922.901    85372856.777         -14.807          47.000 7
G15  24770618.166   130170456.662       -4103.434          35.000 5  24770616.618   101431513.582       -3197.219          37.000 6
G18  23224975.636   122048052.083       -3380.750          42.000 7  23224973.911    95102359.825       -2634.136          43.000 7
G23  21266799.131   111757779.347       -2113.964          47.000 7  21266795.101    87083971.074       -1647.271          45.000 7
G24  22995420.348   120841760.876         171.137          41.000 6  22995419.183    94162421.075         133.607          39.000 6
G27  21910530.420   115140607.286       -2071.362          46.000 7  21910528.940    89719941.694       -1613.840          45.000 7
G32  21932985.335   115258637.396        2411.507          48.000 8  21932984.427    89811969.464        1878.912          44.000 7
> 2026  4 14  1 40 30.0000000  0  9
G02  23835865.437   125258335.255        2713.281          44.000 7                                                                
G08  22222811.954   116781660.838          -5.363          45.000 7  22222809.502    90998708.268          -4.333          43.000 7
G10  20849063.422   109562569.456         -29.047          51.000 8  20849061.071    85373422.269         -22.595          46.000 7
G15  24794053.682   130293612.184       -4106.584          35.000 5  24794052.242   101527478.868       -3199.619          36.000 6
G18  23244299.146   122149595.467       -3388.474          43.000 7  23244296.856    95181484.447       -2640.454          42.000 7
G23  21278891.471   111821325.123       -2122.100          47.000 7  21278887.616    87133487.247       -1653.485          45.000 7
G24  22994504.141   120836947.711         149.984          41.000 6  22994503.459    94158670.573         117.161          39.000 6
G27  21922405.219   115203009.484       -2088.580          46.000 7  21922403.611    89768566.769       -1627.402          45.000 7
G32  21919253.822   115186479.126        2399.345          48.000 8  21919253.279    89755742.287        1869.547          45.000 7
> 2026  4 14  1 41  0.0000000  0  9
G02  23820384.826   125176984.632        2709.106          44.000 7                                                                
G08  22222895.206   116782104.037         -25.313          45.000 7  22222894.491    90999053.627         -19.873          44.000 7
G10  20849255.661   109563577.948         -39.240          51.000 8  20849253.010    85374208.113         -30.695          47.000 7
G15  24817502.980   130416841.548       -4109.795          35.000 5  24817502.053   101623501.732       -3202.403          36.000 6
G18  23263663.034   122251356.006       -3396.500          42.000 7  23263661.504    95260778.297       -2646.667          43.000 7
G23  21291025.377   111885089.209       -2129.950          47.000 7  21291021.521    87183173.557       -1659.869          46.000 7
G24  22993705.431   120832750.167         128.897          41.000 6  22993704.245    94155399.772         100.388          39.000 6
G27  21934374.461   115265907.699       -2105.789          47.000 7  21934372.682    89817578.356       -1640.894          44.000 7
G32  21905589.091   115114669.967        2386.837          48.000 8  21905588.532    89699787.131        1860.114          45.000 7
> 2026  4 14  1 41 30.0000000  0  9
G02  23804931.720   125095778.672        2703.894          43.000 7                                                                
G08  22223096.314   116783157.959         -45.379          45.000 7  22223095.192    90999874.874         -35.688          44.000 7
G10  20849508.256   109564906.863         -50.360          52.000 8  20849505.742    85375243.624         -38.953          47.000 7
G15  24840973.957   130540180.358       -4113.540          38.000 6  24840972.687   101719609.902       -3205.542          36.000 6
G18  23283076.230   122353370.391       -3405.114          43.000 7  23283074.109    95340269.939       -2653.507          42.000 7
G23  21303207.781   111949108.670       -2138.781          47.000 7  21303204.442    87233058.841       -1666.632          46.000 7
G24  22993030.887   120829207.104         106.784          40.000 6  22993030.230    94152638.948          83.297          39.000 6
G27  21946444.637   115329337.645       -2123.713          46.000 7  21946442.761    89867004.269       -1654.809          45.000 7
G32  21891998.260   115043249.521        2373.638          48.000 8  21891997.275    89644134.903        1849.652          45.000 7
> 2026  4 14  1 42  0.0000000  0  9
G02  23789505.859   125014715.594        2699.689          44.000 7                                                                
G08  22223411.881   116784819.408         -65.795          45.000 7  22223411.240    91001169.499         -51.063          44.000 7
G10  20849821.626   109566552.670         -60.120          51.000 8  20849818.996    85376526.083         -46.899          47.000 7
G15  24864465.081   130663623.078       -4116.584          39.000 6  24864463.040   101815799.052       -3207.644          32.000 5
G18  23302536.520   122455634.039       -3413.242          43.000 7  23302534.747    95419955.822       -2659.676          43.000 7
G23  21315437.932   112013379.319       -2146.597          47.000 7  21315434.825    87283139.829       -1672.570          46.000 7
G24  22992480.774   120826316.145          85.499          41.000 6  22992479.844    94150386.256          66.592          38.000 6
G27  21958615.103   115393293.823       -2140.660          46.000 7  21958613.459    89916840.241       -1668.198          44.000 7
G32  21878480.473   114972216.249        2361.281          48.000 8  21878480.025    89588784.348        1839.874          45.000 7
> 2026  4 14  1 42 30.0000000  0  9
G02  23774107.643   124933796.406        2695.740          44.000 7                                                                
G08  22223843.920   116787087.667         -85.169          45.000 7  22223842.688    91002936.979         -66.340          44.000 7
G10  20850194.953   109568514.529         -70.026          51.000 8  20850192.170    85378054.813         -54.596          47.000 7
G15  24887974.903   130787166.359       -4118.852          41.000 6  24887971.768   101912066.618       -3209.785          32.000 5
G18  23322043.304   122558145.058       -3420.659          43.000 7  23322041.794    95499834.436       -2665.378          43.000 7
G23  21327715.997   112077899.621       -2154.103          46.000 7  21327712.753    87333415.375       -1678.577          46.000 7
G24  22992054.749   120824077.532          64.353          39.000 6  22992054.072    94148641.921          49.923          39.000 6
G27  21970884.819   115457773.366       -2157.385          46.000 7  21970883.587    89967084.024       -1681.058          45.000 7
G32  21865037.431   114901571.185        2348.912          48.000 8  21865036.911    89533736.292        1830.392          45.000 7
> 2026  4 14  1 43  0.0000000  0  9
G02  23758728.147   124852977.778        2692.535          44.000 7                                                                
G08  22224382.754   116789917.667        -103.572          46.000 7  22224381.320    91005142.157         -80.686          44.000 7
G10  20850619.466   109570747.033         -78.754          51.000 8  20850617.025    85379794.423         -61.389          47.000 7
G15  24911494.074   130910762.863       -4120.794          39.000 6  24911492.225   102008375.579       -3210.263          33.000 5
G18  23341589.575   122660857.025       -3426.892          43.000 7  23341587.270    95579869.657       -2670.320          42.000 7
G23  21340032.785   112142623.644       -2160.833          47.000 7  21340029.594    87383849.657       -1683.772          46.000 7
G24  22991744.447   120822447.042          44.442          40.000 6  22991743.751    94147371.428          34.425          39.000 6
G27  21983245.895   115522728.947       -2173.028          46.000 7  21983244.342    90017698.741       -1693.296          44.000 7
G32  21851659.611   114831270.936        2337.587          48.000 8  21851659.026    89478956.929        1821.538          45.000 7
> 2026  4 14  1 43 30.0000000  0  9
G02  23743372.346   124772282.689        2688.153          44.000 7                                                                
G08  22225032.151   116793330.382        -123.129          45.000 7  22225031.107    91007801.406         -96.054          44.000 7
G10  20851099.732   109573270.992         -88.782          51.000 8  20851097.477    85381761.147         -69.153          47.000 7
G15  24935027.385   131034431.064       -4122.854          40.000 6  24935025.865   102104740.449       -3212.219          35.000 5
G18  23361176.911   122763789.749       -3434.319          43.000 7  23361174.650    95660076.936       -2676.321          42.000 7
G23  21352391.934   112207571.450       -2168.358          47.000 7  21352388.676    87434458.326       -1689.579          46.000 7
G24  22991554.297   120821446.526          23.164          40.000 6  22991553.610    94146591.823          17.884          39.000 6
G27  21995700.679   115588179.310       -2189.715          46.000 7  21995698.848    90068699.012       -1706.373          44.000 7
G32  21838351.963   114761338.197        2325.319          48.000 8  21838351.379    89424463.944        1811.818          45.000 7
> 2026  4 14  1 44  0.0000000  0  9
G02  23728043.334   124691728.313        2682.397          44.000 7                                                                
G08  22225795.179   116797341.655        -144.063          45.000 7  22225794.737    91010927.058        -112.146          44.000 7
G10  20851638.647   109576102.088         -99.567          51.000 8  20851636.421    85383967.204         -77.655          47.000 7
G15  24958577.051   131158184.750       -4126.881          40.000 6  24958575.497   102201171.873       -3215.540          37.000 6
G18  23380808.741   122866957.904       -3443.065          43.000 7  23380807.000    95740467.596       -2682.687          42.000 7
G23  21364796.594   112272758.133       -2177.094          47.000 7  21364793.209    87485253.124       -1696.431          47.000 7
G24  22991487.099   120821092.736           0.674          40.000 6  22991486.210    94146316.158           0.391          39.000 6
G27  22008252.287   115654138.109       -2207.489          46.000 7  22008250.174    90120095.450       -1720.022          44.000 7
G32  21825117.667   114691790.594        2311.487          49.000 8  21825116.535    89370271.033        1801.348          45.000 7
> 2026  4 14  1 44 30.0000000  0  9
G02  23712738.093   124611298.484        2678.900          43.000 7                                                                
G08  22226669.071   116801933.285        -162.469          45.000 7  22226668.591    91014504.977        -126.905          44.000 7
G10  20852232.536   109579221.981        -108.783          52.000 8  20852230.016    85386398.299         -84.882          47.000 7
G15  24982138.999   131282003.352       -4128.629          38.000 6  24982137.108   102297653.935       -3217.186          37.000 6
G18  23400482.331   122970342.052       -3449.775          42.000 7  23400480.444    95821026.582       -2688.210          42.000 7
G23  21377242.954   112338164.696       -2183.967          47.000 7  21377239.802    87536219.263       -1701.724          47.000 7
G24  22991539.261   120821368.271         -19.651          41.000 6  22991538.530    94146530.892         -15.715          39.000 6
G27  22020896.289   115720584.927       -2223.116          46.000 7  22020894.901    90171872.177       -1732.215          44.000 7
G32  21811953.136   114622611.649        2299.783          49.000 8  21811952.150    89316365.429        1791.864          45.000 7
> 2026  4 14  1 45  0.0000000  0  9
G02  23697458.591   124531004.028        2675.409          44.000 7                                                                
G08  22227654.582   116807114.335        -181.413          45.000 7  22227653.856    91018542.161        -141.418          44.000 7
G10  20852882.799   109582639.567        -117.798          52.000 8  20852880.500    85389061.342         -91.650          47.000 7
G15  25005714.281   131405893.981       -4129.357          34.000 5  25005712.513   102394192.085       -3217.755          36.000 6
G18  23420198.640   123073950.075       -3456.057          43.000 7  23420196.326    95901760.028       -2692.922          41.000 6
G23  21389732.963   112403799.495       -2190.511          47.000 7  21389729.789    87587363.253       -1707.017          47.000 7
G24  22991713.898   120822283.157         -39.914          41.000 6  22991712.708    94147243.765         -31.026          40.000 6
G27  22033635.106   115787526.673       -2238.424          46.000 7  22033633.429    90224034.551       -1744.049          44.000 7
G32  21798861.200   114553812.211        2288.043          49.000 8  21798860.063    89262755.518        1782.807          45.000 7
> 2026  4 14  1 45 30.0000000  0  9
G02  23682200.161   124450820.878        2670.732          44.000 7                                                                
G08  22228748.202   116812858.951        -201.210          45.000 7  22228747.243    91023018.473        -156.899          44.000 7
G10  20853584.549   109586328.904        -127.704          51.000 8  20853582.414    85391936.163         -99.530          46.000 7
G15  25029298.134   131529848.2731      -4132.106          36.000 6  25029296.423   102490764.214       -3219.800          37.000 6
G18  23439952.035   123177754.906       -3463.644          43.000 7  23439949.920    95982646.890       -2699.205          41.000 6
G23  21402261.028   112469635.889       -2198.070          47.000 7  21402257.818    87638664.313       -1712.830          47.000 7
G24  22992004.808   120823812.304         -61.534          41.000 6  22992004.103    94148435.330         -48.022          40.000 6
G27  22046462.582   115854935.223       -2254.695          46.000 7  22046460.738    90276560.691       -1757.095          44.000 7
G32  21785836.558   114485368.177        2275.323          49.000 8  21785835.636    89209422.538        1773.008          45.000 7
> 2026  4 14  1 46  0.0000000  0  9
G02  23666967.330   124370772.955        2665.667          44.000 7                                                                
G08  22229952.710   116819189.333        -221.074          45.000 7  22229952.354    91027951.226        -172.261          44.000 7
G10  20854342.547   109590312.088        -137.958          51.000 8  20854340.345    85395039.940        -107.520          47.000 7
G15  25052894.078   131653846.355       -4134.827          37.000 6  25052892.526   102587386.090       -3222.045          37.000 6
G18  23459746.979   123281777.659       -3471.393          43.000 7  23459744.716    96063703.488       -2704.982          42.000 7
G23  21414831.992   112535695.408       -2206.095          47.000 7  21414828.496    87690139.256       -1719.091          46.000 7
G24  22992416.913   120825978.802         -83.608          41.000 6  22992416.144    94150123.498         -64.897          40.000 6
G27  22059382.619   115922830.695       -2271.684          45.000 7  22059381.003    90329466.227       -1770.096          44.000 7
G32  21772884.425   114417303.546        2262.077          49.000 8  21772883.422    89156385.199        1762.923          45.000 7
> 2026  4 14  1 46 30.0000000  0  9
G02  23651763.211   124290876.233        2661.059          44.000 7                                                                
G08  22231271.257   116826119.391        -240.490          45.000 7  22231270.621    91033351.260        -187.225          44.000 7
G10  20855159.366   109594603.058        -147.675          51.000 8  20855156.903    85398383.552        -114.960          47.000 7
G15  25076504.543   131777920.108       -4136.671          37.000 6  25076503.004   102684066.924       -3223.096          39.000 6
G18  23479586.006   123386031.194       -3478.466          43.000 7  23479583.925    96144939.928       -2710.386          42.000 7
G23  21427447.946   112601991.337       -2213.351          47.000 7  21427444.279    87741798.398       -1724.586          46.000 7
G24  22992953.079   120828797.406        -104.418          40.000 6  22992952.252    94152319.845         -81.389          39.000 6
G27  22072397.715   115991224.829       -2287.622          46.000 7  22072396.345    90382760.323       -1782.583          44.000 7
G32  21760007.206   114349634.048        2249.623          49.000 8  21760006.088    89103655.772        1753.065          45.000 7
> 2026  4 14  1 47  0.0000000  0  9
G02  23636588.918   124211131.737        2654.845          44.000 7                                                                
G08  22232704.190   116833648.357        -261.700          45.000 7  22232703.039    91039218.012        -204.009          44.000 7
G10  20856034.353   109599200.926        -159.210          51.000 8  20856031.948    85401966.322        -124.225          47.000 7
G15  25100128.651   131902066.791       -4140.569          34.000 5  25100127.278   102780804.564       -3226.094          38.000 6
G18  23499467.741   123490513.531       -3487.336          42.000 7  23499466.414    96226354.662       -2717.526          42.000 7
G23  21440108.062   112668522.208       -2222.552          47.000 7  21440104.511    87793640.634       -1731.893          46.000 7
G24  22993613.637   120832268.204        -127.446          40.000 6  22993612.599    94155024.372         -98.975          39.000 6
G27  22085506.811   116060114.636       -2305.361          46.000 7  22085505.442    90436440.669       -1796.221          44.000 7
G32  21747205.677   114282360.743        2234.934          49.000 8  21747204.440    89051235.057        1741.601          44.000 7
> 2026  4 14  1 47 30.0000000  0  9
G02  23621443.574   124131541.681        2650.551          44.000 7                                                                
G08  22234251.413   116841776.350        -280.760          46.000 7  22234249.861    91045551.503        -218.691          44.000 7
G10  20856967.691   109604105.838        -168.292          51.000 8  20856965.000    85405788.326        -131.067          47.000 7
G15  25123766.207   132026284.314       -4141.716          36.000 6  25123764.624   102877597.396       -3227.000          37.000 6
G18  23519393.550   123595223.821       -3493.782          42.000 7  23519391.846    96307946.992       -2722.654          42.000 7
G23  21452812.901   112735287.535       -2229.091          47.000 7  21452809.452    87845665.546       -1736.888          46.000 7
G24  22994398.355   120836392.137        -147.514          41.000 6  22994397.454    94158237.869        -115.452          39.000 6
G27  22098710.166   116129498.144       -2320.490          46.000 7  22098708.680    90490505.722       -1808.197          44.000 7
G32  21734479.701   114215485.548        2222.843          49.000 8  21734478.156    88999124.547        1732.059          44.000 7
> 2026  4 14  1 48  0.0000000  0  9
G02  23606321.603   124052076.476        2647.471          44.000 7                                                                
G08  22235905.556   116850471.633        -298.708          45.000 7  22235905.433    91052327.058        -232.662          44.000 7
G10  20857953.318   109609286.110        -176.678          51.000 8  20857950.821    85409824.916        -137.732          47.000 7
G15  25147411.082   132150538.973       -4141.944          38.000 6  25147410.118   102974419.223       -3226.963          36.000 6
G18  23539356.806   123700129.212       -3499.732          43.000 7  23539354.740    96389691.380       -2726.928          41.000 6
G23  21465556.590   112802255.030       -2234.994          46.000 7  21465553.028    87897848.009       -1741.611          46.000 7
G24  22995301.552   120841138.349        -167.968          40.000 6  22995300.701    94161936.217        -131.081          39.000 6
G27  22112001.400   116199341.481       -2335.352          46.000 7  22111999.171    90544929.080       -1819.732          44.000 7
G32  21721823.816   114148978.634        2211.238          49.000 8  21721822.430    88947301.015        1722.893          45.000 7
> 2026  4 14  1 48 30.0000000  0  9
G02  23591224.592   123972743.749        2641.868          44.000 7                                                                
G08  22237669.584   116859740.286        -318.719          45.000 7  22237668.305    91059549.397        -248.510          44.000 7
G10  20858992.773   109614747.836        -187.183          51.000 8  20858990.167    85414080.799        -145.819          47.000 7
G15  25171064.836   132274835.128       -4144.325          40.000 6  25171063.324   103071273.424       -3229.371          33.000 5
G18  23559357.935   123805234.693       -3507.192          43.000 7  23559355.780    96471591.703       -2732.820          41.000 6
G23  21478339.301   112869430.220       -2242.986          46.000 7  21478335.971    87950192.291       -1747.773          46.000 7
G24  22996324.201   120846513.698        -190.191          41.000 6  22996323.332    94166124.814        -148.345          39.000 6
G27  22125380.206   116269648.534       -2351.483          46.000 7  22125378.496    90599713.801       -1832.625          44.000 7
G32  21709239.572   114082847.898        2197.601          49.000 8  21709238.118    88895770.600        1712.543          45.000 7
> 2026  4 14  1 49  0.0000000  0  9
G02  23576157.488   123893563.719        2636.867          44.000 7                                                                
G08  22239545.297   116869600.117        -338.374          45.000 7  22239544.680    91067232.372        -263.734          44.000 7
G10  20860089.249   109620508.847        -196.808          51.000 8  20860086.269    85418569.913        -153.387          47.000 7
G15  25194728.371   132399188.495       -4145.905          40.000 6  25194727.044   103168172.270       -3230.849          33.000 5
G18  23579400.081   123910557.107       -3514.355          43.000 7  23579398.120    96553661.019       -2738.083          42.000 7
G23  21491165.171   112936830.345       -2250.231          46.000 7  21491161.865    88002711.856       -1753.488          46.000 7
G24  22997470.641   120852536.810        -211.573          41.000 6  22997469.089    94170818.167        -165.059          39.000 6
G27  22138850.275   116340435.055       -2367.138          46.000 7  22138848.933    90654872.107       -1844.866          44.000 7
G32  21696730.423   114017112.988        2184.678          49.000 8  21696729.085    88844548.634        1702.520          44.000 7
> 2026  4 14  1 49 30.0000000  0  9
G02  23561119.117   123814538.387        2631.567          44.000 7                                                                
G08  22241534.121   116880051.167        -358.083          45.000 7  22241533.634    91075376.049        -279.150          44.000 7
G10  20861242.353   109626569.318        -206.799          51.000 8  20861239.531    85423292.363        -161.115          47.000 7
G15  25218402.487   132523596.973       -4147.740          40.000 6  25218401.042   103265113.952       -3231.828          35.000 5
G18  23599483.221   124016095.448       -3521.595          42.000 7  23599481.396    96635898.646       -2744.049          41.000 6
G23  21504033.913   113004454.972       -2257.737          46.000 7  21504030.601    88055406.361       -1759.329          46.000 7
G24  22998740.489   120859208.543        -232.983          41.000 6  22998738.985    94176016.945        -181.850          40.000 6
G27  22152411.214   116411698.978       -2383.379          46.000 7  22152409.692    90710402.399       -1857.103          44.000 7
G32  21684297.324   113951775.862        2171.366          49.000 8  21684295.790    88793636.631        1691.927          44.000 7
> 2026  4 14  1 50  0.0000000  0  9
G02  23546113.785   123735684.207        2625.693          44.000 7                                                                
G08  22243638.525   116891107.705        -378.181          46.000 7  22243637.858    91083991.521        -294.702          44.000 7
G10  20862455.136   109632943.618        -217.242          51.000 8  20862452.559    85428259.351        -169.348          47.000 7
G15  25242089.748   132648073.590       -4149.985          38.000 6  25242088.004   103362108.729       -3233.760          33.000 5
G18  23619610.186   124121863.051       -3529.071          42.000 7  23619608.102    96718314.887       -2749.966          40.000 6
G23  21516947.632   113072317.853       -2265.858          46.000 7  21516944.343    88108286.502       -1765.281          46.000 7
G24  23000136.198   120866544.002        -255.052          41.000 6  23000135.170    94181732.901        -199.000          40.000 6
G27  22166065.557   116483452.430       -2399.578          45.000 7  22166063.764    90766314.162       -1869.750          43.000 7
G32  21671942.796   113886852.649        2157.595          49.000 8  21671941.320    88743047.147        1681.207          45.000 7
> 2026  4 14  1 50 30.0000000  0  9
G02  23531138.500   123656986.177        2620.403          45.000 7                                                                
G08  22245854.779   116902752.574        -398.277          46.000 7  22245853.585    91093065.452        -310.354          44.000 7
G10  20863724.807   109639614.767        -227.667          51.000 8  20863722.146    85433457.658        -177.460          47.000 7
G15  25265785.556   132772599.062       -4152.222          35.000 5  25265783.835   103459141.609       -3235.383          34.000 5
G18  23639777.479   124227841.770       -3536.265          42.000 7  23639775.472    96800895.631       -2755.480          42.000 7
G23  21529903.574   113140401.417       -2273.694          46.000 7  21529900.391    88161338.616       -1771.472          46.000 7
G24  23001654.939   120874526.877        -277.336          40.000 6  23001653.901    94187953.314        -216.058          40.000 6
G27  22179808.879   116555676.218       -2415.654          45.000 7  22179807.765    90822592.424       -1882.385          44.000 7
G32  21659664.183   113822328.156        2143.879          49.000 8  21659662.651    88692768.359        1670.380          44.000 7
> 2026  4 14  1 51  0.0000000  0  9
G02  23516193.097   123578449.981        2614.740          44.000 7                                                                
G08  22248182.774   116914989.575        -417.960          45.000 7  22248182.275    91102600.798        -325.932          44.000 7
G10  20865051.427   109646586.732        -237.744          51.000 8  20865048.822    85438890.365        -185.413          46.000 7
G15  25289491.629   132897175.858       -4153.793          35.000 5  25289490.034   103556214.494       -3236.577          34.000 5
G18  23659985.415   124334034.468       -3543.727          42.000 7  23659983.922    96883643.118       -2761.521          43.000 7
G23  21542902.279   113208709.033       -2281.096          46.000 7  21542898.721    88214565.325       -1777.434          46.000 7
G24  23003298.067   120883161.713        -299.076          40.000 6  23003297.633    94194681.797        -233.325          40.000 6
G27  22193642.382   116628372.057       -2431.491          45.000 7  22193641.549    90879238.492       -1894.642          45.000 7
G32  21647462.224   113758208.062        2130.284          49.000 8  21647460.966    88642804.693        1659.843          45.000 7
> 2026  4 14  1 51 30.0000000  0  9
G02  23501276.814   123500063.393        2611.688          44.000 7                                                                
G08  22250620.967   116927804.039        -435.339          45.000 7  22250620.331    91112586.078        -339.149          44.000 7
G10  20866432.677   109653845.018        -245.355          51.000 8  20866430.231    85444546.164        -191.077          47.000 7
G15  25313203.935   133021787.641       -4152.670          38.000 6  25313202.703   103653314.584       -3236.077          36.000 6
G18  23680230.512   124440425.593       -3548.506          40.000 6  23680229.193    96966545.183       -2764.665          42.000 7
G23  21555940.312   113277225.647       -2285.952          46.000 7  21555936.953    88267954.892       -1781.030          46.000 7
G24  23005062.791   120892434.685        -318.344          40.000 6  23005061.894    94201907.505        -248.086          40.000 6
G27  22207562.808   116701523.181       -2444.414          45.000 7  22207561.712    90936239.341       -1905.007          45.000 7
G32  21635335.296   113694479.668        2118.978          49.000 8  21635333.851    88593146.229        1651.402          45.000 7
> 2026  4 14  1 52  0.0000000  0  9
G02  23486384.450   123421805.679        2606.441          44.000 7                                                                
G08  22253165.495   116941173.180        -454.769          46.000 7  22253164.648    91123003.599        -354.495          44.000 7
G10  20867864.098   109661367.051        -255.188          51.000 8  20867861.597    85450407.486        -198.840          47.000 7
G15  25336919.180   133146409.235       -4154.092          37.000 6  25336917.658   103750422.354       -3236.481          35.000 5
G18  23700509.184   124546991.416       -3555.206          42.000 7  23700507.467    97049583.424       -2770.337          42.000 7
G23  21569014.036   113345928.119       -2293.118          46.000 7  21569010.690    88321489.265       -1786.925          46.000 7
G24  23006944.423   120902323.750        -339.754          39.000 6  23006943.769    94209613.287        -265.018          40.000 6
G27  22221565.658   116775104.794       -2459.871          45.000 7  22221564.481    90993575.628       -1916.757          45.000 7
G32  21623278.627   113631122.079        2105.634          49.000 8  21623277.145    88543776.724        1640.868          45.000 7
> 2026  4 14  1 52 30.0000000  0  9
G02  23471523.702   123343712.109        2600.285          44.000 7                                                                
G08  22255821.945   116955129.612        -475.230          45.000 7  22255820.688    91133878.725        -370.005          44.000 7
G10  20869351.951   109669185.646        -265.680          51.000 8  20869349.314    85456499.916        -207.056          47.000 7
G15  25360641.456   133271072.068       -4156.133          38.000 6  25360640.359   103847562.326       -3238.619          35.000 5
G18  23720828.289   124653763.567       -3562.567          43.000 7  23720826.013    97132782.477       -2776.129          41.000 6
G23  21582129.459   113414848.694       -2301.057          46.000 7  21582125.835    88375193.587       -1793.054          46.000 7
G24  23008949.888   120912862.366        -362.129          40.000 6  23008949.114    94217825.203        -282.341          40.000 6
G27  22235655.105   116849147.421       -2475.771          45.000 7  22235654.140    91051271.142       -1929.267          45.000 7
G32  21611299.360   113568169.869        2091.636          49.000 8  21611297.838    88494723.094        1629.858          45.000 7
> 2026  4 14  1 53  0.0000000  0  9
G02  23456686.980   123265743.100        2596.704          44.000 7                                                                
G08  22258580.944   116969631.724        -492.688          45.000 7  22258580.092    91145179.084        -384.088          44.000 7
G10  20870888.214   109677259.501        -273.523          51.000 8  20870885.513    85462791.226        -213.153          47.000 7
G15  25384364.027   133395733.429       -4155.766          32.000 5  25384362.751   103944701.077       -3238.242          31.000 5
G18  23741177.242   124760699.708       -3567.364          42.000 7  23741175.734    97216109.246       -2779.865          43.000 7
G23  21595277.939   113483945.473       -2306.352          46.000 7  21595274.479    88429035.234       -1797.238          45.000 7
G24  23011070.856   120924009.673        -382.004          40.000 6  23011070.298    94226511.435        -297.952          40.000 6
G27  22249824.684   116923607.459       -2489.137          46.000 7  22249823.429    91109291.919       -1939.581          45.000 7
G32  21599389.189   113505583.449        2079.982          49.000 8  21599387.966    88445954.496        1620.645          45.000 7
> 2026  4 14  1 53 30.0000000  0  9
G02  23142084.058   121612495.932        2592.142          44.000 7                                                                
G08  21961655.129   115409278.244        -511.141          45.000 7  21961654.481    89929319.221        -398.271          44.000 7
G10  20572684.533   108110187.408        -282.264          51.000 8  20572681.990    84241696.099        -220.058          47.000 7
G15  25108297.601   131944993.891       -4155.561          34.000 5  25108295.838   102814254.704       -3238.778          34.000 5
G18  23461768.795   123292400.779       -3573.215          41.000 6  23461768.025    96071980.105       -2784.291          42.000 7
G23  21308671.526   111977818.684       -2312.501          46.000 7  21308668.350    87255429.926       -1801.863          46.000 7
G24  22713519.514   119360365.054        -402.653          40.000 6  22713518.596    93008087.046        -313.734          39.000 6
G27  21964284.548   115423083.595       -2503.223          45.000 7  21964283.413    89940052.502       -1950.495          45.000 7
G32  21287760.095   111867960.897        2067.400          49.000 8  21287758.877    87169885.020        1610.865          45.000 7
> 2026  4 14  1 54  0.0000000  0  9
G02  23127298.052   121534792.136        2586.937          45.000 7                                                                
G08  21964625.024   115424881.159        -530.172          45.000 7  21964623.846    89941477.341        -413.105          44.000 7
G10  20574319.849   108118782.102        -291.792          51.000 8  20574317.502    84248393.260        -227.412          47.000 7
G15  25132020.089   132069656.183       -4156.309          34.000 5  25132018.394   102911394.197       -3238.570          33.000 5
G18  23482182.600   123399671.712       -3579.432          43.000 7  23482181.048    96155567.766       -2789.143          43.000 7
G23  21321888.879   112047276.480       -2319.242          46.000 7  21321885.729    87309552.853       -1807.089          46.000 7
G24  22715874.781   119372741.461        -423.528          40.000 6  22715873.600    93017731.056        -330.194          40.000 6
G27  21978613.027   115498381.783       -2517.657          45.000 7  21978611.934    89998726.385       -1961.895          45.000 7
G32  21275992.546   111806121.374        2054.063          49.000 8  21275991.071    87121698.409        1600.750          45.000 7
> 2026  4 14  1 54 30.0000000  0  9
G02  23112545.687   121457269.997        2581.628          44.000 7                                                                
G08  21967707.041   115441079.920        -549.214          45.000 7  21967706.536    89954099.753        -427.933          44.000 7
G10  20576013.604   108127683.158        -301.313          51.000 8  20576011.242    84255329.141        -234.748          47.000 7
G15  25155750.348   132194362.605       -4157.358          35.000 5  25155749.109   103008567.962       -3238.851          35.000 5
G18  23502636.084   123507154.225       -3585.658          43.000 7  23502633.832    96239320.307       -2793.977          42.000 7
G23  21335149.405   112116959.846       -2325.922          46.000 7  21335145.987    87363851.564       -1812.295          46.000 7
G24  22718355.193   119385779.077        -444.923          40.000 6  22718354.477    93027890.264        -346.753          40.000 6
G27  21993029.392   115574141.523       -2532.387          45.000 7  21993028.538    90057759.904       -1973.388          45.000 7
G32  21264305.052   111744703.728        2040.727          49.000 8  21264303.797    87073840.547        1590.329          45.000 7
> 2026  4 14  1 55  0.0000000  0  9
G02  23097829.527   121379933.364        2575.091          46.000 7                                                                
G08  21970903.223   115457875.965        -569.658          45.000 7  21970902.929    89967187.587        -443.811          44.000 7
G10  20577766.158   108136892.358        -311.870          51.000 8  20577763.737    84262505.149        -243.073          47.000 7
G15  25179489.769   132319113.346       -4159.207          35.000 5  25179488.197   103105776.407       -3240.489          34.000 5
G18  23523129.114   123614849.088       -3593.032          41.000 6  23523127.739    96323238.336       -2799.946          41.000 6
G23  21348452.917   112186870.077       -2334.021          46.000 7  21348449.506    87418327.060       -1818.666          46.000 7
G24  22720963.166   119399480.128        -467.478          41.000 6  22720961.927    93038566.411        -364.372          39.000 6
G27  22007533.937   115650362.255       -2547.881          45.000 7  22007533.157    90117152.662       -1985.618          44.000 7
G32  21252698.696   111683711.446        2026.181          49.000 8  21252697.199    87026314.129        1579.029          45.000 7
> 2026  4 14  1 55 30.0000000  0  9
G02  23083143.592   121302759.133        2569.713          45.000 7                                                                
G08  21974208.301   115475243.810        -588.575          45.000 7  21974207.651    89980720.971        -458.530          44.000 7
G10  20579572.589   108146384.625        -321.028          51.000 8  20579570.138    84269901.733        -250.332          47.000 7
G15  25203232.938   132443881.726       -4159.080          39.000 6  25203230.660   103202998.531       -3240.843          38.000 6
G18  23543658.440   123722729.920       -3599.216          43.000 7  23543656.887    96407301.230       -2804.513          41.000 6
G23  21361794.663   112256981.483       -2340.414          46.000 7  21361791.342    87472959.313       -1823.805          46.000 7
G24  22723691.785   119413819.766        -488.703          40.000 6  22723690.738    93049740.154        -380.781          40.000 6
G27  22022120.926   115727016.534       -2562.429          45.000 7  22022119.753    90176883.209       -1996.676          45.000 7
G32  21241168.717   111623121.029        2012.945          49.000 8  21241166.934    86979100.847        1568.650          45.000 7
> 2026  4 14  1 56  0.0000000  0  9
G02  23068487.000   121225739.713        2564.715          44.000 7                                                                
G08  21977620.422   115493173.284        -606.930          45.000 7  21977619.264    89994691.985        -473.067          44.000 7
G10  20581430.840   108156150.216        -329.961          51.000 8  20581428.451    84277511.276        -257.210          46.000 7
G15  25226976.393   132568655.447       -4159.119          35.000 5  25226974.409   103300224.905       -3240.889          34.000 5
G18  23564221.104   123830785.771       -3604.792          43.000 7  23564219.459    96491500.565       -2809.091          41.000 6
G23  21375172.364   112327283.736       -2346.565          46.000 7  21375169.290    87527740.283       -1828.662          46.000 7
G24  22726540.226   119428788.615        -509.552          40.000 6  22726539.112    93061404.211        -396.842          39.000 6
G27  22036787.580   115804092.182       -2576.095          45.000 7  22036786.602    90236942.125       -2007.517          44.000 7
G32  21229713.597   111562924.344        1999.921          49.000 8  21229711.935    86932194.389        1558.401          45.000 7
> 2026  4 14  1 56 30.0000000  0  9
G02  23053861.066   121148883.156        2559.370          43.000 7                                                                
G08  21981140.339   115511670.255        -625.782          46.000 7  21981139.433    90009105.208        -487.644          44.000 7
G10  20583342.361   108166195.393        -338.998          51.000 8  20583340.097    84285338.699        -264.225          47.000 7
G15  25250721.348   132693435.4413      -4159.621          25.000 4  25250719.620                       -3237.847          23.000 3
G18  23584817.335   123939021.885       -3610.428          41.000 6  23584816.097    96575840.345       -2813.395          41.000 6
G23  21388587.844   112397782.614       -2352.904          46.000 7  21388584.656    87582674.465       -1833.536          46.000 7
G24  22729509.504   119444393.279        -530.307          40.000 6  22729508.630    93073563.709        -413.267          40.000 6
G27  22051536.096   115881593.146       -2590.152          46.000 7  22051534.593    90297332.444       -2018.333          44.000 7
G32  21218334.961   111503129.323        1986.667          50.000 8  21218333.375    86885600.896        1548.124          46.000 7
> 2026  4 14  1 57  0.0000000  0  8
G02  23039267.642   121072190.743        2553.477          44.000 7                                                                
G08  21984767.777   115530733.186        -644.969          46.000 7  21984767.036    90023959.447        -502.593          44.000 7
G10  20585306.907   108176519.112        -348.764          51.000 8  20585304.856    84293383.147        -271.763          47.000 7
G18  23605447.926   124047436.053       -3616.887          41.000 6  23605447.018    96660318.826       -2818.419          42.000 7
G23  21402040.320   112468476.493       -2359.819          46.000 7  21402037.499    87637760.584       -1838.963          46.000 7
G24  22732599.356   119460633.025        -552.004          40.000 6  22732598.963    93086218.060        -430.098          40.000 6
G27  22066364.154   115959515.960       -2604.500          45.000 7  22066362.680    90358051.501       -2029.647          44.000 7
G32  21207032.804   111443736.481        1972.915          50.000 8  21207031.346    86839320.803        1537.186          46.000 7
> 2026  4 14  1 57 30.0000000  0  8
G02  23024712.219   120995701.898        2546.766          45.000 7                                                                
G08  21988510.705   115550399.156        -664.812          46.000 7  21988509.384    90039283.551        -518.042          44.000 7
G10  20587331.558   108187158.903        -359.229          51.000 8  20587329.324    84301673.899        -279.926          47.000 7
G18  23626119.355   124156064.481       -3623.779          41.000 6  23626118.101    96744964.276       -2823.799          42.000 7
G23  21415537.315   112539402.364       -2367.491          45.000 7  21415534.157    87693027.466       -1844.751          46.000 7
G24  22735818.079   119477545.534        -574.154          40.000 6  22735817.226    93099396.656        -447.408          40.000 6
G27  22081279.614   116037895.732       -2619.775          46.000 7  22081278.196    90419126.614       -2041.283          44.000 7
G32  21195814.793   111384784.946        1958.326          50.000 8  21195813.183    86793384.565        1526.124          46.000 7
> 2026  4 14  1 58  0.0000000  0  8
G02  23010189.354   120919385.404        2541.493          44.000 7                                                                
G08  21992360.700   115570634.182        -683.436          46.000 7  21992359.715    90055051.115        -532.601          44.000 7
G10  20589409.809   108198081.338        -368.656          51.000 8  20589407.469    84310184.892        -287.296          47.000 7
G18  23646824.693   124264872.610       -3629.517          41.000 6  23646823.557    96829749.762       -2828.286          42.000 7
G23  21429072.129   112610526.185       -2373.286          46.000 7  21429068.835    87748448.613       -1849.502          46.000 7
G24  22739158.160   119495097.701        -595.142          41.000 6  22739157.539    93113073.670        -464.017          40.000 6
G27  22096274.822   116116696.626       -2633.282          45.000 7  22096273.562    90480529.874       -2051.887          45.000 7
G32  21184674.633   111326242.837        1944.872          50.000 8  21184672.998    86747767.385        1515.450          46.000 7
> 2026  4 14  1 58 30.0000000  0  8
G02  22995695.680   120843217.748        2536.006          45.000 7                                                                
G08  21996314.471   115591412.477        -702.074          45.000 7  21996313.054    90071241.977        -546.997          43.000 7
G10  20591537.369   108209261.060        -377.362          51.000 8  20591535.013    84318896.368        -294.043          47.000 7
G18  23667559.612   124373833.995       -3635.053          41.000 6  23667558.503    96914654.644       -2832.311          41.000 6
G23  21442639.312   112681822.198       -2380.156          46.000 7  21442636.185    87804003.934       -1854.462          46.000 7
G24  22742615.370   119513264.329        -616.130          41.000 6  22742613.895    93127229.505        -480.023          39.000 6
G27  22111345.167   116195890.890       -2646.780          45.000 7  22111343.522    90542239.658       -2062.316          44.000 7
G32  21173607.706   111268086.409        1931.812          49.000 8  21173606.263    86702450.718        1505.293          46.000 7
> 2026  4 14  1 59  0.0000000  0  8
G02  22981237.108   120767238.204        2529.050          45.000 7                                                                
G08  22000378.669   115612770.455        -722.067          45.000 7  22000377.444    90087884.543        -562.567          43.000 7
G10  20593720.939   108220735.172        -387.821          51.000 8  20593718.343    84327837.236        -302.243          47.000 7
G18  23688330.647   124482984.370       -3641.913          42.000 7  23688329.097    96999706.847       -2838.074          41.000 6
G23  21456245.826   112753326.813       -2387.312          46.000 7  21456242.874    87859721.797       -1860.250          46.000 7
G24  22746196.695   119532082.628        -638.322          41.000 6  22746195.196    93141893.118        -497.474          40.000 6
G27  22126496.703   116275513.094       -2661.565          45.000 7  22126495.319    90604282.912       -2073.937          44.000 7
G32  21162621.536   111210354.259        1916.973          50.000 8  21162620.349    86657464.648        1493.841          46.000 7
> 2026  4 14  1 59 30.0000000  0  8
G02  22966816.453   120691458.123        2523.160          46.000 7                                                                
G08  22004555.468   115634716.898        -740.942          45.000 7  22004553.167    90104985.686        -577.371          43.000 7
G10  20595962.025   108232512.955        -397.262          51.000 8  20595959.500    84337014.738        -309.634          46.000 7
G18  23709138.791   124592331.919       -3647.937          42.000 7  23709137.638    97084912.677       -2842.365          41.000 6
G23  21469893.985   112825048.824       -2393.669          46.000 7  21469890.747    87915609.090       -1865.514          45.000 7
G24  22749903.171   119551562.078        -659.837          41.000 6  22749902.164    93157071.920        -514.084          40.000 6
G27  22141730.830   116355570.157       -2675.371          45.000 7  22141729.807    90666665.017       -2084.827          45.000 7
G32  21151718.111   111153057.208        1903.021          50.000 8  21151716.823    86612817.643        1482.781          45.000 7
> 2026  4 14  2  0  0.0000000  0  8
G02  22952430.812   120615862.612        2515.870          44.000 7                                                                
G08  22008839.879   115657234.065        -760.948          45.000 7  22008838.867    90122531.529        -593.058          44.000 7
G10  20598257.891   108244577.308        -407.678          51.000 8  20598255.483    84346415.528        -317.626          47.000 7
G18  23729980.786   124701858.270       -3654.492          41.000 6  23729979.974    97170257.790       -2847.540          42.000 7
G23  21483580.422   112896970.642       -2401.580          45.000 7  21483577.209    87971652.039       -1871.416          46.000 7
G24  22753732.797   119571685.576        -682.247          42.000 7  22753731.722    93172752.583        -531.620          40.000 6
G27  22157044.513   116436042.443       -2690.066          45.000 7  22157043.294    90729370.654       -2096.219          45.000 7
G32  21140894.706   111096179.668        1888.061          50.000 8  21140893.230    86568497.508        1471.277          46.000 7
> 2026  4 14  2  0 30.0000000  0  8
G02  22938078.624   120540436.819        2511.682          46.000 7                                                                
G08  22013230.158   115680304.621        -777.835          45.000 7  22013229.564    90140508.553        -606.049          44.000 7
G10  20600605.170   108256911.489        -415.122          51.000 8  20600602.698    84356026.578        -323.452          47.000 7
G18  23750853.419   124811545.645       -3658.484          40.000 6  23750852.094    97255728.391       -2850.818          39.000 6
G23  21497301.435   112969074.924       -2406.074          46.000 7  21497298.204    88027837.183       -1874.908          45.000 7
G24  22757681.601   119592436.567        -701.681          41.000 6  22757680.397    93188922.207        -546.822          40.000 6
G27  22172433.481   116516910.751       -2701.551          46.000 7  22172431.981    90792384.897       -2105.077          44.000 7
G32  21130148.146   111039706.409        1876.318          49.000 8  21130146.682    86524492.405        1462.009          46.000 7
> 2026  4 14  2  1  0.0000000  0  8
G02  22923758.127   120465185.949        2505.280          45.000 7                                                                
G08  22017725.902   115703931.065        -796.978          45.000 7  22017725.288    90158918.790        -621.040          44.000 7
G10  20603004.180   108269518.685        -425.036          51.000 8  20603001.593    84365850.370        -331.170          47.000 7
G18  23771757.886   124921395.823       -3664.605          42.000 7  23771756.082    97341325.915       -2855.609          41.000 6
G23  21511057.599   113041364.379       -2412.788          45.000 7  21511054.350    88084166.625       -1880.070          46.000 7
G24  22761750.398   119613818.223        -723.472          41.000 6  22761749.331    93205583.252        -563.745          40.000 6
G27  22187897.430   116598175.817       -2715.521          45.000 7  22187896.211    90855708.309       -2115.989          44.000 7
G32  21119479.356   110983642.083        1861.982          49.000 8  21119477.641    86480805.946        1450.814          45.000 7
> 2026  4 14  2  1 30.0000000  0  8
G02  22909469.829   120390100.790        2500.072          45.000 7                                                                
G08  22022325.385   115728101.235        -814.673          45.000 7  22022324.833    90177752.675        -634.690          44.000 7
G10  20605453.088   108282387.378        -433.289          51.000 8  20605450.494    84375877.927        -337.782          47.000 7
G18  23792689.846   125031396.106       -3669.360          41.000 6  23792688.801    97427040.370       -2859.186          42.000 7
G23  21524846.807   113113826.951       -2418.301          46.000 7  21524843.520    88140630.952       -1884.441          45.000 7
G24  22765936.756   119635819.007        -743.728          41.000 6  22765935.752    93222726.712        -579.430          40.000 6
G27  22203434.526   116679823.559       -2728.058          46.000 7  22203433.533    90919329.906       -2125.751          44.000 7
G32  21108886.835   110927976.682        1848.843          50.000 8  21108885.435    86437430.326        1440.648          46.000 7
> 2026  4 14  2  2  0.0000000  0  8
G02  22895218.129   120315208.263        2493.309          44.000 7                                                                
G08  22027033.023   115752839.302        -833.972          45.000 7  22027032.400    90197029.088        -649.891          44.000 7
G10  20607955.957   108295542.417        -443.067          51.000 8  20607953.865    84386128.610        -345.313          46.000 7
G18  23813654.810   125141570.283       -3675.287          40.000 6  23813654.492    97512890.224       -2863.727          42.000 7
G23  21538673.733   113186486.955       -2425.123          46.000 7  21538670.302    88197249.130       -1889.817          45.000 7
G24  22770245.606   119658463.820        -765.292          40.000 6  22770244.791    93240372.065        -596.600          40.000 6
G27  22219048.450   116761876.407       -2741.789          45.000 7  22219047.698    90983267.150       -2136.396          44.000 7
G32  21098374.737   110872736.486        1834.343          50.000 8  21098373.330    86394386.064        1429.385          46.000 7
> 2026  4 14  2  2 30.0000000  0  8
G02  22881007.559   120240529.922        2485.354          45.000 7                                                                
G08  22031852.094   115778163.929        -854.237          45.000 7  22031851.324    90216762.559        -665.637          44.000 7
G10  20610517.787   108309003.294        -454.017          51.000 8  20610515.363    84396617.600        -353.803          47.000 7
G18  23834657.820   125251936.364       -3682.343          42.000 7  23834656.289    97598889.699       -2869.244          41.000 6
G23  21552541.665   113259363.314       -2433.051          46.000 7  21552538.201    88254035.882       -1895.873          45.000 7
G24  22774680.926   119681772.040        -788.042          40.000 6  22774680.296    93258534.331        -614.122          40.000 6
G27  22234743.296   116844351.205       -2756.585          46.000 7  22234742.253    91047533.211       -2147.987          44.000 7
G32  21087947.874   110817942.403        1818.638          50.000 8  21087946.495    86351689.412        1417.124          46.000 7
> 2026  4 14  2  3  0.0000000  0  8
G02  22866836.812   120166063.015        2479.570          45.000 7                                                                
G08  22036781.736   115804069.798        -872.271          45.000 7  22036780.975    90236948.934        -679.565          44.000 7
G10  20613136.491   108322765.358        -463.095          51.000 8  20613134.243    84407341.278        -360.762          47.000 7
G18  23855695.395   125362488.527       -3687.305          41.000 6  23855693.304    97685034.226       -2873.230          41.000 6
G23  21566449.930   113332450.904       -2438.962          46.000 7  21566445.936    88310987.231       -1900.502          45.000 7
G24  22779241.526   119705738.910        -808.992          39.000 6  22779240.898    93277209.825        -630.656          40.000 6
G27  22250516.354   116927240.840       -2768.951          45.000 7  22250515.051    91112122.499       -2157.630          44.000 7
G32  21077605.068   110763591.240        1805.010          50.000 8  21077603.653    86309337.889        1406.581          46.000 7
> 2026  4 14  2  3 30.0000000  0  8
G02  22852700.205   120091775.443        2473.383          45.000 7                                                                
G08  22041815.412   115830521.686        -890.704          46.000 7  22041814.745    90257560.816        -694.169          44.000 7
G10  20615806.301   108336794.196        -472.115          51.000 8  20615803.865    84418272.843        -367.768          47.000 7
G18  23876760.494   125473191.257       -3692.554          38.000 6  23876759.642    97771296.004       -2877.173          41.000 6
G23  21580391.581   113405714.751       -2444.897          46.000 7  21580387.762    88368075.974       -1905.339          44.000 7
G24  22783921.476   119730329.963        -830.059          40.000 6  22783920.653    93296371.674        -646.735          40.000 6
G27  22266361.912   117010508.355       -2781.698          45.000 7  22266360.496    91177006.280       -2167.540          44.000 7
G32  21067340.368   110709649.988        1791.193          50.000 8  21067338.887    86267305.786        1395.840          46.000 7
> 2026  4 14  2  4  0.0000000  0  8
G02  22838603.965   120017696.409        2465.391          45.000 7                                                                
G08  22046958.542   115857545.884        -910.654          45.000 7  22046957.145    90278618.631        -709.999          43.000 7
G10  20618531.715   108351116.837        -482.621          51.000 8  20618529.318    84429433.354        -376.090          47.000 7
G18  23897860.110   125584070.277       -3699.249          41.000 6  23897859.844    97857695.172       -2882.587          42.000 7
G23  21594371.608   113479181.467       -2452.496          46.000 7  21594368.155    88425322.753       -1911.154          45.000 7
G24  22788724.784   119755572.060        -852.498          40.000 6  22788723.761    93316040.858        -664.133          40.000 6
G27  22282283.439   117094178.236       -2795.991          45.000 7  22282282.515    91242203.567       -2178.652          44.000 7
G32  21057158.951   110656147.091        1775.793          50.000 8  21057157.944    86225615.265        1383.526          46.000 7
> 2026  4 14  2  4 30.0000000  0  8
G02  22824543.084   119943808.243        2459.820          45.000 7                                                                
G08  22052206.048   115885122.282        -928.539          46.000 7  22052204.447    90300106.728        -723.470          43.000 7
G10  20621309.726   108365714.068        -491.256          51.000 8  20621307.097    84440807.822        -382.690          46.000 7
G18  23918989.934   125695105.032       -3703.979          42.000 7  23918989.376    97944215.690       -2886.212          43.000 7
G23  21608386.558   113552831.212       -2458.142          46.000 7  21608383.571    88482712.144       -1915.454          45.000 7
G24  22793648.161   119781445.790        -873.216          40.000 6  22793647.791    93336202.227        -680.422          40.000 6
G27  22298278.125   117178228.676       -2808.052          45.000 7  22298276.777    91307697.393       -2188.090          44.000 7
G32  21047057.874   110603064.690        1762.253          50.000 8  21047056.289    86184252.380        1373.215          46.000 7
> 2026  4 14  2  5  0.0000000  0  8
G02  22810519.273   119870112.609        2453.190          45.000 7                                                                
G08  22057558.126   115913249.085        -946.708          46.000 7  22057557.536    90322023.726        -737.776          44.000 7
G10  20624139.495   108380584.851        -500.262          51.000 8  20624136.848    84452395.453        -389.844          47.000 7
G18  23940148.366   125806293.311       -3708.813          41.000 6  23940147.586    98030855.860       -2889.954          42.000 7
G23  21622436.385   113626662.522       -2464.164          46.000 7  21622432.927    88540243.015       -1920.152          45.000 7
G24  22798691.777   119807949.994        -894.232          40.000 6  22798691.035    93356854.870        -696.773          40.000 6
G27  22314343.841   117262656.098       -2820.515          45.000 7  22314342.485    91373484.962       -2197.633          44.000 7
G32  21037036.431   110550403.161        1748.312          50.000 8  21037034.940    86143217.467        1362.116          46.000 7
> 2026  4 14  2  5 30.0000000  0  8
G02  22796533.809   119796619.081        2446.075          45.000 7                                                                
G08  22063016.846   115941933.184        -965.715          45.000 7  22063015.099    90344374.949        -752.317          43.000 7
G10  20627022.789   108395737.017        -510.096          51.000 8  20627020.393    84464202.337        -397.573          47.000 7
G18  23961337.179   125917641.685       -3714.642          41.000 6  23961335.785    98117620.729       -2894.342          40.000 6
G23  21636521.719   113700682.660       -2470.984          46.000 7  21636518.702    88597921.021       -1925.198          45.000 7
G24  22803856.667   119835092.152        -916.019          40.000 6  22803856.335    93378004.599        -713.433          40.000 6
G27  22330482.344   117347465.769       -2833.784          44.000 7  22330481.434    91439570.397       -2208.031          44.000 7
G32  21027097.240   110498171.609        1733.476          50.000 8  21027095.641    86102517.593        1350.664          46.000 7
> 2026  4 14  2  6  0.0000000  0  8
G02  22782586.590   119723326.575        2439.722          45.000 7                                                                
G08  22068580.226   115971170.540        -983.653          45.000 7  22068579.011    90367157.318        -766.693          44.000 7
G10  20629959.197   108411167.422        -518.885          51.000 8  20629956.647    84476226.026        -404.216          47.000 7
G18  23982555.567   126029145.681       -3719.232          40.000 6  23982554.013    98204506.952       -2897.901          38.000 6
G23  21650643.049   113774887.975       -2476.555          46.000 7  21650639.654    88655743.325       -1929.664          45.000 7
G24  22809142.533   119862868.923        -936.493          41.000 6  22809141.667    93399648.889        -729.805          40.000 6
G27  22346693.077   117432651.857       -2845.690          45.000 7  22346692.240    91505949.155       -2217.510          44.000 7
G32  21017239.414   110446368.284        1719.680          50.000 8  21017238.033    86062151.395        1339.849          46.000 7
> 2026  4 14  2  6 30.0000000  0  8
G02  22768678.750   119650239.023        2432.150          45.000 7                                                                
G08  22074249.537   116000961.661       -1003.027          45.000 7  22074248.392    90390371.159        -781.491          44.000 7
G10  20632948.582   108426877.398        -529.028          51.000 8  20632946.124    84488467.575        -412.256          47.000 7
G18  24003803.929   126140805.460       -3725.390          40.000 6  24003802.350    98291514.521       -2902.718          41.000 6
G23  21664799.323   113849279.334       -2483.537          46.000 7  21664795.699    88713710.604       -1935.176          45.000 7
G24  22814549.338   119891281.390        -958.301          40.000 6  22814548.363    93421788.496        -746.830          40.000 6
G27  22362974.908   117518213.196       -2858.992          45.000 7  22362973.813    91572620.306       -2227.714          44.000 7
G32  21007463.797   110394995.867        1704.477          50.000 8  21007462.153    86022120.965        1328.227          46.000 7
> 2026  4 14  2  7  0.0000000  0  8
G02  22754811.009   119577363.097        2425.405          45.000 7                                                                
G08  22080024.355   116031310.468       -1021.064          45.000 7  22080024.021    90414019.594        -795.709          44.000 7
G10  20635992.293   108442871.918        -538.187          51.000 8  20635990.021    84500930.835        -419.283          47.000 7
G18  24025082.884   126252624.626       -3730.346          40.000 6  24025081.900    98378646.263       -2906.908          42.000 7
G23  21678991.640   113923861.181       -2489.551          46.000 7  21678988.272    88771826.317       -1939.668          45.000 7
G24  22820078.348   119920334.149        -979.495          41.000 6  22820077.160    93444427.018        -763.185          40.000 6
G27  22379328.375   117604152.117       -2871.112          45.000 7  22379327.524    91639585.671       -2237.176          44.000 7
G32  20997770.559   110344060.570        1690.408          50.000 8  20997769.455    85982431.175        1317.100          46.000 7
> 2026  4 14  2  7 30.0000000  0  8
G02  22740982.252   119504695.549        2418.749          45.000 7                                                                
G08  22085904.363   116062210.540       -1039.203          45.000 7  22085903.708    90438097.577        -809.835          44.000 7
G10  20639089.003   108459145.470        -546.973          51.000 8  20639086.650    84513611.534        -426.296          46.000 7
G18  24046390.206   126364596.414       -3734.739          40.000 6  24046389.837    98465896.903       -2910.181          42.000 7
G23  21693219.003   113998627.503       -2495.234          46.000 7  21693215.721    88830085.781       -1944.428          45.000 7
G24  22825727.617   119950021.325        -999.768          41.000 6  22825726.420    93467559.898        -779.187          40.000 6
G27  22395752.629   117690460.480       -2883.169          44.000 7  22395751.329    91706838.906       -2246.566          44.000 7
G32  20988160.594   110293558.229        1676.309          50.000 8  20988159.112    85943078.720        1306.103          46.000 7
> 2026  4 14  2  8  0.0000000  0  8
G02  22727200.691   119432271.274        2409.078          45.000 7                                                                
G08  22091895.463   116093693.898       -1059.932          45.000 7  22091895.213    90462630.056        -825.824          44.000 7
G10  20642244.900   108475731.044        -559.006          51.000 8  20642242.478    84526535.358        -435.512          47.000 7
G18  24067732.851   126476752.556       -3742.944          41.000 6  24067731.661    98553291.218       -2916.083          40.000 6
G23  21707487.833   114073610.810       -2504.177          46.000 7  21707484.603    88888514.316       -1951.113          45.000 7
G24  22831503.687   119980375.598       -1023.949          42.000 7  22831502.673    93491212.578        -797.908          40.000 6
G27  22412252.272   117777168.664       -2897.858          44.000 7  22412251.696    91774403.688       -2257.789          44.000 7
G32  20978639.246   110243523.082        1659.155          50.000 8  20978637.630    85904090.319        1292.938          46.000 7
> 2026  4 14  2  8 30.0000000  0  8
G02  22713468.298   119360108.912        2401.752          45.000 7                                                                
G08  22098000.899   116125775.788       -1078.574          45.000 7  22098000.466    90487628.930        -840.401          44.000 7
G10  20645463.437   108492644.902        -568.691          51.000 8  20645461.123    84539714.999        -443.117          47.000 7
G18  24089112.933   126589108.014       -3747.627          39.000 6  24089111.358    98640840.932       -2920.551          38.000 6
G23  21721801.048   114148826.843       -2510.412          46.000 7  21721797.857    88947124.191       -1956.072          45.000 7
G24  22837410.023   120011412.733       -1045.348          41.000 6  22837408.452    93515397.379        -814.560          40.000 6
G27  22428831.262   117864290.285       -2910.265          44.000 7  22428830.434    91842290.655       -2267.733          44.000 7
G32  20969209.626   110193972.686        1644.220          50.000 8  20969208.278    85865479.657        1281.177          46.000 7
> 2026  4 14  2  9  0.0000000  0  8
G02  22699777.501   119288162.729        2394.316          46.000 7                                                                
G08  22104210.451   116158407.348       -1097.091          45.000 7  22104209.545    90513056.119        -854.968          44.000 7
G10  20648735.497   108509839.238        -578.212          51.000 8  20648733.213    84553113.183        -450.458          46.000 7
G18  24110523.046   126701613.685       -3752.980          42.000 7  24110520.899    98728507.656       -2924.820          38.000 6
G23  21736148.982   114224227.334       -2516.623          45.000 7  21736146.032    89005877.811       -1961.240          45.000 7
G24  22843436.553   120043084.549       -1066.728          41.000 6  22843435.985    93540076.704        -830.924          41.000 6
G27  22445478.800   117951774.913       -2922.439          44.000 7  22445478.156    91910460.461       -2277.348          44.000 7
G32  20959864.111   110144860.457        1629.571          50.000 8  20959862.672    85827210.424        1269.757          46.000 7
> 2026  4 14  2  9 30.0000000  0  8
G02  22686131.727   119216453.158        2385.996          45.000 7                                                                
G08  22110527.388   116191605.915       -1116.400          45.000 7  22110526.689    90538925.140        -869.958          44.000 7
G10  20652064.407   108527332.412        -588.418          51.000 8  20652062.079    84566744.243        -458.560          47.000 7
G18  24131964.165   126814286.561       -3759.092          43.000 7  24131962.249    98816304.635       -2929.089          41.000 6
G23  21750535.715   114299830.130       -2523.819          45.000 7  21750532.750    89064789.072       -1966.772          45.000 7
G24  22849587.578   120075408.914       -1088.315          40.000 6  22849587.099    93565264.544        -848.341          41.000 6
G27  22462199.142   118039638.235       -2935.252          45.000 7  22462197.998    91978925.369       -2287.506          44.000 7
G32  20950605.309   110096205.993        1613.763          50.000 8  20950603.887    85789297.885        1257.513          46.000 7
> 2026  4 14  2 10  0.0000000  0  8
G02  22672531.940   119144986.105        2379.126          46.000 7                                                                
G08  22116953.627   116225374.374       -1134.253          45.000 7  22116952.789    90565238.208        -883.790          44.000 7
G10  20655450.891   108545128.381        -597.248          51.000 8  20655448.253    84580611.225        -465.320          46.000 7
G18  24153437.340   126927129.345       -3763.364          42.000 7  24153435.898    98904234.041       -2932.500          40.000 6
G23  21764961.893   114375638.721       -2529.339          46.000 7  21764958.900    89123860.670       -1970.766          45.000 7
G24  22855863.532   120108389.325       -1109.380          41.000 6  22855862.856    93590963.576        -864.507          41.000 6
G27  22478991.056   118127881.548       -2946.539          45.000 7  22478990.072    92047686.353       -2296.094          44.000 7
G32  20941434.839   110048014.468        1599.603          50.000 8  20941433.357    85751746.080        1246.393          46.000 7
> 2026  4 14  2 10 30.0000000  0  8
G02  22658974.556   119073744.048        2370.146          45.000 7                                                                
G08  22123483.584   116259691.786       -1153.879          44.000 7  22123483.831    90591979.054        -899.177          45.000 7
G10  20658891.205   108563207.326        -608.111          51.000 8  20658888.661    84594698.728        -473.975          46.000 7
G18  24174938.397   127040120.996       -3769.681          39.000 6  24174937.795    98992279.371       -2937.409          41.000 6
G23  21779423.237   114451632.790       -2536.932          46.000 7  21779419.981    89183076.821       -1976.786          45.000 7
G24  22862260.448   120142005.405       -1131.669          41.000 6  22862259.804    93617157.931        -881.790          41.000 6
G27  22495851.085   118216482.396       -2960.137          44.000 7  22495850.020    92116725.943       -2306.419          44.000 7
G32  20932348.874   110000267.265        1583.350          50.000 8  20932347.272    85714540.500        1233.875          46.000 7
> 2026  4 14  2 11  0.0000000  0  8
G02  22645466.671   119002759.256        2362.516          45.000 7                                                                
G08  22130123.908   116294587.123       -1171.837          45.000 7  22130124.369    90619170.212        -913.287          45.000 7
G10  20662390.938   108581599.328        -617.466          51.000 8  20662388.785    84609030.149        -481.069          47.000 7
G18  24196473.481   127153290.246       -3774.955          38.000 6  24196472.809    99080463.125       -2941.217          39.000 6
G23  21793925.463   114527841.922       -2543.265          46.000 7  21793922.010    89242460.537       -1981.703          45.000 7
G24  22868784.515   120176286.683       -1153.130          42.000 7  22868783.139    93643870.622        -898.476          41.000 6
G27  22512784.519   118305468.165       -2972.037          44.000 7  22512783.987    92186065.465       -2315.650          44.000 7
G32  20923353.835   109952995.664        1568.463          50.000 8  20923352.036    85677705.518        1222.125          46.000 7
> 2026  4 14  2 11 30.0000000  0  8
G02  22632001.431   118931998.797        2354.881          45.000 7                                                                
G08  22136867.749   116330024.198       -1190.222          45.000 7  22136867.639    90646783.499        -927.390          45.000 7
G10  20665943.924   108600269.305        -626.880          51.000 8  20665941.456    84623578.198        -488.605          47.000 7
G18  24218036.216   127266600.615       -3779.471          40.000 6  24218035.225    99168756.861       -2944.773          40.000 6
G23  21808461.362   114604230.559       -2549.247          46.000 7  21808458.551    89301984.150       -1986.426          45.000 7
G24  22875427.502   120211197.511       -1174.135          41.000 6  22875427.029    93671073.880        -914.999          42.000 7
G27  22529784.551   118394801.101       -2983.565          44.000 7  22529783.317    92255675.507       -2324.698          44.000 7
G32  20914442.287   109906165.736        1553.656          50.000 8  20914440.566    85641214.689        1210.681          46.000 7
> 2026  4 14  2 12  0.0000000  0  8
G02  22618581.893   118861478.135        2345.630          45.000 7                                                                
G08  22143716.449   116366015.280       -1209.715          44.000 7  22143716.258    90674828.481        -942.632          44.000 7
G10  20669552.124   108619230.744        -637.806          51.000 8  20669549.716    84638353.341        -496.955          47.000 7
G18  24239627.867   127380064.255       -3785.442          41.000 6  24239626.280    99257170.139       -2949.994          40.000 6
G23  21823034.883   114680811.708       -2556.711          46.000 7  21823031.306    89361657.771       -1992.320          45.000 7
G24  22882192.790   120246750.776       -1196.630          41.000 6  22882192.884    93698777.711        -932.514          42.000 7
G27  22546852.041   118484491.998       -2996.499          44.000 7  22546850.614    92325564.482       -2334.839          43.000 7
G32  20905617.451   109859792.136        1537.317          50.000 8  20905615.765    85605079.446        1197.900          46.000 7
> 2026  4 14  2 12 30.0000000  0  8
G02  22605210.969   118791213.497        2338.155          46.000 7                                                                
G08  22150673.072   116402573.420       -1227.734          45.000 7  22150673.047    90703315.338        -956.755          44.000 7
G10  20673218.189   108638497.891        -647.004          51.000 8  20673216.115    84653366.713        -504.009          47.000 7
G18  24261250.752   127493694.142       -3790.014          40.000 6  24261250.187    99345712.811       -2953.363          41.000 6
G23  21837646.344   114757599.123       -2562.643          45.000 7  21837643.358    89421492.128       -1997.102          45.000 7
G24  22889083.471   120282960.026       -1217.610          41.000 6  22889082.544    93726992.726        -948.848          41.000 6
G27  22563989.695   118574552.385       -3007.899          44.000 7  22563988.541    92395741.389       -2343.756          43.000 7
G32  20896882.504   109813890.218        1522.540          50.000 8  20896881.259    85569311.750        1186.475          46.000 7
> 2026  4 14  2 13  0.0000000  0  8
G02  22591888.006   118721200.321        2329.053          46.000 7                                                                
G08  22157736.072   116439690.434       -1246.548          45.000 7  22157736.154    90732237.696        -971.645          44.000 7
G10  20676941.680   108658063.757        -657.096          51.000 8  20676939.544    84668612.851        -512.226          46.000 7
G18  24282904.181   127607481.988       -3795.650          39.000 6  24282903.343    99434378.555       -2957.591          42.000 7
G23  21852296.272   114834585.337       -2569.546          46.000 7  21852293.109    89481481.361       -2002.363          45.000 7
G24  22896097.317   120319817.660       -1239.562          42.000 7  22896096.406    93755712.943        -965.936          41.000 6
G27  22581196.330   118664972.597       -3020.219          44.000 7  22581194.992    92466198.634       -2353.209          44.000 7
G32  20888236.182   109768454.127        1506.647          50.000 8  20888234.915    85533907.033        1173.981          46.000 7
> 2026  4 14  2 13 30.0000000  0  8
G02  22578614.544   118651448.008        2321.951          46.000 7                                                                
G08  22164907.189   116477372.468       -1263.976          44.000 7  22164906.916    90761600.304        -985.130          44.000 7
G10  20680723.303   108677935.707        -666.307          51.000 8  20680720.994    84684097.492        -519.219          46.000 7
G18  24304588.323   127721433.795       -3799.874          39.000 6  24304587.539    99523172.087       -2961.112          41.000 6
G23  21866986.143   114911777.241       -2575.205          46.000 7  21866982.529    89541630.894       -2006.862          45.000 7
G24  22903235.547   120357330.274       -1260.061          41.000 6  22903234.866    93784943.569        -981.911          41.000 6
G27  22598472.081   118755757.244       -3030.965          44.000 7  22598471.181    92536939.902       -2361.759          44.000 7
G32  20879680.490   109723492.352        1492.047          50.000 8  20879678.896    85498871.920        1162.598          47.000 7
> 2026  4 14  2 14  0.0000000  0  8
G02  22565379.959   118581899.143        2314.118          46.000 7                                                                
G08  22172173.435   116515558.571       -1282.077          44.000 7  22172173.384    90791355.669        -998.810          44.000 7
G10  20684551.668   108698054.031        -675.520          52.000 8  20684549.370    84699774.111        -526.324          47.000 7
G18  24326292.139   127835488.471       -3804.204          40.000 6  24326291.448    99612045.746       -2964.034          40.000 6
G23  21881702.705   114989114.684       -2581.087          46.000 7  21881699.431    89601893.813       -2011.189          45.000 7
G24  22910487.220   120395437.543       -1280.906          41.000 6  22910486.552    93814637.567        -997.869          40.000 6
G27  22615804.902   118846843.964       -3041.965          44.000 7  22615805.132    92607916.528       -2370.588          45.000 7
G32  20871203.670   109678946.273        1477.173          50.000 8  20871202.326    85464160.731        1151.019          46.000 7
> 2026  4 14  2 14 30.0000000  0  9
G02  22552188.812   118512578.416        2306.738          46.000 7                                                                
G08  22179540.204   116554270.170       -1299.334          45.000 7  22179540.123    90821520.547       -1012.590          44.000 7
G10  20688431.446   108718441.480        -684.332          51.000 8  20688429.056    84715660.441        -533.185          47.000 7
G18  24348020.127   127949667.413       -3808.387          40.000 6  24348018.406    99701016.346       -2967.333          38.000 6
G23  21896451.405   115066619.901       -2586.589          46.000 7  21896448.229    89662287.481       -2015.313          44.000 7
G24  22917856.117   120434161.385       -1301.314          41.000 6  22917855.231    93844811.986       -1013.817          41.000 6
G27  22633199.942   118938252.730       -3052.485          44.000 7  22633198.991    92679144.087       -2378.519          44.000 7
G28  25829144.522   135733068.002        3317.405          35.000 5                                                                
G32  20862810.255   109634839.690        1462.708          50.000 8  20862808.871    85429791.991        1139.795          47.000 7
> 2026  4 14  2 15  0.0000000  0  8
G02  22539047.086   118443519.679        2297.228          46.000 7                                                                
G08  22187012.719   116593537.775       -1318.530          45.000 7  22187012.944    90852118.658       -1027.583          45.000 7
G10  20692368.183   108739129.798        -694.861          51.000 8  20692365.850    84731781.206        -541.248          46.000 7
G18  24369777.068   128064001.076       -3814.110          41.000 6  24369775.250    99790107.551       -2971.973          37.000 6
G23  21911238.426   115144324.210       -2593.787          46.000 7  21911234.700    89722836.300       -2021.189          44.000 7
G24  22925348.240   120473532.792       -1323.567          41.000 6  22925347.364    93875491.036       -1031.536          41.000 6
G27  22650661.197   119030012.597       -3064.779          44.000 7  22650660.193    92750645.247       -2388.105          43.000 7
G32  20854507.010   109591205.434        1446.313          50.000 8  20854505.191    85395791.307        1126.947          47.000 7
> 2026  4 14  2 15 30.0000000  0  9
G02  22525953.388   118374711.874        2290.503          45.000 7                                                                
G08  22194588.452   116633346.716       -1335.000          44.000 7  22194587.914    90883138.590       -1040.279          45.000 7
G10  20696359.778   108760105.697        -702.966          51.000 8  20696357.536    84748126.068        -547.736          47.000 7
G18  24391560.755   128178474.802       -3817.059          41.000 6  24391559.408    99879307.802       -2974.065          40.000 6
G23  21926060.090   115222213.795       -2598.410          45.000 7  21926056.699    89783529.478       -2024.691          45.000 7
G24  22932960.785   120513537.656       -1342.883          41.000 6  22932959.968    93906663.630       -1046.338          40.000 6
G27  22668186.795   119122107.491       -3074.311          44.000 7  22668185.526    92822407.470       -2395.734          43.000 7
G28  25791218.657   135533763.505        3327.693          38.000 6  25791219.536   105610732.945        2592.418          35.000 5
G32  20846291.314   109548031.238        1432.440          51.000 8  20846289.326    85362149.094        1116.113          46.000 7
> 2026  4 14  2 16  0.0000000  0  9
G02  22512904.906   118306142.172        2281.124          46.000 7                                                                
G08  22202263.324   116673680.864       -1353.709          44.000 7  22202263.115    90914567.776       -1054.887          45.000 7
G10  20700403.148   108781354.378        -713.397          51.000 8  20700400.781    84764683.486        -555.878          47.000 7
G18  24413367.855   128293072.446       -3822.558          40.000 6  24413366.630    99968604.587       -2978.558          41.000 6
G23  21940914.361   115300273.418       -2605.484          45.000 7  21940910.859    89844355.145       -2030.034          44.000 7
G24  22940691.520   120554160.301       -1364.703          41.000 6  22940689.472    93938317.677       -1063.584          40.000 6
G27  22685772.028   119214519.879       -3086.187          44.000 7  22685770.953    92894417.098       -2404.896          43.000 7
G28  25772212.980   135433885.879        3331.458          40.000 6  25772214.089   105532906.237        2596.025          38.000 6
G32  20838160.233   109505303.307        1416.357          51.000 8  20838158.691    85328854.638        1103.674          47.000 7
> 2026  4 14  2 16 30.0000000  0  9
G02  22499903.494   118237818.983        2273.329          46.000 7                                                                
G08  22210039.771   116714545.039       -1371.085          44.000 7  22210039.653    90946409.963       -1068.333          45.000 7
G10  20704499.796   108802881.967        -722.296          51.000 8  20704497.547    84781458.228        -562.842          46.000 7
G18  24435199.530   128407798.805       -3826.360          41.000 6  24435198.619   100058001.637       -2981.674          38.000 6
G23  21955801.740   115378508.792       -2610.901          45.000 7  21955798.652    89905317.763       -2034.616          44.000 7
G24  22948539.884   120595406.092       -1385.100          41.000 6  22948538.830    93970457.252       -1079.297          40.000 6
G27  22703418.451   119307253.209       -3096.509          43.000 7  22703417.817    92966676.801       -2412.939          44.000 7
G28  25753179.103   135333862.785        3336.906          38.000 6  25753180.751   105454966.075        2600.169          36.000 6
G32  20830115.750   109463028.857        1401.568          51.000 8  20830114.102    85295913.534        1092.035          47.000 7
> 2026  4 14  2 17  0.0000000  0  9
G02  22486949.271   118169745.525        2265.225          45.000 7                                                                
G08  22217916.775   116755938.794       -1388.303          45.000 7  22217916.275    90978664.822       -1081.550          44.000 7
G10  20708649.546   108824689.449        -731.128          51.000 8  20708647.067    84798451.064        -569.702          46.000 7
G18  24457055.559   128522653.389       -3830.264          41.000 6  24457055.212   100147498.654       -2984.546          39.000 6
G23  21970723.007   115456920.385       -2616.185          45.000 7  21970719.679    89966417.704       -2038.801          44.000 7
G24  22956507.351   120637275.040       -1405.506          41.000 6  22956506.274    94003082.424       -1095.393          40.000 6
G27  22721125.580   119400305.656       -3106.567          43.000 7  22721125.093    93039185.148       -2420.836          43.000 7
G28                                                                  25734118.961   105376915.081        2603.735          36.000 6
G32  20822157.808   109421209.828        1386.768          50.000 8  20822156.463    85263327.306        1080.664          47.000 7
> 2026  4 14  2 17 30.0000000  0  9
G02  22474046.389   118101939.311        2255.911          46.000 7                                                                
G08  22225897.695   116797876.439       -1406.883          45.000 7  22225896.307    91011343.507       -1096.434          44.000 7
G10  20712855.464   108846792.522        -741.504          51.000 8  20712853.294    84815674.244        -577.899          47.000 7
G18  24478938.989   128637650.572       -3835.600          40.000 6  24478937.438   100237106.854       -2988.407          38.000 6
G23  21985680.798   115535523.439       -2623.248          45.000 7  21985677.707    90027666.817       -2044.143          45.000 7
G24  22964596.217   120679781.952       -1427.408          41.000 6  22964595.122    94036204.691       -1112.208          40.000 6
G27  22738895.990   119493690.152       -3118.096          43.000 7  22738895.123    93111952.237       -2429.719          42.000 7
G28  25715032.363   135133432.6731       3344.762          34.000 5  25715034.780   105298767.507        2606.630          40.000 6
G32  20814289.653   109379862.885        1370.551          51.000 8  20814288.033    85231108.945        1067.834          47.000 7
> 2026  4 14  2 18  0.0000000  0  9
G02  22460766.038   118032148.641        2247.060          46.000 7                                                                
G08  22234251.103   116841774.113       -1424.916          45.000 7  22234250.367    91045549.469       -1110.170          44.000 7
G10  20717259.505   108869935.146        -750.970          51.000 8  20717257.227    84833707.449        -585.242          47.000 7
G18  24501578.479   128756621.589       -3839.943          38.000 6  24501576.938   100329811.564       -2991.938          37.000 6
G23  22001173.585   115616939.518       -2629.177          45.000 7  22001170.323    90091107.892       -2048.567          45.000 7
G24  22973080.191   120724367.201       -1448.764          41.000 6  22973078.942    94070946.450       -1128.739          40.000 6
G27  22757323.326   119590525.620       -3128.871          43.000 7  22757321.986    93187408.419       -2438.148          42.000 7
G28  25695287.340   135029665.064        3349.712          32.000 5  25695288.416   105217909.606        2610.603          37.000 6
G32  20806252.328   109337626.939        1354.809          50.000 8  20806250.912    85198197.836        1055.847          47.000 7
> 2026  4 14  2 18 30.0000000  0 10
G01                                                                  25045916.126   102558828.967        2600.760          27.000 4
G02  22448384.426   117967085.549        2239.345          45.000 7                                                                
G08  22242157.588   116883324.940       -1441.258          45.000 7  22242157.262    91077926.729       -1123.138          44.000 7
G10  20721426.791   108891832.751        -759.674          51.000 8  20721424.365    84850770.505        -591.925          47.000 7
G18  24522775.074   128868014.577       -3842.593          35.000 5  24522775.193   100416611.213       -2994.651          39.000 6
G23  22015695.020   115693249.452       -2634.318          45.000 7  22015691.802    90150570.172       -2052.836          45.000 7
G24  22981127.044   120766653.119       -1468.191          41.000 6  22981126.310    94103896.518       -1143.674          40.000 6
G27  22774614.584   119681391.534       -3138.355          43.000 7  22774613.086    93258213.017       -2445.342          42.000 7
G28  25676786.199   134932440.134        3354.329          38.000 6  25676786.888   105142149.849        2614.296          35.000 5
G32  20798813.692   109298536.392        1340.454          51.000 8  20798812.324    85167737.706        1044.489          47.000 7
> 2026  4 14  2 19  0.0000000  0 10
G01                                                                  25026862.824   102480800.076        2600.768          32.000 5
G02  22435625.162   117900037.589        2230.978          45.000 7                                                                
G08  22250435.955   116926828.309       -1458.394          45.000 7  22250435.483    91111825.432       -1136.403          44.000 7
G10  20725790.433   108914765.316        -768.732          51.000 8  20725788.359    84868640.032        -599.109          47.000 7
G18  24544727.863   128983374.122       -3847.015          39.000 6  24544727.813   100506501.642       -2997.651          42.000 7
G23  22030750.802   115772366.826       -2639.528          45.000 7  22030747.363    90212220.058       -2056.953          45.000 7
G24  22989568.253   120811010.800       -1488.864          41.000 6  22989567.303    94138460.934       -1160.098          40.000 6
G27  22792559.963   119775698.273       -3148.341          43.000 7  22792559.277    93331698.755       -2453.224          42.000 7
G28  25657623.003   134831737.524        3358.647          34.000 5  25657623.867   105063680.280        2617.842          37.000 6
G32  20791205.454   109258554.121        1325.311          51.000 8  20791203.867    85136582.712        1032.751          47.000 7
> 2026  4 14  2 19 30.0000000  0 10
G01                                                                  25007808.497   102402776.544        2600.083          33.000 5
G02  22422915.753   117833246.736        2221.708          46.000 7                                                                
G08  22258813.091   116970851.027       -1476.360          45.000 7  22258812.805    91146128.823       -1150.134          44.000 7
G10  20730207.336   108937974.755        -778.699          51.000 8  20730204.822    84886725.295        -606.757          47.000 7
G18  24566703.611   129098851.966       -3851.478          42.000 7  24566702.462   100596484.257       -3001.010          41.000 6
G23  22045839.046   115851655.172       -2646.095          45.000 7  22045835.525    90274003.159       -2061.882          45.000 7
G24  22998126.185   120855983.798       -1509.987          41.000 6  22998125.336    94173504.830       -1176.429          40.000 6
G27  22810563.989   119870307.274       -3159.033          43.000 7  22810563.156    93405420.012       -2461.674          42.000 7
G28  25638434.902   134730902.675        3363.114          38.000 6  25638435.774   104985107.735        2620.471          40.000 6
G32  20783683.717   109219029.000        1309.436          51.000 8  20783682.582    85105783.945        1020.380          47.000 7
> 2026  4 14  2 20  0.0000000  0 10
G01  24988761.494   131316846.593        3335.807          34.000 5  24988761.096   102324781.197        2598.251          32.000 5
G02  22410260.888   117766743.077        2211.405          46.000 7                                                                
G08  22267294.302   117015419.082       -1495.062          44.000 7  22267293.477    91180857.182       -1164.950          44.000 7
G10  20734681.596   108961488.576        -789.270          51.000 8  20734679.389    84905047.759        -615.082          47.000 7
G18  24588705.268   129214474.221       -3856.985          40.000 6  24588704.847   100686579.495       -3005.615          42.000 7
G23  22060964.517   115931141.463       -2653.302          45.000 7  22060961.017    90335940.521       -2067.470          45.000 7
G24  23006806.623   120901598.498       -1531.466          41.000 6  23006805.066    94209048.781       -1193.600          39.000 6
G27  22828629.416   119965243.197       -3170.281          42.000 7  22828628.251    93479396.022       -2470.385          41.000 6
G28  25619227.657   134629965.709        3365.854          37.000 6  25619227.889   104906455.593        2622.657          39.000 6
G32  20776255.021   109179989.379        1292.743          51.000 8  20776253.449    85075363.484        1007.367          47.000 7
> 2026  4 14  2 20 30.0000000  0 10
G01  24969722.495   131216797.853        3334.735          35.000 5  24969721.958   102246821.277        2598.247          34.000 5
G02  22397661.500   117700535.914        2202.511          46.000 7                                                                
G08  22275879.802   117060538.290       -1512.442          44.000 7  22275879.714    91216015.013       -1178.778          44.000 7
G10  20739215.356   108985314.168        -798.602          51.000 8  20739213.081    84923613.148        -622.437          47.000 7
G18  24610736.072   129330247.007       -3860.964          39.000 6  24610735.328   100776792.039       -3008.563          39.000 6
G23  22076129.193   116010832.724       -2659.036          45.000 7  22076126.440    90398037.562       -2071.891          45.000 7
G24  23015610.118   120947861.218       -1552.021          41.000 6  23015608.696    94245097.665       -1209.584          39.000 6
G27  22846758.893   120060510.690       -3180.568          43.000 7  22846756.998    93553630.403       -2478.353          41.000 6
G28  25600001.695   134528936.726        3369.346          26.000 4  25600002.773   104827731.870        2625.669          37.000 6
G32  20768919.909   109141443.542        1277.301          51.000 8  20768918.372    85045327.791         995.422          47.000 7
> 2026  4 14  2 21  0.0000000  0 10
G01  24950690.112   131116780.686        3333.492          36.000 6  24950689.123   102168885.972        2597.331          35.000 5
G02  22385117.144   117634611.318        2193.343          46.000 7                                                                
G08  22284567.460   117106191.367       -1530.171          44.000 7  22284567.367    91251588.810       -1192.529          44.000 7
G10  20743805.759   109009435.741        -808.478          51.000 8  20743803.410    84942409.166        -629.944          46.000 7
G18  24632791.900   129446153.113       -3864.928          35.000 5  24632791.959   100867108.359       -3011.752          39.000 6
G23  22091329.972   116090712.606       -2665.212          45.000 7  22091326.635    90460281.631       -2077.025          44.000 7
G24  23024533.576   120994755.072       -1572.988          41.000 6  23024532.454    94281638.325       -1225.717          39.000 6
G27  22864947.217   120156091.067       -3190.647          43.000 7  22864946.256    93628108.593       -2486.179          42.000 7
G28  25580756.980   134427802.517        3373.309          38.000 6  25580757.429   104748926.000        2628.665          36.000 6
G32  20761676.063   109103376.568        1261.414          51.000 8  20761674.361    85015665.236         983.026          47.000 7
> 2026  4 14  2 21 30.0000000  0 10
G01  24931662.362   131016790.552        3333.442          36.000 6  24931661.827   102090971.683        2597.412          36.000 6
G02  22372624.377   117568965.259        2183.834          46.000 7                                                                
G08  22293355.016   117152370.360       -1547.508          44.000 7  22293354.818    91287572.399       -1205.778          44.000 7
G10  20748450.968   109033846.888        -817.847          51.000 8  20748448.577    84961430.853        -637.329          46.000 7
G18  24654871.815   129562184.682       -3869.954          36.000 6  24654871.500   100957522.534       -3014.977          40.000 6
G23  22106565.059   116170774.339       -2671.296          45.000 7  22106561.966    90522667.372       -2081.458          44.000 7
G24  23033575.839   121042272.550       -1593.913          41.000 6  23033574.466    94318664.947       -1242.198          40.000 6
G27  22883193.622   120251975.265       -3200.783          43.000 7  22883192.341    93702823.502       -2493.869          43.000 7
G28  25561491.000   134326559.536        3377.346          37.000 6  25561491.241   104670035.441        2631.755          41.000 6
G32  20754521.987   109065782.900        1245.734          51.000 8  20754520.482    84986371.507         970.660          47.000 7
> 2026  4 14  2 22  0.0000000  0 10
G01  24912637.770   130916817.328        3331.382          37.000 6  24912637.213   102013070.563        2596.208          36.000 6
G02  22360183.759   117503587.992        2174.260          46.000 7                                                                
G08  22302239.991   117199061.528       -1565.457          44.000 7  22302240.469    91323955.136       -1219.970          44.000 7
G10  20753148.962   109058535.578        -828.271          51.000 8  20753146.668    84980668.782        -645.300          46.000 7
G18  24676974.061   129678328.221       -3873.792          42.000 7  24676972.899   101048024.002       -3018.489          39.000 6
G23  22121832.754   116251005.385       -2677.870          44.000 7  22121829.348    90585185.059       -2086.899          44.000 7
G24  23042733.870   121090400.413       -1614.771          40.000 6  23042733.299    94356167.168       -1258.349          40.000 6
G27  22901494.358   120348148.303       -3211.104          42.000 7  22901493.306    93777763.490       -2502.053          42.000 7
G28  25542201.407   134225198.207        3379.811          36.000 6  25542202.576   104591052.760        2633.898          40.000 6
G32  20747456.024   109028651.302        1229.639          51.000 8  20747454.660    84957437.817         958.136          47.000 7
> 2026  4 14  2 22 30.0000000  0 10
G01  24893619.729   130816876.271        3331.362          38.000 6  24893618.161   101935194.530        2595.717          37.000 6
G02  22347797.194   117438495.039        2165.862          46.000 7                                                                
G08  22311225.230   117246276.715       -1582.116          44.000 7  22311225.144    91360746.163       -1232.818          45.000 7
G10  20757902.586   109083515.111        -836.932          51.000 8  20757900.123    85000133.356        -652.130          46.000 7
G18  24699098.752   129794595.694       -3876.962          43.000 7  24699098.075   101138622.028       -3021.229          40.000 6
G23  22137134.669   116331418.647       -2682.836          44.000 7  22137131.577    90647844.735       -2090.674          44.000 7
G24  23052011.236   121139150.797       -1634.459          41.000 6  23052009.874    94394154.492       -1274.052          39.000 6
G27  22919852.331   120444620.791       -3220.140          42.000 7  22919851.688    93852936.814       -2509.124          42.000 7
G28  25522894.311   134123734.561        3384.440          38.000 6  25522894.503   104511990.385        2637.102          35.000 5
G32  20740480.846   108991995.964        1214.618          51.000 8  20740479.477    84928875.241         946.454          47.000 7
> 2026  4 14  2 23  0.0000000  0 10
G01  24874605.965   130716958.004        3329.549          39.000 6  24874604.460   101857336.215        2594.292          38.000 6
G02  22335462.803   117373677.077        2155.012          46.000 7                                                                
G08  22320307.658   117294002.926       -1599.976          44.000 7  22320306.726    91397935.403       -1246.426          44.000 7
G10  20762709.131   109108774.232        -847.070          51.000 8  20762706.997    85019815.787        -660.187          46.000 7
G18  24721245.129   129910974.417       -3881.298          42.000 7  24721244.003   101229306.749       -3024.815          40.000 6
G23  22152469.440   116412002.431       -2689.625          45.000 7  22152466.188    90710637.273       -2095.814          44.000 7
G24  23061404.159   121188511.248       -1655.924          41.000 6  23061402.830    94432617.163       -1290.615          39.000 6
G27  22938265.170   120541378.595       -3230.336          43.000 7  22938264.112    93928332.465       -2517.337          42.000 7
G28  25503565.337   134022160.246        3387.048          38.000 6  25503565.517   104432841.569        2639.521          37.000 6
G32  20733594.362   108955806.375        1197.986          51.000 8  20733592.795    84900675.586         933.405          47.000 7
> 2026  4 14  2 23 30.0000000  0 10
G01  24855601.210   130617084.457        3328.244          40.000 6  24855599.052   101779512.693        2594.499          38.000 6
G02  22323184.476   117309156.155        2146.013          46.000 7                                                                
G08  22329489.937   117342258.583       -1617.173          44.000 7  22329489.477    91435537.198       -1260.060          44.000 7
G10  20767572.625   109134332.967        -856.702          51.000 8  20767570.272    85039731.682        -667.633          46.000 7
G18  24743415.719   130027483.029       -3885.533          40.000 6  24743415.502   101320092.610       -3027.618          41.000 6
G23  22167840.122   116492776.310       -2695.340          44.000 7  22167836.806    90773577.956       -2100.417          44.000 7
G24  23070917.025   121238500.525       -1676.459          41.000 6  23070915.432    94471569.827       -1306.588          39.000 6
G27  22956735.201   120638438.917       -3239.991          43.000 7  22956734.059    94003963.853       -2524.806          43.000 7
G28  25484218.174   133920497.752        3390.134          35.000 5  25484220.168   104353624.257        2641.928          39.000 6
G32  20726800.138   108920103.374        1182.257          51.000 8  20726798.587    84872855.084         921.204          47.000 7
> 2026  4 14  2 24  0.0000000  0 10
G01  24836601.820   130517241.776        3328.386          41.000 6  24836599.964   101701713.273        2593.799          39.000 6
G02  22310960.466   117244918.781        2137.149          46.000 7                                                                
G08  22338770.611   117391026.150       -1633.370          45.000 7  22338769.977    91473537.869       -1272.714          45.000 7
G10  20772490.557   109160175.459        -865.289          51.000 8  20772487.937    85059868.690        -674.316          46.000 7
G18  24765607.826   130144104.263       -3888.420          38.000 6  24765607.753   101410966.232       -3030.062          41.000 6
G23  22183243.759   116573723.975       -2700.401          44.000 7  22183240.966    90836654.050       -2104.521          44.000 7
G24  23080546.134   121289101.486       -1696.190          41.000 6  23080544.533    94510999.166       -1321.750          38.000 6
G27  22975259.263   120735783.102       -3248.698          44.000 7  22975258.189    94079816.428       -2531.362          43.000 7
G28  25464854.381   133818734.252        3394.356          41.000 6  25464854.936   104274328.194        2645.003          37.000 6
G32  20720095.650   108884871.806        1167.236          51.000 8  20720094.104    84845401.947         909.534          47.000 7
> 2026  4 14  2 24 30.0000000  0 10
G01  24817603.757   130417406.771        3327.351          41.000 6  24817601.688   101623919.815        2592.999          40.000 6
G02  22298786.263   117180941.731        2127.653          46.000 7                                                                
G08  22348142.567   117440278.792       -1650.367          44.000 7  22348142.295    91511916.552       -1286.005          45.000 7
G10  20777457.043   109186276.608        -874.768          51.000 8  20777454.965    85080207.251        -681.610          46.000 7
G18  24787815.838   130260811.519       -3892.158          35.000 5  24787816.199   101501906.877       -3032.949          40.000 6
G23  22198675.553   116654819.896       -2706.059          44.000 7  22198672.784    90899845.661       -2108.617          44.000 7
G24  23090286.288   121340287.779       -1716.538          41.000 6  23090284.749    94550884.583       -1337.579          39.000 6
G27  22993831.533   120833383.240       -3258.047          43.000 7  22993830.938    94155868.444       -2538.704          42.000 7
G28  25445466.241   133716847.280        3397.682          37.000 6  25445466.559   104194930.7741       2648.232          33.000 5
G32  20713476.257   108850087.397        1151.703          51.000 8  20713475.151    84818297.229         897.510          47.000 7
> 2026  4 14  2 25  0.0000000  0 10
G01  24798608.971   130317589.133        3326.250          41.000 6  24798607.234   101546139.893        2591.654          41.000 6
G02  22286663.397   117117235.055        2118.523          47.000 7                                                                
G08  22357607.824   117490022.573       -1666.826          44.000 7  22357608.267    91550677.938       -1299.181          45.000 7
G10  20782474.853   109212644.131        -883.929          51.000 8  20782472.736    85100753.365        -688.782          46.000 7
G18  24810042.301   130377611.192       -3895.715          37.000 6  24810042.317   101592919.527       -3035.326          38.000 6
G23  22214137.758   116736071.314       -2711.569          45.000 7  22214134.423    90963158.428       -2112.895          44.000 7
G24  23100139.073   121392065.766       -1736.345          40.000 6  23100138.016    94591231.070       -1352.846          39.000 6
G27  23012453.588   120931244.185       -3267.003          43.000 7  23012453.331    94232123.661       -2545.465          42.000 7
G28  25426055.998   133614847.270        3401.304          34.000 5  25426056.195   104115450.334        2650.493          37.000 6
G32  20706943.795   108815758.562        1136.115          51.000 8  20706942.313    84791547.520         885.205          47.000 7
> 2026  4 14  2 25 30.0000000  0 10
G01  24779623.434   130217820.098        3324.597          42.000 7  24779621.844   101468397.850        2590.228          41.000 6
G02  22274598.146   117053830.206        2108.034          47.000 7                                                                
G08  22367173.031   117540285.142       -1684.383          44.000 7  22367172.849    91589843.532       -1312.367          44.000 7
G10  20787548.908   109239307.391        -894.012          51.000 8  20787546.810    85121529.934        -696.802          46.000 7
G18  24832292.168   130494531.019       -3899.761          39.000 6  24832291.941   101684025.836       -3038.417          36.000 6
G23  22229634.660   116817507.170       -2717.998          45.000 7  22229631.304    91026614.952       -2117.984          44.000 7
G24  23110109.851   121444463.528       -1757.027          40.000 6  23110108.801    94632060.489       -1369.230          39.000 6
G27  23031131.069   121029392.451       -3276.709          44.000 7  23031130.603    94308602.799       -2553.476          42.000 7
G28  25406631.105   133512766.481        3403.621          41.000 6  25406630.628   104035907.031        2652.012          37.000 6
G32  20700503.632   108781915.360        1119.708          51.000 8  20700502.118    84765176.217         872.394          47.000 7
> 2026  4 14  2 26  0.0000000  0 10
G01  24760651.034   130118119.129        3322.584          41.000 6  24760649.216   101390708.825        2588.899          42.000 7
G02  22262593.888   116990746.736        2097.469          46.000 7                                                                
G08  22376839.221   117591082.123       -1701.962          44.000 7  22376839.215    91629425.578       -1326.152          44.000 7
G10  20792682.407   109266283.779        -904.187          51.000 8  20792680.044    85142550.500        -704.584          46.000 7
G18  24854567.213   130611587.076       -3903.746          41.000 6  24854566.502   101775238.418       -3042.611          38.000 6
G23  22245169.537   116899144.472       -2724.455          44.000 7  22245166.429    91090228.411       -2122.998          44.000 7
G24  23120202.247   121497497.076       -1778.076          40.000 6  23120201.053    94673385.325       -1385.761          39.000 6
G27  23049865.728   121127842.611       -3286.544          43.000 7  23049864.757    94385317.174       -2561.058          42.000 7
G28  25387193.008   133410625.054        3405.748          34.000 5  25387193.697   103956316.463        2653.653          30.000 5
G32  20694159.470   108748575.896        1103.192          51.000 8  20694157.785    84739197.432         859.589          47.000 7
> 2026  4 14  2 26 30.0000000  0 10
G01  24741688.838   130018472.092        3320.573          41.000 6  24741686.998   101313061.833        2587.622          42.000 7
G02  22250647.206   116927970.579        2087.285          46.000 7                                                                
G08  22386603.834   117642395.680       -1719.115          44.000 7  22386603.501    91669410.154       -1339.658          44.000 7
G10  20797872.010   109293557.222        -914.142          51.000 8  20797869.961    85163802.522        -712.335          46.000 7
G18  24876864.958   130728761.835       -3907.758          40.000 6  24876863.687   101866543.445       -3045.308          38.000 6
G23  22260739.790   116980966.698       -2730.572          44.000 7  22260736.752    91153985.966       -2127.488          44.000 7
G24  23130411.798   121551148.886       -1798.582          40.000 6  23130411.109    94715191.933       -1401.675          40.000 6
G27  23068654.169   121226575.747       -3295.715          43.000 7  23068652.769    94462252.069       -2568.128          42.000 7
G28  25367741.431   133308409.580        3408.394          36.000 6  25367743.185   103876668.135        2655.973          40.000 6
G32  20687908.142   108715724.790        1086.890          51.000 8  20687906.315    84713599.190         846.985          47.000 7
> 2026  4 14  2 27  0.0000000  0 10
G01  24722735.506   129918872.913        3318.950          40.000 6  24722733.974   101235452.182        2585.998          42.000 7
G02  22238758.947   116865496.006        2077.000          47.000 7                                                                
G08  22396465.459   117694215.980       -1736.137          45.000 7  22396464.693    91709789.573       -1352.656          44.000 7
G10  20803117.269   109321119.691        -923.975          51.000 8  20803114.776    85185279.765        -719.708          46.000 7
G18  24899183.409   130846045.852       -3911.700          37.000 6  24899182.876   101957933.513       -3047.713          39.000 6
G23  22276343.601   117062965.347       -2736.274          44.000 7  22276340.385    91217881.026       -2132.238          44.000 7
G24  23140736.805   121605409.558       -1818.752          38.000 6  23140736.037    94757472.956       -1417.468          39.000 6
G27  23087493.961   121325581.014       -3304.671          43.000 7  23087493.310    94539398.975       -2575.241          42.000 7
G28  25348276.004   133206115.061        3410.769          35.000 5  25348276.633   103796958.414        2657.318          37.000 6
G32  20681748.433   108683354.623        1070.866          51.000 8  20681746.412    84688375.706         834.398          47.000 7
> 2026  4 14  2 27 30.0000000  0 10
G01  24703788.044   129819303.348        3317.612          39.000 6  24703786.425   101157865.589        2585.062          42.000 7
G02  22226924.414   116803304.937        2067.325          47.000 7                                                                
G08  22406418.798   117746520.946       -1752.430          45.000 7  22406418.258    91750546.680       -1365.614          44.000 7
G10  20808413.093   109348950.902        -933.026          51.000 8  20808411.100    85206966.440        -727.032          46.000 7
G18  24921517.607   130963417.372       -3914.506          34.000 5  24921518.189   102049391.796       -3050.293          40.000 6
G23  22291977.163   117145119.706       -2741.860          44.000 7  22291973.884    91281897.413       -2136.522          44.000 7
G24  23151174.081   121660257.419       -1838.872          39.000 6  23151173.252    94800211.526       -1432.958          39.000 6
G27  23106381.831   121424835.253       -3313.470          43.000 7  23106380.403    94616739.878       -2581.883          42.000 7
G28  25328791.769   133103723.972        3413.630          42.000 7  25328791.333   103717173.165        2660.007          35.000 5
G32  20675676.230   108651445.823        1055.051          51.000 8  20675674.736    84663511.725         822.216          47.000 7
> 2026  4 14  2 28  0.0000000  0 10
G01  24684846.985   129719766.087        3317.909          39.000 6  24684845.009   101080304.154        2585.400          42.000 7
G02  22215143.691   116741399.977        2059.036          47.000 7                                                                
G08  22416463.961   117799309.510       -1767.211          45.000 7  22416463.829    91791680.600       -1377.184          44.000 7
G10  20813760.665   109377051.615        -940.771          50.000 8  20813758.453    85228863.094        -733.167          46.000 7
G18  24943869.002   131080914.7941      -3916.039          37.000 6  24943869.488   102140917.758       -3051.745          40.000 6
G23  22307639.875   117227430.117       -2745.856          44.000 7  22307637.182    91346035.363       -2139.634          44.000 7
G24  23161723.283   121715691.657       -1856.837          40.000 6  23161722.102    94843407.041       -1447.372          39.000 6
G27  23125315.836   121524336.342       -3320.299          43.000 7  23125314.758    94694273.145       -2587.545          42.000 7
G28  25309289.975   133001239.862        3418.195          38.000 6  25309289.396   103637315.505        2663.434          40.000 6
G32  20669692.125   108619999.741        1040.797          51.000 8  20669690.621    84639008.312         811.029          47.000 7
> 2026  4 14  2 28 30.0000000  0 10
G01  24665911.422   129620260.750        3316.546          38.000 6  24665909.763   101002767.636        2584.261          42.000 7
G02  22203418.859   116679780.965        2049.674          47.000 7                                                                
G08  22426600.778   117852577.485       -1783.123          44.000 7  22426600.830    91833188.072       -1389.448          44.000 7
G10  20819158.930   109405419.396        -949.591          51.000 8  20819156.689    85250967.853        -739.911          46.000 7
G18  24966236.980   131198456.089       -3919.024          39.000 6  24966236.509   102232508.327       -3054.033          38.000 6
G23  22323332.808   117309893.746       -2751.012          45.000 7  22323329.580    91410292.729       -2143.599          44.000 7
G24  23172382.696   121771708.418       -1876.507          40.000 6  23172381.476    94887056.440       -1461.900          39.000 6
G27  23144296.627   121624079.035       -3328.318          43.000 7  23144295.688    94771994.675       -2593.423          42.000 7
G28  25289769.325   132898662.897        3421.185          36.000 6  25289770.125   103557385.830        2666.013          38.000 6
G32  20663795.771   108589014.585        1025.590          51.000 8  20663794.368    84614864.061         799.199          47.000 7
> 2026  4 14  2 29  0.0000000  0 10
G01  24646980.058   129520776.432        3314.445          38.000 6  24646978.592   100925247.495        2582.898          41.000 6
G02  22191745.119   116618437.232        2039.297          46.000 7                                                                
G08  22436826.123   117906310.053       -1799.929          45.000 7  22436824.830    91875057.582       -1402.547          43.000 7
G10  20824605.517   109434041.397        -959.283          51.000 8  20824603.169    85273270.712        -747.491          46.000 7
G18  24988618.061   131316066.035       -3922.336          41.000 6  24988617.067   102324152.412       -3056.329          39.000 6
G23  22339051.511   117392497.245       -2756.782          44.000 7  22339048.007    91474659.087       -2147.958          44.000 7
G24  23183150.804   121828293.307       -1896.681          41.000 6  23183149.283    94931148.570       -1477.941          39.000 6
G27  23163320.178   121724047.610       -3336.949          43.000 7  23163318.710    94849892.229       -2600.031          42.000 7
G28  25270230.167   132795983.348        3423.162          37.000 6  25270229.864   103477375.830        2667.609          35.000 5
G32  20657984.999   108558478.082        1009.409          51.000 8  20657983.371    84591069.409         786.434          47.000 7
> 2026  4 14  2 29 30.0000000  0 10
G01  24628062.691   129421366.162        3313.149          39.000 6  24628061.348   100847785.052        2581.445          41.000 6
G02  22180133.520   116557421.673        2029.355          46.000 7                                                                
G08  22447149.018   117960556.391       -1816.113          45.000 7  22447147.426    91917327.442       -1415.169          44.000 7
G10  20830110.081   109462968.632        -968.561          51.000 8  20830107.953    85295811.422        -754.712          46.000 7
G18  25011020.624   131433794.103       -3925.550          39.000 6  25011020.475   102415888.531       -3059.001          40.000 6
G23  22354806.875   117475291.285       -2762.255          44.000 7  22354803.194    91539173.903       -2152.288          44.000 7
G24  23194036.152   121885495.835       -1916.468          41.000 6  23194035.196    94975721.971       -1493.290          40.000 6
G27  23182395.854   121824290.254       -3345.206          43.000 7  23182394.292    94928003.356       -2606.775          41.000 6
G28  25250681.382   132693254.854        3425.883          32.000 5  25250682.189   103397327.974        2669.638          40.000 6
G32  20652268.924   108528441.843         993.635          51.000 8  20652267.620    84567664.568         774.195          47.000 7
> 2026  4 14  2 30  0.0000000  0 10
G01  24609154.785   129322004.224        3310.951          39.000 6  24609153.164   100770360.248        2579.996          41.000 6
G02  22168581.371   116496708.993        2018.519          47.000 7                                                                
G08  22457563.133   118015286.811       -1832.736          44.000 7  22457562.524    91959974.503       -1428.067          44.000 7
G10  20835667.532   109492173.307        -978.772          51.000 8  20835665.571    85318568.315        -762.512          47.000 7
G18  25033441.006   131551611.110       -3929.278          40.000 6  25033440.337   102507693.976       -3061.641          37.000 6
G23  22370592.685   117558247.601       -2768.357          44.000 7  22370589.482    91603815.176       -2157.212          43.000 7
G24  23205033.204   121943286.600       -1936.462          41.000 6  23205032.208    95020753.727       -1508.975          40.000 6
G27  23201517.707   121924776.312       -3354.101          42.000 7  23201516.691    95006304.109       -2613.686          42.000 7
G28  25231117.904   132590452.647        3427.769          34.000 5  25231118.447   103317222.588        2670.471          40.000 6
G32  20646643.418   108498878.638         976.942          51.000 8  20646641.733    84544628.325         761.196          47.000 7
> 2026  4 14  2 30 30.0000000  0 10
G01  24590252.803   129222674.254        3309.964          40.000 6  24590251.224   100692960.311        2579.253          40.000 6
G02  22157082.265   116436282.695        2009.191          47.000 7                                                                
G08  22468066.073   118070481.047       -1847.545          43.000 7  22468065.945    92002982.980       -1439.968          45.000 7
G10  20841274.250   109521636.993        -986.511          51.000 8  20841271.984    85341527.045        -768.842          46.000 7
G18  25055873.437   131669497.253       -3931.064          37.000 6  25055872.866   102599553.327       -3063.077          37.000 6
G23  22386406.227   117641347.393       -2772.540          44.000 7  22386402.617    91668568.247       -2160.590          43.000 7
G24  23216138.455   122001645.638       -1954.676          40.000 6  23216137.410    95066228.334       -1523.187          39.000 6
G27  23220681.547   122025484.498       -3361.158          43.000 7  23220680.621    95084777.949       -2618.773          42.000 7
G28  25211539.057   132487561.212        3430.654          37.000 6  25211538.611   103237047.516        2673.266          38.000 6
G32  20641104.409   108469770.613         962.321          51.000 8  20641102.693    84521946.762         749.827          47.000 7
> 2026  4 14  2 31  0.0000000  0 10
G01  24571363.979   129123411.735        3307.731          41.000 6  24571361.626   100615612.984        2577.035          40.000 6
G02  22145644.396   116376178.354        1997.980          47.000 7                                                                
G08  22478663.817   118126170.678       -1864.715          44.000 7  22478663.807    92046377.444       -1453.065          45.000 7
G10  20846936.565   109551393.261        -996.881          51.000 8  20846934.429    85364713.749        -776.898          46.000 7
G18  25078325.943   131787484.457       -3934.319          36.000 6  25078325.001   102691491.444       -3066.029          38.000 6
G23  22402252.956   117724623.744       -2778.987          44.000 7  22402249.745    91733458.902       -2165.466          44.000 7
G24  23227357.465   122060604.947       -1975.357          39.000 6  23227357.325    95112170.623       -1539.270          40.000 6
G27  23239893.798   122126445.461       -3369.767          42.000 7  23239893.035    95163448.809       -2625.661          42.000 7
G28  25191947.969   132384616.693        3432.111          40.000 6  25191949.035   103156831.248        2674.364          41.000 6
G32  20635658.381   108441151.815         945.789          51.000 8  20635656.747    84499646.425         736.969          47.000 7
> 2026  4 14  2 31 30.0000000  0 10
G01  24552486.065   129024209.568        3307.397          41.000 6  24552483.855   100538312.612        2577.356          40.000 6
G02  22134267.233   116316389.023        1989.206          47.000 7                                                                
G08  22489353.383   118182344.428       -1879.025          44.000 7  22489352.811    92090149.184       -1464.086          44.000 7
G10  20852652.981   109581432.815       -1004.431          51.000 8  20852650.741    85388121.197        -782.727          46.000 7
G18  25100795.160   131905562.180       -3936.119          38.000 6  25100795.808   102783499.984       -3066.684          40.000 6
G23  22418131.666   117808066.982       -2782.678          44.000 7  22418128.313    91798479.584       -2168.457          43.000 7
G24  23238689.677   122120153.581       -1993.304          39.000 6  23238689.268    95158572.138       -1553.370          40.000 6
G27  23259152.129   122227647.092       -3375.723          42.000 7  23259150.987    95242307.158       -2630.611          42.000 7
G28  25172347.899   132281612.844        3435.847          38.000 6  25172348.276   103076568.694        2677.258          41.000 6
G32  20630303.885   108413013.502         931.412          51.000 8  20630302.234    84477720.488         725.767          47.000 7
> 2026  4 14  2 32  0.0000000  0 10
G01  24533608.581   128925007.738        3304.927          41.000 6  24533606.191   100461012.535        2575.343          40.000 6
G02  22122937.621   116256854.603        1978.370          46.000 7                                                                
G08  22500123.007   118238938.425       -1895.205          44.000 7  22500122.318    92134248.371       -1476.934          44.000 7
G10  20858411.278   109611693.681       -1014.246          50.000 8  20858409.131    85411701.094        -790.320          46.000 7
G18  25123269.123   132023666.883       -3939.169          37.000 6  25123270.098   102875529.561       -3069.416          39.000 6
G23  22434030.151   117891614.649       -2788.436          43.000 7  22434026.852    91863581.646       -2172.701          43.000 7
G24  23250121.506   122180227.853       -2013.255          40.000 6  23250121.074    95205383.246       -1568.817          40.000 6
G27  23278443.432   122329024.520       -3383.808          42.000 7  23278442.608    95321302.493       -2636.951          42.000 7
G28  25152724.276   132178490.487        3437.403          37.000 6  25152724.111   102996213.711        2678.742          40.000 6
G32  20625029.020   108385294.165         915.303          51.000 8  20625027.263    84456121.021         713.295          47.000 7
> 2026  4 14  2 32 30.0000000  0 10
G01  24514747.224   128825889.254        3302.423          41.000 6  24514744.594   100383777.402        2573.408          40.000 6
G02  22111673.590   116197658.205        1967.542          47.000 7                                                                
G08  22510987.383   118296031.557       -1911.370          44.000 7  22510986.627    92178736.540       -1489.402          44.000 7
G10  20864227.296   109642256.766       -1023.914          50.000 8  20864225.085    85435516.501        -797.931          46.000 7
G18  25145764.972   132141877.909       -3942.051          41.000 6  25145764.750   102967642.133       -3071.943          39.000 6
G23  22449964.067   117975347.315       -2794.316          43.000 7  22449960.706    91928827.862       -2177.427          43.000 7
G24  23261668.233   122240907.003       -2032.886          42.000 7  23261667.241    95252665.713       -1584.159          39.000 6
G27  23297783.284   122430655.822       -3392.050          42.000 7  23297781.704    95400495.682       -2643.046          41.000 6
G28  25133094.409   132075333.425        3438.857          39.000 6  25133093.578   102915831.783        2679.603          41.000 6
G32  20619849.521   108358075.231         898.944          51.000 8  20619847.528    84434911.499         700.266          47.000 7
> 2026  4 14  2 33  0.0000000  0 10
G01  24495893.506   128726812.261        3301.307          41.000 6  24495891.178   100306574.603        2572.522          40.000 6
G02  22100465.355   116138758.081        1957.782          47.000 7                                                                
G08  22521938.395   118353577.969       -1926.389          45.000 7  22521938.062    92223577.892       -1500.907          44.000 7
G10  20870092.481   109673078.185       -1032.080          51.000 8  20870090.202    85459533.197        -804.242          46.000 7
G18  25168271.233   132260150.033       -3944.069          38.000 6  25168270.659   103059802.214       -3073.213          38.000 6
G23  22465924.445   118059220.619       -2798.332          43.000 7  22465920.968    91994183.668       -2180.754          42.000 7
G24  23273321.666   122302145.502       -2051.019          40.000 6  23273320.288    95300384.017       -1598.292          39.000 6
G27  23317161.954   122532494.193       -3398.376          41.000 6  23317161.242    95479850.227       -2648.105          40.000 6
G28  25113448.143   131972100.627        3442.022          37.000 6  25113448.936   102835390.761        2681.952          38.000 6
G32  20614756.901   108331313.267         883.856          51.000 8  20614754.937    84414058.028         688.714          47.000 7
> 2026  4 14  2 33 30.0000000  0 10
G01  24477052.955   128627804.530        3299.095          40.000 6  24477050.532   100229425.771        2571.044          41.000 6
G02  22089318.709   116080182.022        1947.162          46.000 7                                                                
G08  22532979.631   118411601.295       -1942.012          44.000 7  22532979.419    92268790.846       -1513.167          44.000 7
G10  20876011.604   109704183.565       -1041.534          50.000 8  20876009.554    85483771.167        -811.493          46.000 7
G18  25190793.608   132378507.258       -3946.552          40.000 6  25190792.762   103152028.688       -3075.443          36.000 6
G23  22481916.970   118143259.836       -2804.012          43.000 7  22481913.334    92059668.751       -2185.182          43.000 7
G24  23285086.019   122363967.232       -2070.275          39.000 6  23285085.186    95348556.800       -1613.212          39.000 6
G27  23336585.398   122634562.444       -3406.048          42.000 7  23336584.474    95559383.852       -2654.019          41.000 6
G28  25093795.825   131868820.750        3443.578          40.000 6  25093794.877   102754913.044        2683.411          38.000 6
G32  20609756.188   108305034.351         867.852          51.000 8  20609754.190    84393580.979         676.139          47.000 7
> 2026  4 14  2 34  0.0000000  0 10
G01  24458223.305   128528855.935        3297.269          40.000 6  24458221.510   100152323.069        2569.173          42.000 7
G02  22078231.442   116021919.921        1936.669          46.000 7                                                                
G08  22544108.698   118470087.350       -1957.218          44.000 7  22544108.766    92314364.374       -1525.232          44.000 7
G10  20881982.502   109735560.797       -1050.647          51.000 8  20881980.293    85508220.965        -818.640          46.000 7
G18  25213329.584   132496936.072       -3948.786          40.000 6  25213329.285   103244310.892       -3077.188          39.000 6
G23  22497938.339   118227452.357       -2809.103          44.000 7  22497934.745    92125273.300       -2188.855          43.000 7
G24  23296958.714   122426358.333       -2088.914          41.000 6  23296957.298    95397173.245       -1628.093          39.000 6
G27  23356049.430   122736845.530       -3413.243          43.000 7  23356048.219    95639084.913       -2659.415          41.000 6
G28  25074132.008   131765484.526        3445.389          39.000 6  25074130.827   102674391.468        2684.706          40.000 6
G32  20604844.868   108279226.786         852.369          51.000 8  20604843.141    84373471.207         664.123          47.000 7
> 2026  4 14  2 34 30.0000000  0 10
G01  24439405.497   128429969.109        3295.848          40.000 6  24439404.001   100075268.493        2567.650          42.000 7
G02  22067204.491   115963974.303        1926.494          46.000 7                                                                
G08  22555326.069   118529034.585       -1972.163          43.000 7  22555326.536    92360297.256       -1536.774          44.000 7
G10  20888005.373   109767210.330       -1059.088          50.000 8  20888003.049    85532882.942        -825.232          46.000 7
G18  25235879.784   132615435.497       -3950.743          41.000 6  25235879.068   103336648.170       -3078.860          39.000 6
G23  22513988.551   118311798.270       -2813.634          43.000 7  22513985.643    92190997.363       -2192.401          43.000 7
G24  23308939.219   122489317.481       -2107.312          41.000 6  23308938.444    95446232.365       -1642.153          40.000 6
G27  23375553.629   122839341.054       -3419.548          42.000 7  23375553.432    95718951.493       -2664.443          42.000 7
G28  25054457.426   131662095.238        3447.564          38.000 6  25054455.984   102593828.502        2686.553          39.000 6
G32  20600023.960   108253891.458         837.067          51.000 8  20600022.168    84353729.411         652.215          47.000 7
> 2026  4 14  2 35  0.0000000  0 10
G01  24420597.856   128331133.581        3293.694          40.000 6  24420595.912    99998253.865        2566.287          43.000 7
G02  22056235.859   115906334.797        1916.153          46.000 7                                                                
G08  22566627.887   118588428.361       -1987.431          43.000 7  22566628.515    92406578.103       -1548.576          44.000 7
G10  20894077.489   109799119.605       -1068.292          50.000 8  20894075.208    85557747.317        -832.257          46.000 7
G18  25258440.006   132733991.508       -3952.873          38.000 6  25258439.193   103429029.507       -3080.099          37.000 6
G23  22530065.605   118396284.619       -2818.840          43.000 7  22530062.337    92256830.860       -2196.489          43.000 7
G24  23321025.642   122552830.427       -2126.390          41.000 6  23321024.518    95495722.957       -1657.152          39.000 6
G27  23395095.397   122942033.624       -3426.564          42.000 7  23395094.540    95798971.631       -2670.101          41.000 6
G28  25034771.486   131558643.386        3449.060          42.000 7  25034770.173   102513216.759        2687.374          40.000 6
G32  20595290.160   108229016.196         821.190          51.000 8  20595288.456    84334346.113         639.805          47.000 7
> 2026  4 14  2 35 30.0000000  0 10
G01  24401802.182   128232363.157        3290.974          39.000 6  24401800.343    99921289.964        2564.640          43.000 7
G02  22045328.757   115849015.187        1905.544          46.000 7                                                                
G08  22578017.890   118648278.342       -2002.262          44.000 7  22578017.486    92453214.430       -1560.369          44.000 7
G10  20900200.943   109831300.360       -1077.045          50.000 8  20900198.926    85582823.251        -839.362          46.000 7
G18  25281013.097   132852614.408       -3955.376          37.000 6  25281012.916   103521462.879       -3081.895          38.000 6
G23  22546172.005   118480922.685       -2823.699          43.000 7  22546168.882    92322782.567       -2200.337          43.000 7
G24  23333219.026   122616906.994       -2144.830          41.000 6  23333217.775    95545652.764       -1671.969          39.000 6
G27  23414676.557   123044932.053       -3433.337          42.000 7  23414675.539    95879152.159       -2675.274          41.000 6
G28  25015076.116   131455143.530        3450.677          41.000 6  25015074.470   102432567.622        2688.800          40.000 6
G32  20590646.471   108204613.116         805.565          51.000 8  20590644.668    84315330.752         627.642          47.000 7
> 2026  4 14  2 36  0.0000000  0 10
G01  24383020.823   128133666.209        3288.779          38.000 6  24383018.818    99844383.380        2562.495          44.000 7
G02  22034483.190   115792023.923        1894.487          46.000 7                                                                
G08  22589494.791   118708588.749       -2017.800          44.000 7  22589493.740    92500209.521       -1572.659          44.000 7
G10  20906377.907   109863758.892       -1086.328          51.000 8  20906375.605    85608115.623        -846.765          46.000 7
G18  25303599.417   132971308.962       -3957.610          34.000 5  25303599.402   103613952.121       -3083.672          37.000 6
G23  22562308.409   118565718.405       -2828.935          43.000 7  22562304.520    92388857.153       -2204.411          42.000 7
G24  23345520.507   122681551.725       -2164.234          41.000 6  23345519.213    95596025.253       -1686.363          40.000 6
G27  23434297.109   123148039.784       -3440.027          42.000 7  23434296.390    95959495.826       -2680.819          41.000 6
G28  24995372.815   131351604.834        3452.317          39.000 6  24995371.532   102351888.325        2689.857          39.000 6
G32  20586093.899   108180688.917         789.714          52.000 8  20586092.020    84296688.536         615.331          47.000 7
> 2026  4 14  2 36 30.0000000  0 10
G01  24364256.271   128035057.470        3285.242          40.000 6  24364254.207    99767545.498        2559.742          43.000 7
G02  22023703.040   115735375.440        1882.272          47.000 7                                                                
G08  22601060.700   118769369.998       -2034.040          44.000 7  22601060.484    92547571.515       -1584.991          44.000 7
G10  20912609.644   109896507.776       -1096.869          50.000 8  20912607.464    85633634.230        -854.700          46.000 7
G18  25326201.627   133090086.213       -3961.169          37.000 6  25326202.229   103706505.791       -3086.349          39.000 6
G23  22578476.654   118650683.878       -2835.372          43.000 7  22578473.407    92455063.990       -2209.387          43.000 7
G24  23357932.397   122746775.259       -2183.983          42.000 7  23357931.242    95646848.773       -1701.825          40.000 6
G27  23453959.390   123251366.516       -3447.924          42.000 7  23453958.702    96040010.094       -2686.960          40.000 6
G28  24975665.129   131248042.936        3452.112          39.000 6  24975664.941   102271190.858        2690.039          39.000 6
G32  20581634.912   108157256.503         772.642          52.000 8  20581633.051    84278429.528         602.080          47.000 7
> 2026  4 14  2 37  0.0000000  0 10
G01  24345499.767   127936490.957        3285.295          42.000 7  24345497.507    99690740.493        2559.976          43.000 7
G02  22012980.252   115679023.990        1873.791          47.000 7                                                                
G08  22612706.794   118830571.902       -2046.679          44.000 7  22612706.955    92595261.288       -1594.624          44.000 7
G10  20918887.474   109929498.871       -1103.235          50.000 8  20918885.248    85659341.583        -859.680          46.000 7
G18  25348811.039   133208896.589       -3960.508          37.000 6  25348811.260   103799085.320       -3086.187          40.000 6
G23  22594668.046   118735770.608       -2837.756          43.000 7  22594664.460    92521365.328       -2211.254          43.000 7
G24  23370444.690   122812527.682       -2200.014          42.000 7  23370443.193    95698084.434       -1714.280          41.000 6
G27  23473653.583   123354861.249       -3452.238          42.000 7  23473653.205    96120655.295       -2690.165          40.000 6
G28  24955944.629   131144412.549        3455.415          37.000 6  24955943.909   102190440.053        2693.025          37.000 6
G32  20577260.177   108134268.071         759.373          52.000 8  20577258.124    84260516.491         591.790          47.000 7
> 2026  4 14  2 37 30.0000000  0 10
G01  24326750.554   127837962.676        3283.213          43.000 7  24326748.113    99613965.249        2558.458          42.000 7
G02  22002312.614   115622965.379        1863.312          48.000 8                                                                
G08  22624431.658   118892186.144       -2060.961          44.000 7  22624431.652    92643272.382       -1606.036          44.000 7
G10  20925210.572   109962726.079       -1112.109          51.000 8  20925208.352    85685232.919        -866.559          46.000 7
G18  25371424.310   133327732.461       -3962.039          38.000 6  25371424.698   103891684.720       -3087.309          38.000 6
G23  22610881.214   118820972.055       -2842.272          44.000 7  22610878.078    92587756.068       -2214.868          43.000 7
G24  23383056.001   122878800.951       -2218.252          41.000 6  23383054.754    95749725.919       -1728.439          41.000 6
G27  23493378.817   123458514.989       -3458.121          42.000 7  23493377.921    96201424.359       -2694.604          41.000 6
G28  24936209.697   131040710.504        3457.492          39.000 6  24936210.002   102109633.498        2694.327          38.000 6
G32  20572969.233   108111717.808         743.960          51.000 8  20572966.953    84242944.868         579.744          47.000 7
> 2026  4 14  2 38  0.0000000  0 10
G01  24308016.459   127739514.015        3280.473          44.000 7  24308013.909    99537252.040        2556.289          42.000 7
G02  21991708.855   115567240.850        1852.147          47.000 7                                                                
G08  22636241.992   118954249.834       -2076.003          44.000 7  22636241.306    92691633.674       -1617.507          43.000 7
G10  20931586.153   109996228.584       -1121.063          51.000 8  20931583.618    85711338.761        -873.431          46.000 7
G18  25394050.246   133446631.672       -3963.879          39.000 6  25394050.443   103984333.428       -3088.665          36.000 6
G23  22627123.943   118906327.045       -2847.506          44.000 7  22627120.795    92654266.430       -2218.886          43.000 7
G24  23395773.434   122945632.360       -2236.571          41.000 6  23395772.520    95801802.325       -1742.723          41.000 6
G27  23513140.877   123562364.023       -3464.390          42.000 7  23513139.865    96282345.676       -2699.831          41.000 6
G28  24916470.838   130936978.980        3458.561          39.000 6  24916471.060   102028803.976        2694.812          40.000 6
G32  20568768.734   108089645.244         728.193          51.000 8  20568766.566    84225745.486         567.451          47.000 7
> 2026  4 14  2 38 30.0000000  0 10
G01  24289299.109   127641153.853        3276.391          43.000 7  24289296.256    99460607.800        2552.708          41.000 6
G02  21981170.060   115511859.374        1839.604          47.000 7                                                                
G08  22648138.222   119016767.571       -2092.104          43.000 7  22648137.657    92740348.802       -1630.500          43.000 7
G10  20938015.065   110030013.192       -1131.714          50.000 8  20938012.575    85737664.439        -881.952          46.000 7
G18  25416689.797   133565599.581       -3967.600          38.000 6  25416689.626   104077035.720       -3091.571          39.000 6
G23  22643397.085   118991841.942       -2853.855          44.000 7  22643393.572    92720901.405       -2223.841          43.000 7
G24  23408598.302   123013026.798       -2256.514          40.000 6  23408597.217    95854317.468       -1758.425          41.000 6
G27  23532940.357   123666412.282       -3472.385          42.000 7  23532940.156    96363422.194       -2705.776          42.000 7
G28  24896726.982   130833227.707        3457.941          37.000 6  24896726.690   101947958.988        2694.226          37.000 6
G32  20564660.572   108068057.452         710.740          51.000 8  20564658.517    84208923.849         553.837          47.000 7
> 2026  4 14  2 39  0.0000000  0 10
G01  24270600.113   127542890.967        3274.236          42.000 7  24270597.412    99384039.341        2551.593          40.000 6
G02  21970697.387   115456829.570        1829.174          47.000 7                                                                
G08  22660123.086   119079743.781       -2105.974          44.000 7  22660121.921    92789421.150       -1641.377          43.000 7
G10  20944498.849   110064086.474       -1139.813          50.000 8  20944496.463    85764215.050        -888.269          46.000 7
G18  25439342.290   133684641.229       -3968.994          37.000 6  25439342.111   104169795.527       -3092.441          39.000 6
G23  22659701.869   119077522.918       -2858.176          45.000 7  22659698.239    92787665.799       -2226.956          43.000 7
G24  23421530.640   123080988.853       -2273.643          39.000 6  23421529.779    95907274.931       -1772.228          41.000 6
G27  23552778.919   123770663.501       -3477.744          43.000 7  23552778.619    96444656.811       -2709.779          41.000 6
G28  24876982.501   130729466.289        3459.916          37.000 6  24876982.173   101867106.113        2695.900          40.000 6
G32  20560646.296   108046961.264         695.805          52.000 8  20560644.145    84192485.278         542.118          47.000 7
> 2026  4 14  2 39 30.0000000  0 10
G01  24251914.212   127444697.012        3270.752          40.000 6  24251911.592    99307524.630        2548.527          40.000 6
G02  21960288.056   115402123.027        1816.801          48.000 8                                                                
G08  22672187.911   119143145.778       -2121.761          44.000 7  22672187.376    92838825.277       -1653.376          43.000 7
G10  20951031.850   110098418.012       -1150.092          50.000 8  20951029.695    85790966.891        -896.124          46.000 7
G18  25462002.918   133803724.763       -3971.716          36.000 6  25462002.874   104262587.936       -3094.579          38.000 6
G23  22676032.066   119163339.106       -2864.083          44.000 7  22676028.537    92854535.564       -2231.752          43.000 7
G24  23434565.118   123149486.259       -2293.432          38.000 6  23434564.527    95960649.461       -1787.018          41.000 6
G27  23572649.360   123875084.332       -3484.938          42.000 7  23572648.884    96526023.661       -2715.598          41.000 6
G28  24857230.606   130625667.088        3459.472          41.000 6  24857228.360   101786223.739        2695.813          36.000 6
G32  20556719.616   108026326.506         678.918          52.000 8  20556717.583    84176406.265         528.991          47.000 7
> 2026  4 14  2 40  0.0000000  0 10
G01  24233251.141   127346624.285        3267.020          39.000 6  24233248.879    99231104.390        2545.344          39.000 6
G02  21949949.122   115347791.766        1804.641          47.000 7                                                                
G08  22684343.078   119207021.411       -2137.073          44.000 7  22684342.785    92888598.476       -1665.319          43.000 7
G10  20957623.956   110133057.806       -1160.052          51.000 8  20957621.419    85817958.935        -904.010          46.000 7
G18  25484680.932   133922898.720       -3974.062          33.000 5  25484681.222   104355450.714       -3096.848          38.000 6
G23  22692397.320   119249340.159       -2869.921          44.000 7  22692394.361    92921549.379       -2236.446          43.000 7
G24  23447710.876   123218566.885       -2312.804          38.000 6  23447710.272    96014478.508       -1802.004          41.000 6
G27  23592561.359   123979721.968       -3491.765          42.000 7  23592560.637    96607559.447       -2720.808          41.000 6
G28  24837480.335   130521883.191        3459.135          37.000 6  24837479.912   101705353.490        2695.299          38.000 6
G32  20552890.266   108006203.450         662.057          52.000 8  20552888.257    84160725.984         515.816          47.000 7
> 2026  4 14  2 40 30.0000000  0 10
G01  24214606.663   127248648.099        3265.295          38.000 6  24214604.069    99154759.345        2543.845          38.000 6
G02  21939676.278   115293811.357        1794.295          47.000 7                                                                
G08  22696582.791   119271341.631       -2150.450          44.000 7  22696582.710    92938718.113       -1676.072          44.000 7
G10  20964269.062   110167979.062       -1168.011          51.000 8  20964266.632    85845170.304        -910.138          46.000 7
G18  25507371.099   134042134.870       -3974.851          34.000 5  25507371.338   104448362.063       -3097.324          40.000 6
G23  22708793.125   119335498.875       -2873.730          44.000 7  22708789.613    92988686.028       -2239.207          43.000 7
G24  23460962.044   123288201.938       -2329.780          39.000 6  23460961.539    96068739.559       -1814.994          41.000 6
G27  23612509.020   124084546.642       -3496.338          42.000 7  23612508.867    96689240.939       -2724.488          42.000 7
G28  24817730.090   130418090.816        3460.383          38.000 6  24817727.985   101624476.377        2696.165          37.000 6
G32  20549153.153   107986565.477         647.320          52.000 8  20549151.196    84145423.683         504.381          47.000 7
> 2026  4 14  2 41  0.0000000  0 10
G01  24195978.311   127150755.738        3261.522          38.000 6  24195976.132    99078479.631        2541.989          40.000 6
G02  21929468.743   115240168.723        1782.784          47.000 7                                                                
G08  22708904.196   119336089.288       -2165.015          44.000 7  22708903.565    92989170.807       -1687.157          43.000 7
G10  20970965.151   110203166.863       -1177.228          51.000 8  20970962.584    85872589.380        -917.261          46.000 7
G18  25530069.434   134161416.912       -3976.608          34.000 5  25530069.612   104541309.074       -3098.355          37.000 6
G23  22725215.175   119421799.909       -2878.584          43.000 7  22725212.469    93055933.594       -2243.338          43.000 7
G24  23474315.936   123358374.515       -2348.169          39.000 6  23474314.390    96123419.476       -1829.402          40.000 6
G27  23632488.950   124189540.631       -3502.322          43.000 7  23632488.371    96771054.382       -2729.091          41.000 6
G28  24797974.184   130314277.794        3461.099          41.000 6  24797973.355   101543583.365        2696.898          38.000 6
G32  20545505.595   107967397.906         631.387          51.000 8  20545503.880    84130487.931         492.026          47.000 7
> 2026  4 14  2 41 30.0000000  0 10
G01  24177371.355   127052973.983        3257.164          40.000 6  24177369.282    99002286.180        2538.040          42.000 7
G02  21919330.051   115186890.454        1769.716          47.000 7                                                                
G08  22721310.976   119401286.766       -2181.065          44.000 7  22721310.166    93039974.008       -1699.584          43.000 7
G10  20977716.556   110238645.837       -1187.677          51.000 8  20977714.193    85900235.320        -925.427          46.000 7
G18  25552779.835   134280768.463       -3979.708          33.000 5  25552780.689   104634310.302       -3100.848          36.000 6
G23  22741669.252   119508267.552       -2885.536          43.000 7  22741666.779    93123310.957       -2248.243          43.000 7
G24  23487775.551   123429107.207       -2367.712          39.000 6  23487774.691    96178535.849       -1844.741          40.000 6
G27  23652504.767   124294725.676       -3509.528          42.000 7  23652504.556    96853016.691       -2734.668          41.000 6
G28  24778219.930   130210471.896        3459.676          37.000 6  24778219.106   101462695.792        2695.939          41.000 6
G32  20541952.497   107948725.559         613.847          52.000 8  20541950.507    84115938.070         478.455          47.000 7
> 2026  4 14  2 42  0.0000000  0 10
G01  24158789.014   126955321.229        3254.153          41.000 6  24158786.869    98926193.206        2535.693          43.000 7
G02  21909264.372   115133994.961        1757.872          47.000 7                                                                
G08  22733805.974   119466947.885       -2195.636          45.000 7  22733805.000    93091138.512       -1710.908          43.000 7
G10  20984526.515   110274432.136       -1197.144          51.000 8  20984523.992    85928120.749        -932.819          46.000 7
G18  25575508.778   134400203.783       -3981.711          36.000 6  25575508.482   104727376.818       -3102.192          36.000 6
G23  22758157.971   119594917.443       -2890.509          42.000 7  22758155.252    93190830.341       -2252.131          43.000 7
G24  23501344.263   123500414.087       -2385.678          38.000 6  23501343.674    96234099.646       -1858.888          39.000 6
G27  23672559.383   124400115.046       -3515.368          41.000 6  23672559.398    96935138.204       -2739.185          41.000 6
G28  24758472.416   130106692.336        3459.629          39.000 6  24758470.918   101381828.775        2695.903          41.000 6
G32  20538496.601   107930564.696         597.857          52.000 8  20538494.598    84101786.764         465.906          47.000 7
> 2026  4 14  2 42 30.0000000  0 10
G01  24140225.813   126857768.789        3249.666          42.000 7  24140223.144    98850178.403        2532.209          43.000 7
G02  21899266.262   115081453.122        1744.951          48.000 8                                                                
G08  22746382.285   119533039.529       -2210.607          43.000 7  22746381.700    93142638.459       -1722.648          43.000 7
G10  20991389.060   110310494.809       -1207.095          51.000 8  20991386.517    85956221.523        -940.492          46.000 7
G18  25598246.448   134519690.993       -3984.270          38.000 6  25598246.715   104820483.891       -3104.887          38.000 6
G23  22774675.364   119681718.321       -2896.149          41.000 6  22774672.666    93258467.402       -2256.799          43.000 7
G24  23515016.875   123572262.128       -2404.461          39.000 6  23515015.721    96290085.127       -1873.439          38.000 6
G27  23692646.881   124505674.946       -3521.881          41.000 6  23692646.946    97017392.622       -2744.366          41.000 6
G28  24738722.692   130002910.989        3458.705          42.000 7  24738721.169   101300960.341        2695.192          40.000 6
G32  20535132.005   107912884.605         580.931          52.000 8  20535130.326    84088010.091         452.716          47.000 7
> 2026  4 14  2 43  0.0000000  0 10
G01  24121680.956   126760317.161        3247.515          42.000 7  24121678.289    98774242.162        2530.359          42.000 7
G02  21889335.008   115029265.419        1734.357          47.000 7                                                                
G08  22759040.367   119599557.758       -2223.547          44.000 7  22759039.581    93194470.815       -1732.768          43.000 7
G10  20998303.850   110346832.298       -1215.097          51.000 8  20998301.333    85984536.464        -946.925          46.000 7
G18  25620993.940   134639227.085       -3984.812          38.000 6  25620993.336   104913628.882       -3104.618          37.000 6
G23  22791221.454   119768668.157       -2899.953          41.000 6  22791219.096    93326220.513       -2259.757          43.000 7
G24  23528791.409   123644647.637       -2421.033          40.000 6  23528790.192    96346489.411       -1886.257          37.000 6
G27  23712765.882   124611400.919       -3526.172          41.000 6  23712765.726    97099776.416       -2747.675          41.000 6
G28  24718973.606   129899129.373        3459.871          39.000 6  24718972.487   101220091.676        2696.129          41.000 6
G32  20531858.874   107895683.795         566.188          51.000 8  20531857.049    84074606.880         441.212          47.000 7
> 2026  4 14  2 43 30.0000000  0 10
G01  24103153.739   126662956.651        3242.921          42.000 7  24103151.109    98698376.867        2527.146          42.000 7
G02  21879469.926   114977421.807        1721.628          47.000 7                                                                
G08  22771777.265   119666488.243       -2238.367          44.000 7  22771775.930    93246624.428       -1744.124          43.000 7
G10  21005268.467   110383432.561       -1225.116          51.000 8  21005266.317    86013056.145        -954.903          46.000 7
G18  25643747.446   134758798.143       -3986.837          35.000 5  25643744.442                       -3111.810          24.000 4
G23  22807793.731   119855754.565       -2905.913          42.000 7  22807791.018    93394080.015       -2264.297          43.000 7
G24  23542665.692   123717556.489       -2439.670          41.000 6  23542664.319    96403301.513       -1900.943          38.000 6
G27  23732914.285   124717278.028       -3532.562          42.000 7  23732913.563    97182277.997       -2752.551          41.000 6
G28  24699223.006   129795338.422        3459.157          42.000 7  24699221.010   101139215.780        2695.570          38.000 6
G32  20528674.536   107878950.392         549.282          52.000 8  20528672.558    84061567.886         428.056          47.000 7
> 2026  4 14  2 44  0.0000000  0 10
G01  24084649.406   126565717.049        3239.323          41.000 6  24084646.858    98622605.832        2524.356          42.000 7
G02  21869675.224   114925952.088        1709.281          47.000 7                                                                
G08  22784596.696   119733856.361       -2252.982          43.000 7  22784596.077    93299119.040       -1755.413          43.000 7
G10  21012288.782   110420323.236       -1234.625          51.000 8  21012286.120    86041802.109        -961.979          46.000 7
G18  25666513.217   134878431.028       -3988.987          39.000 6  25666512.039   105100074.7291      -3108.641          35.000 5
G23  22824396.921   119943004.783       -2911.198          42.000 7  22824394.335    93462067.183       -2268.378          43.000 7
G24  23556644.189   123791014.195       -2458.080          42.000 7  23556642.770    96460541.315       -1915.223          37.000 6
G27  23753095.658   124823331.064       -3537.921          43.000 7  23753094.909    97264916.692       -2757.184          41.000 6
G28  24679476.038   129691568.799        3458.530          39.000 6  24679475.368   101058356.452        2694.752          42.000 7
G32  20525584.707   107862712.163         532.927          52.000 8  20525582.529    84048914.733         415.288          47.000 7
> 2026  4 14  2 44 30.0000000  0 10
G01  24066169.830   126468606.671        3235.052          40.000 6  24066167.132    98546935.500        2520.743          42.000 7
G02  21859953.197   114874864.254        1696.654          47.000 7                                                                
G08  22797499.840   119801665.800       -2267.380          43.000 7  22797499.887    93351957.532       -1766.754          43.000 7
G10  21019365.103   110457510.397       -1244.389          51.000 8  21019362.594    86070779.119        -969.495          46.000 7
G18  25689291.013   134998129.683       -3990.834          34.000 5  25689289.730   105193346.601       -3109.635          26.000 4
G23  22841032.252   120030424.471       -2916.574          42.000 7  22841029.544    93530186.401       -2272.763          43.000 7
G24  23570728.099   123865024.670       -2476.091          42.000 7  23570726.665    96518211.820       -1929.146          37.000 6
G27  23773310.852   124929563.288       -3543.945          42.000 7  23773310.087    97347694.986       -2761.511          41.000 6
G28  24659735.870   129587829.730        3457.648          41.000 6  24659733.540   100977520.944        2694.094          40.000 6
G32  20522590.003   107846975.241         516.397          52.000 8  20522587.782    84036652.218         402.396          47.000 7
> 2026  4 14  2 45  0.0000000  0 10
G01  24047711.378   126371606.910        3230.985          42.000 7  24047708.307    98471351.360        2517.512          42.000 7
G02  21850300.795   114824139.434        1684.282          47.000 7                                                                
G08  22810483.017   119869893.358       -2281.701          43.000 7  22810482.844    93405121.837       -1777.765          43.000 7
G10  21026494.075   110494973.219       -1253.832          51.000 8  21026491.720    86099970.932        -976.952          46.000 7
G18  25712077.115   135117873.340       -3992.764          42.000 7  25712076.743   105286653.386       -3111.226          38.000 6
G23  22857696.294   120117992.363       -2921.980          44.000 7  22857692.879    93598421.100       -2276.750          42.000 7
G24  23584912.624   123939564.899       -2493.895          42.000 7  23584910.973    96576295.149       -1943.359          37.000 6
G27  23793555.501   125035950.922       -3549.164          41.000 6  23793555.012    97430594.347       -2765.765          41.000 6
G28  24639996.726   129484103.100        3456.508          42.000 7  24639995.984   100896695.126        2693.732          44.000 7
G32  20519686.792   107831718.813         500.178          52.000 8  20519684.612    84024764.109         389.698          47.000 7
> 2026  4 14  2 45 30.0000000  0 10
G01  24029279.321   126274743.769        3227.307          42.000 7  24029275.843    98395873.641        2514.873          41.000 6
G02  21840721.620   114773803.628        1672.308          46.000 7                                                                
G08  22823549.847   119938560.424       -2295.460          42.000 7  22823550.265    93458628.601       -1788.449          43.000 7
G10  21033679.956   110532735.384       -1262.872          51.000 8  21033677.619    86129395.991        -984.001          46.000 7
G18  25734876.042   135237682.884       -3993.815          33.000 5  25734875.384   105380011.507       -3111.831          32.000 5
G23  22874392.754   120205731.776       -2926.600          44.000 7  22874389.520    93666789.472       -2280.256          42.000 7
G24  23599202.098   124014656.368       -2511.338          42.000 7  23599200.370    96634808.033       -1956.992          38.000 6
G27  23813834.088   125142514.794       -3554.144          41.000 6  23813833.283    97513631.087       -2769.342          40.000 6
G28  24620265.090   129380415.849        3456.210          38.000 6  24620263.189   100815900.043        2693.399          38.000 6
G32  20516879.652   107816966.734         484.256          52.000 8  20516877.435    84013269.004         377.298          47.000 7
> 2026  4 14  2 46  0.0000000  0 10
G01  24010868.580   126177995.071        3223.235          41.000 6  24010865.236    98320485.092        2511.599          41.000 6
G02  21831212.914   114723834.377        1659.576          47.000 7                                                                
G08  22836695.516   120007640.212       -2309.384          43.000 7  22836695.623    93512456.969       -1799.430          43.000 7
G10  21040918.176   110570772.493       -1272.256          51.000 8  21040915.788    86159035.304        -991.461          46.000 7
G18                                                                  25757682.294                       -3109.943          20.000 3
G23  22891116.837   120293617.962       -2931.935          44.000 7  22891113.511    93735272.216       -2284.689          42.000 7
G24  23613591.443   124090272.512       -2529.220          42.000 7  23613589.921    96693729.707       -1970.895          38.000 6
G27  23834140.530   125249227.690       -3559.485          41.000 6  23834140.453    97596783.932       -2773.486          41.000 6
G28  24600538.294   129276746.581        3455.626          37.000 6  24600537.299   100735118.869        2692.541          41.000 6
G32  20514163.594   107802694.575         467.939          52.000 8  20514161.381    84002147.860         364.625          47.000 7
> 2026  4 14  2 46 30.0000000  0 10
G01  23992477.869   126081353.332        3219.424          40.000 6  23992474.937    98245179.938        2508.714          42.000 7
G02  21821773.108   114674224.039        1647.508          47.000 7                                                                
G08  22849917.941   120077120.616       -2322.627          44.000 7  22849917.552    93566597.522       -1809.958          43.000 7
G10  21048206.694   110609074.845       -1281.259          50.000 8  21048204.696    86188881.301        -998.497          46.000 7
G18  25780494.980   135477420.3981      -3997.043          30.000 5  25780497.815   105566830.2281      -3114.220          28.000 4
G23  22907866.912   120381640.816       -2936.504          43.000 7  22907863.578    93803861.437       -2288.351          42.000 7
G24  23628078.189   124166401.390       -2546.249          40.000 6  23628077.179    96753050.937       -1984.261          39.000 6
G27  23854473.269   125356077.050       -3564.441          40.000 6  23854473.474    97680043.085       -2777.106          41.000 6
G28  24580812.996   129173088.506        3454.690          41.000 6  24580808.784   100654346.379        2692.067          38.000 6
G32  20511537.045   107788892.721         452.091          52.000 8  20511535.067    83991393.187         352.164          47.000 7
> 2026  4 14  2 47  0.0000000  0  9
G01  23974111.272   125984837.765        3216.138          41.000 6  23974108.322    98169973.100        2506.128          42.000 7
G02  21812403.786   114624991.136        1635.841          47.000 7                                                                
G08  22863218.094   120147016.186       -2335.815          43.000 7  22863218.246    93621061.585       -1820.125          43.000 7
G10  21055549.268   110647659.380       -1289.916          50.000 8  21055546.833    86218947.169       -1005.205          46.000 7
G23  22924646.127   120469816.845       -2940.772          43.000 7  22924643.004    93872569.996       -2291.420          42.000 7
G24  23642665.325   124243057.690       -2562.618          39.000 6  23642664.370    96812783.117       -1997.094          40.000 6
G27  23874834.631   125463076.894       -3568.262          41.000 6  23874834.918    97763419.520       -2780.390          41.000 6
G28  24561092.601   129069461.536        3454.714          40.000 6  24561091.602   100573598.401        2691.964          40.000 6
G32  20509003.186   107775578.053         436.786          52.000 8  20509001.470    83981018.135         340.332          48.000 8
> 2026  4 14  2 47 30.0000000  0  9
G01  23955762.871   125888416.138        3211.798          41.000 6  23955759.708    98094839.454        2502.667          41.000 6
G02  21803101.458   114576103.493        1623.238          48.000 8                                                                
G08  22876590.453   120217289.956       -2349.299          43.000 7  22876591.263    93675820.334       -1830.472          44.000 7
G10  21062938.832   110686491.541       -1299.162          50.000 8  21062936.262    86249206.000       -1012.443          46.000 7
G23  22941447.975   120558111.090       -2945.606          43.000 7  22941444.408    93941370.704       -2295.114          41.000 6
G24  23657345.799   124320204.622       -2580.059          39.000 6  23657344.828    96872897.600       -2010.813          40.000 6
G27  23895217.907   125570189.846       -3572.760          41.000 6  23895217.767    97846884.095       -2784.155          41.000 6
G28  24541370.920   128965834.286        3454.027          40.000 6  24541370.426   100492849.952        2691.066          40.000 6
G32  20506555.994   107762716.067         420.610          52.000 8  20506554.027    83970995.819         327.788          48.000 8
