     2.12           OBSERVATION DATA    G (GPS)             RINEX VERSION / TYPE
RinexPrep v0.1      UNKNOWN             20260417 16:21:06   PGM / RUN BY / DATE 
UNKNOWN                                                     MARKER NAME         
UNKNOWN                                                     MARKER NUMBER       
UNKNOWN             UNKNOWN                                 OBSERVER / AGENCY   
                    UNKNOWN                                 REC # / TYPE / VERS 
                    UNKNOWN NONE                            ANT # / TYPE        
        0.0000        0.0000        0.0000                  APPROX POSITION XYZ 
        0.0000        0.0000        0.0000                  ANTENNA: DELTA H/E/N
1     1                                                     WAVELENGTH FACT L1/2
     8    C1    C2    L1    L2    D1    D2    S1    S2      # / TYPES OF OBSERV 
    30.000                                                  INTERVAL            
  2026     4    14     0    52   30.0000000     GPS         TIME OF FIRST OBS   
  2026     4    14     3    13   30.0000000     GPS         TIME OF LAST OBS    
                                                            END OF HEADER       
 26  4 14  0 52 30.0000000  0 11G08G10G13G15G16G18G20G23G24G27G32
  22704349.553 7  22704349.790 7 119312157.485 7  92970522.420 7      1774.402  
      1382.508          42.000          43.000  
  21086898.208 8  21086896.263 7 110812395.037 8  86347311.425 7       976.134  
       760.406          51.000          46.000  
  25097202.215 6                 131886679.369 6                     -3871.075  
                        36.000                  
  22681348.714 7  22681346.318 6 119191289.205 7  92876322.404 6     -3391.096  
     -2642.294          42.000          41.000  
  25163036.031 5                 132232648.135 5                     -3346.016  
                        30.000                  
  21608253.896 7  21608251.214 7 113552140.830 7  88482173.894 7     -2463.344  
     -1919.366          46.000          45.000  
  25006396.030 6  25006394.400 6 131409495.209 6 102396996.742 6     -3626.860  
     -2825.985          38.000          36.000  
  20333809.763 8  20333805.867 8 106854889.742 8  83263538.456 8     -1205.579  
      -939.541          48.000          48.000  
  23571544.659 6  23571544.216 6 123869297.877 6  96521537.097 6      1915.920  
      1492.650          41.000          38.000  
  21260241.372 8  21260239.652 7 111723318.122 8  87057119.935 7      -198.281  
      -154.558          48.000          46.000  
  23485425.213 7  23485425.877 6 123416741.089 7  96168927.204 6      3278.120  
      2554.218          43.000          39.000  
 26  4 14  0 53  0.0000000  0 11G08G10G13G15G16G18G20G23G24G27G32
  22694287.689 7  22694287.602 7 119259281.460 7  92929320.348 7      1751.318  
      1364.805          43.000          43.000  
  21081378.578 8  21081376.529 7 110783389.285 8  86324709.553 7       958.454  
       746.818          51.000          46.000  
  25119344.042 6                 132003037.731 6                     -3884.905  
                        36.000                  
  22700763.955 7  22700761.813 6 119293317.386 7  92955824.825 6     -3409.926  
     -2657.136          43.000          40.000  
  25182163.005 5                 132333163.260 5                     -3354.732  
                        34.000                  
  21622370.514 7  21622367.313 7 113626321.307 7  88539976.829 7     -2481.310  
     -1933.340          46.000          45.000  
  25027141.188 6  25027140.008 6 131518510.067 6 102481943.372 6     -3639.836  
     -2836.202          40.000          39.000  
  20340746.508 8  20340742.865 8 106891343.624 8  83291944.066 8     -1223.770  
      -953.650          48.000          48.000  
  23560671.469 6  23560671.306 6 123812159.519 6  96477013.745 6      1894.400  
      1476.168          39.000          38.000  
  21261454.573 8  21261453.008 7 111729695.473 8  87062089.294 7      -226.129  
      -176.200          48.000          45.000  
  23466750.548 7  23466751.098 6 123318605.069 7  96092457.649 6      3265.372  
      2544.485          42.000          40.000  
 26  4 14  0 53 30.0000000  0 11G08G10G13G15G16G18G20G23G24G27G32
  22684354.919 7  22684354.588 7 119207084.493 7  92888647.419 7      1728.365  
      1346.862          44.000          42.000  
  21075956.281 8  21075954.249 7 110754894.212 8  86302505.609 7       941.300  
       733.619          51.000          46.000  
  25141561.091 5                 132119787.384 5                     -3898.165  
                        35.000                  
  22720283.680 7  22720281.047 6 119395893.194 7  93035754.009 6     -3428.187  
     -2671.638          43.000          40.000  
  25201339.160 6                 132433926.199 6                     -3363.013  
                        36.000                  
  21636585.175 7  21636582.160 7 113701020.724 7  88598184.119 7     -2498.752  
     -1946.781          46.000          45.000  
  25047955.340 6  25047954.022 6 131627889.636 6 102567174.142 6     -3652.172  
     -2845.487          40.000          40.000  
  20347783.148 8  20347779.553 8 106928321.840 8  83320758.262 8     -1241.479  
      -967.306          48.000          48.000  
  23549917.066 6  23549917.212 6 123755647.670 6  96432978.612 6      1873.049  
      1459.649          39.000          38.000  
  21262823.941 8  21262822.067 7 111736890.997 8  87067696.214 7      -253.440  
      -197.554          48.000          45.000  
  23448144.273 7  23448145.154 6 123220830.341 7  96016269.641 6      3253.069  
      2535.091          43.000          40.000  
 26  4 14  0 54  0.0000000  0 11G08G10G13G15G16G18G20G23G24G27G32
  22674547.571 7  22674546.774 7 119155544.735 7  92848486.597 7      1707.111  
      1330.046          43.000          42.000  
  21070626.515 8  21070624.233 7 110726886.012 8  86280681.070 7       925.687  
       721.182          51.000          47.000  
  25163847.205 5                 132236901.518 5                     -3909.896  
                        35.000                  
  22739902.472 7  22739899.922 6 119498990.001 7  93116089.122 6     -3445.166  
     -2684.424          43.000          40.000  
  25220556.196 6                 132534910.401 6                     -3369.594  
                        39.000                  
  21650893.677 7  21650891.151 7 113776214.679 7  88656776.802 7     -2514.498  
     -1959.486          45.000          45.000  
  25068834.062 6  25068832.784 6 131737607.474 6 102652668.509 6     -3662.732  
     -2853.958          40.000          41.000  
  20354914.925 8  20354911.320 8 106965799.512 8  83349961.650 8     -1257.382  
      -980.017          48.000          48.000  
  23539278.550 6  23539278.881 6 123699741.528 6  96389415.446 6      1853.619  
      1444.379          40.000          38.000  
  21264344.223 8  21264342.721 7 111744880.812 8  87073922.048 7      -279.458  
      -218.077          48.000          45.000  
  23429602.802 7  23429603.910 6 123123395.485 7  95940346.471 6      3242.235  
      2526.339          43.000          40.000  
 26  4 14  0 54 30.0000000  0 11G08G10G13G15G16G18G20G23G24G27G32
  22664861.579 7  22664861.029 7 119104646.083 7  92808825.342 7      1686.382  
      1314.178          44.000          42.000  
  21065385.563 8  21065383.441 7 110699346.546 8  86259221.762 7       910.711  
       709.486          51.000          46.000  
  25186198.399 5                 132354359.319 5                     -3920.283  
                        35.000                  
  22759616.242 7  22759613.951 6 119602586.724 7  93196813.811 6     -3461.067  
     -2696.966          43.000          40.000  
  25239811.794 6                 132636094.778 6                     -3375.740  
                        41.000                  
  21665293.174 7  21665290.490 7 113851884.448 7  88715740.218 7     -2529.886  
     -1971.175          46.000          45.000  
  25089773.251 6  25089772.195 6 131847643.020 6 102738410.440 6     -3672.775  
     -2861.750          40.000          41.000  
  20362138.222 8  20362134.549 8 107003757.584 8  83379539.345 8     -1272.861  
      -991.762          48.000          48.000  
  23528752.618 6  23528752.627 6 123644425.992 6  96346312.485 6      1834.442  
      1429.245          40.000          39.000  
  21266012.320 8  21266010.646 7 111753646.827 8  87080752.691 7      -304.722  
      -237.466          48.000          45.000  
  23411123.620 7  23411124.464 6 123026284.772 7  95864675.857 6      3232.030  
      2518.560          44.000          41.000  
 26  4 14  0 55  0.0000000  0 11G08G10G13G15G16G18G20G23G24G27G32
  22655293.841 7  22655293.027 7 119054366.456 7  92769646.452 7      1666.118  
      1298.209          44.000          42.000  
  21060229.754 8  21060227.547 7 110672251.796 8  86238108.989 7       896.094  
       698.251          51.000          47.000  
  25208609.948 5                 132472133.797 5                     -3930.689  
                        35.000                  
  22779420.420 7  22779417.760 6 119706656.368 7  93277906.989 6     -3476.481  
     -2708.752          43.000          39.000  
  25259099.420 6                 132737452.266 6                     -3381.073  
                        40.000                  
  21679778.778 7  21679775.580 7 113928005.331 7  88775055.181 7     -2544.504  
     -1982.889          46.000          45.000  
  25110767.537 6  25110766.699 6 131957969.777 6 102824379.286 6     -3682.110  
     -2869.085          38.000          41.000  
  20369447.968 8  20369444.297 8 107042170.967 8  83409471.845 8     -1287.713  
     -1003.299          48.000          48.000  
  23518334.672 6  23518334.745 6 123589679.970 6  96303653.314 6      1815.420  
      1414.746          40.000          39.000  
  21267823.807 8  21267821.791 7 111763164.958 8  87088169.420 7      -329.399  
      -256.814          48.000          45.000  
  23392701.416 7  23392702.388 6 122929476.454 7  95789240.901 6      3222.162  
      2510.749          43.000          41.000  
 26  4 14  0 55 30.0000000  0 11G08G10G13G15G16G18G20G23G24G27G32
  22645842.463 7  22645841.619 7 119004699.224 7  92730944.735 7      1645.380  
      1282.200          44.000          42.000  
  21055156.790 8  21055154.689 7 110645593.083 8  86217335.985 7       881.328  
       686.774          51.000          47.000  
  25231080.061 6                 132590213.526 6                     -3941.094  
                        37.000                  
  22799312.346 7  22799309.000 6 119811187.500 7  93359359.789 6     -3491.935  
     -2721.029          44.000          39.000  
  25278418.277 7                 132838971.096 7                     -3386.715  
                        42.000                  
  21694348.135 7  21694345.286 7 114004568.139 7  88834714.471 7     -2559.428  
     -1994.450          46.000          45.000  
  25131815.116 6  25131814.438 6 132068576.718 6 102910566.417 6     -3691.327  
     -2876.394          36.000          41.000  
  20376842.656 8  20376839.170 8 107081030.102 8  83439751.684 8     -1302.810  
     -1015.088          48.000          49.000  
  23508023.878 6  23508024.553 6 123535497.885 6  96261433.562 6      1796.502  
      1399.809          40.000          39.000  
  21269776.104 8  21269774.975 7 111773426.534 8  87096165.448 7      -354.331  
      -276.036          48.000          46.000  
  23374335.998 7  23374336.417 6 122832964.361 7  95714036.707 6      3212.173  
      2503.317          44.000          41.000  
 26  4 14  0 56  0.0000000  0 11G08G10G13G15G16G18G20G23G24G27G32
  22636506.230 7  22636505.831 7 118955638.639 7  92692715.740 7      1625.426  
      1266.609          44.000          42.000  
  21050165.247 8  21050163.182 7 110619362.675 8  86196896.739 7       867.488  
       675.806          51.000          47.000  
  25253605.439 6                 132708587.994 6                     -3950.417  
                        38.000                  
  22819289.621 7  22819286.152 6 119916169.356 7  93441163.797 6     -3506.612  
     -2732.356          43.000          39.000  
  25297765.787 6                 132940640.594 6                     -3390.929  
                        40.000                  
  21708999.992 7  21708997.028 7 114081564.525 7  88894711.635 7     -2573.433  
     -2005.401          46.000          45.000  
  25152914.366 5  25152913.303 6 132179453.629 5 102996963.949 6     -3699.937  
     -2882.995          35.000          39.000  
  20384320.423 8  20384316.756 8 107120326.236 8  83470372.041 8     -1316.908  
     -1026.134          48.000          48.000  
  23497819.806 6  23497820.169 6 123481874.970 6  96219649.545 6      1778.237  
      1385.785          40.000          39.000  
  21271869.187 8  21271867.302 7 111784423.809 8  87104734.757 7      -378.567  
      -294.983          48.000          45.000  
  23356025.396 7  23356026.529 6 122736743.071 7  95639059.204 6      3202.771  
      2495.583          44.000          41.000  
 26  4 14  0 56 30.0000000  0 11G08G10G13G15G16G18G20G23G24G27G32
  22627281.882 7  22627281.070 7 118907163.122 7  92654942.631 7      1606.012  
      1251.442          44.000          42.000  
  21045250.666 8  21045248.868 7 110593537.104 8  86176772.927 7       853.936  
       665.281          51.000          47.000  
  25276183.088 6                 132827230.902 6                     -3959.487  
                        39.000                  
  22839347.733 7  22839344.727 6 120021575.731 7  93523298.600 6     -3520.930  
     -2743.337          42.000          39.000  
  25317135.921 6                 133042434.565 6                     -3395.302  
                        38.000                  
  21723729.746 7  21723726.980 7 114158970.436 7  88955027.884 7     -2587.185  
     -2015.944          46.000          45.000  
  25174059.554 5  25174059.321 6 132290574.590 5 103083551.599 6     -3708.204  
     -2889.931          35.000          38.000  
  20391876.852 8  20391873.092 8 107160034.939 8  83501313.873 8     -1330.615  
     -1036.891          48.000          48.000  
  23487718.121 6  23487718.254 6 123428790.767 6  96178285.265 6      1760.211  
      1371.742          40.000          38.000  
  21274097.427 8  21274095.548 7 111796133.186 8  87113858.955 7      -402.505  
      -313.646          48.000          45.000  
  23337766.896 7  23337767.509 6 122640791.555 7  95564291.844 6      3193.713  
      2488.871          44.000          41.000  
 26  4 14  0 57  0.0000000  0 11G08G10G13G15G16G18G20G23G24G27G32
  22618168.656 7  22618168.684 7 118859275.235 7  92617627.427 7      1586.618  
      1236.425          43.000          43.000  
  21040413.366 8  21040411.507 7 110568116.983 8  86156965.062 7       840.730  
       655.208          51.000          46.000  
  25298811.387 6                 132946140.133 6                     -3967.630  
                        38.000                  
  22859485.942 7  22859483.471 6 120127404.130 7  93605762.252 6     -3534.265  
     -2754.414          42.000          40.000  
  25336530.217 6                 133144350.383 6                     -3398.698  
                        36.000                  
  21738537.930 7  21738534.398 7 114236785.821 7  89015663.241 7     -2600.419  
     -2026.397          46.000          44.000  
  25195250.654 6  25195251.088 6 132401937.791 6 103170328.015 6     -3715.960  
     -2895.635          36.000          37.000  
  20399511.356 8  20399507.867 8 107200155.808 8  83532576.881 8     -1344.147  
     -1047.308          48.000          48.000  
  23477719.523 6  23477719.814 6 123376248.809 6  96137343.523 6      1742.468  
      1357.645          41.000          38.000  
  21276461.160 8  21276459.498 7 111808555.154 8  87123538.410 7      -425.801  
      -331.827          48.000          45.000  
  23319559.791 7  23319560.288 6 122545112.725 7  95489737.018 6      3184.908  
      2481.737          44.000          41.000  
 26  4 14  0 57 30.0000000  0 11G08G10G13G15G18G20G23G24G27G32G02
  22609166.198 7  22609166.055 7 118811964.729 7  92580762.125 7      1568.322  
      1222.141          43.000          43.000  
  21035651.020 8  21035649.101 7 110543090.021 8  86137463.531 7       828.812  
       645.845          51.000          46.000  
  25321487.163 6                 133065300.988 6                     -3974.948  
                        37.000                  
  22879702.263 7  22879698.843 6 120233639.667 7  93688543.153 6     -3546.779  
     -2763.854          42.000          39.000  
  21753421.440 7  21753417.898 7 114314997.815 7  89076607.627 7     -2612.603  
     -2035.681          47.000          44.000  
  25216486.293 6  25216486.069 5 132513528.539 6 103257281.806 5     -3722.212  
     -2901.326          37.000          34.000  
  20407222.154 8  20407218.297 8 107240675.597 8  83564150.742 8     -1356.226  
     -1056.756          48.000          48.000  
  23467822.586 6  23467822.853 6 123324239.830 6  96096817.119 6      1725.622  
      1344.647          40.000          38.000  
  21278958.321 8  21278956.625 7 111821677.321 8  87133763.468 7      -448.064  
      -348.883          48.000          45.000  
  23301402.572 7  23301403.077 6 122449696.729 7  95415386.980 6      3177.079  
      2475.659          45.000          41.000  
  25208798.631 5                 132473131.238 5                      2855.679  
                        32.000                  
 26  4 14  0 58  0.0000000  0 12G16G08G10G13G15G18G20G23G24G27G32G02
  25375374.139 5                 133348477.90235                     -3404.258  
                        31.000                  
  22600269.679 7  22600269.998 7 118765215.727 7  92544334.379 7      1549.487  
      1207.227          44.000          43.000  
  21030959.968 8  21030958.068 7 110518438.508 8  86118254.576 7       815.736  
       635.758          51.000          47.000  
  25344206.102 6                 133184692.368 6                     -3983.202  
                        37.000                  
  22899991.297 7  22899988.639 6 120340261.617 7  93771625.112 6     -3559.933  
     -2773.746          42.000          40.000  
  21768376.145 7  21768373.486 7 114393588.075 7  89137846.780 7     -2625.627  
     -2046.126          46.000          45.000  
  25237760.642 6  25237760.903 5 132625326.731 6 103344397.260 5     -3729.697  
     -2906.134          37.000          35.000  
  20415004.917 8  20415001.616 8 107281575.672 8  83596020.916 8     -1369.351  
     -1067.043          48.000          48.000  
  23458024.457 6  23458024.184 6 123272749.049 6  96056694.484 6      1708.178  
      1330.969          41.000          38.000  
  21281585.340 8  21281583.363 7 111835481.845 8  87144520.237 7      -471.057  
      -367.026          48.000          45.000  
  23283292.389 7  23283292.853 6 122354528.262 7  95341229.825 6      3168.314  
      2469.033          44.000          41.000  
  25192510.379 5                 132387534.290 5                      2852.151  
                        33.000                  
 26  4 14  0 58 30.0000000  0 12G16G08G10G13G15G18G20G23G24G27G32G02
  25394818.718 5                 133450665.81115                     -3407.243  
                        35.000                  
  22591480.288 7  22591480.650 7 118719026.950 7  92508343.155 7      1530.655  
      1192.625          43.000          44.000  
  21026339.701 8  21026337.696 7 110494159.178 8  86099335.635 7       803.573  
       626.099          51.000          46.000  
  25366967.178 5                 133304309.073 5                     -3990.402  
                        34.000                  
  22920353.415 7  22920350.766 6 120447264.099 7  93855003.619 6     -3572.557  
     -2783.717          43.000          40.000  
  21783402.905 7  21783399.895 7 114472552.775 7  89199377.681 7     -2637.834  
     -2055.531          46.000          44.000  
  25259074.671 6  25259073.215 5 132737326.719 6 103431669.989 5     -3736.604  
     -2911.643          40.000          34.000  
  20422859.883 8  20422856.319 8 107322851.786 8  83628184.107 8     -1381.687  
     -1076.545          48.000          48.000  
  23448324.711 7  23448324.102 6 123221776.170 7  96016975.417 6      1690.823  
      1317.373          42.000          37.000  
  21284340.854 8  21284339.789 7 111849965.282 8  87155806.051 7      -493.647  
      -384.759          48.000          45.000  
  23265229.126 7  23265229.359 6 122259606.389 7  95267264.854 6      3160.453  
      2462.679          44.000          40.000  
  25176234.417 5                 132301999.095 5                      2851.363  
                        35.000                  
 26  4 14  0 59  0.0000000  0 12G16G08G10G13G15G18G20G23G24G27G32G02
  25414277.768 6                 133552915.171 6                     -3408.852  
                        39.000                  
  22582794.675 7  22582795.043 7 118673384.367 7  92472777.539 7      1512.468  
      1178.555          43.000          44.000  
  21021787.396 8  21021785.335 7 110470236.132 8  86080694.316 7       791.657  
       616.898          51.000          46.000  
  25389769.647 5                 133424132.353 5                     -3996.974  
                        33.000                  
  22940784.440 7  22940781.284 6 120554628.034 7  93938663.818 6     -3584.543  
     -2793.320          43.000          40.000  
  21798497.525 7  21798494.459 7 114551875.349 7  89261187.443 7     -2649.930  
     -2064.796          46.000          44.000  
  25280422.456 6  25280421.299 6 132849510.200 6 103519085.654 6     -3742.377  
     -2916.455          40.000          37.000  
  20430782.947 8  20430779.125 8 107364487.068 8  83660627.186 8     -1393.695  
     -1086.017          48.000          48.000  
  23438721.082 6  23438720.673 6 123171308.244 6  95977649.791 6      1673.981  
      1304.290          41.000          37.000  
  21287223.273 8  21287221.888 7 111865111.559 8  87167608.354 7      -515.703  
      -402.021          48.000          45.000  
  23247211.008 7  23247210.703 6 122164917.656 7  95193481.513 6      3152.503  
      2456.656          43.000          40.000  
  25159966.679 5                 132216511.519 5                      2848.781  
                        35.000                  
 26  4 14  0 59 30.0000000  0 12G16G08G10G13G15G18G20G23G24G27G32G02
  25433745.922 6                 133655224.001 6                     -3411.034  
                        39.000                  
  22574213.185 7  22574213.921 7 118628291.329 7  92437640.145 7      1493.979  
      1164.415          43.000          44.000  
  21017302.977 8  21017300.940 7 110446670.849 8  86062331.765 7       779.718  
       607.466          51.000          47.000  
  25412608.272 5                 133544161.185 5                     -4003.801  
                        30.000                  
  22961283.319 7  22961280.833 6 120662352.137 7  94022604.619 6     -3596.697  
     -2802.583          43.000          39.000  
  21813660.754 7  21813657.393 7 114631556.635 7  89323276.731 7     -2661.828  
     -2074.021          46.000          44.000  
  25301804.908 6  25301803.766 6 132961876.266 6 103606643.563 6     -3748.432  
     -2920.959          40.000          38.000  
  20438774.010 8  20438770.528 8 107406482.021 8  83693350.516 8     -1405.611  
     -1095.203          48.000          48.000  
  23429213.938 6  23429213.780 6 123121349.589 6  95938721.009 6      1657.117  
      1291.080          41.000          37.000  
  21290232.092 8  21290230.124 7 111880921.917 8  87179928.111 7      -537.667  
      -419.216          48.000          45.000  
  23229236.863 7  23229237.159 6 122070465.829 7  95119882.829 6      3144.607  
      2450.431          43.000          41.000  
  25143708.224 6                 132131074.070 6                      2847.236  
                        36.000                  
 26  4 14  1  0  0.0000000  0 12G16G08G10G13G15G18G20G23G24G27G32G02
  25453221.461 6                 133757562.443 6                     -3411.966  
                        39.000                  
  22565732.822 7  22565732.603 7 118583722.796 7  92402911.458 7      1476.285  
      1150.474          44.000          44.000  
  21012881.632 8  21012879.464 7 110423436.343 8  86044226.968 7       768.392  
       598.779          51.000          47.000  
  25435484.294 5                 133664365.402 5                     -4010.130  
                        32.000                  
  22981845.550 7  22981843.027 6 120770406.426 7  94106802.740 6     -3607.642  
     -2811.329          43.000          39.000  
  21828886.418 7  21828883.316 7 114711569.052 7  89385624.041 7     -2673.161  
     -2082.863          46.000          44.000  
  25323216.929 6  25323215.659 6 133074395.595 6 103694320.898 6     -3753.503  
     -2924.719          39.000          39.000  
  20446828.544 8  20446825.129 8 107448808.755 8  83726332.381 8     -1416.902  
     -1103.986          48.000          48.000  
  23419799.232 6  23419799.404 6 123071876.217 6  95900170.398 6      1640.723  
      1278.314          40.000          39.000  
  21293361.725 8  21293359.784 7 111897369.162 8  87192744.133 7      -559.572  
      -435.933          48.000          45.000  
  23211303.925 7  23211303.813 6 121976226.375 7  95046449.621 6      3137.365  
      2445.064          44.000          41.000  
  25127454.383 6                 132045660.727 6                      2846.264  
                        36.000                  
 26  4 14  1  0 30.0000000  0 12G16G08G10G13G15G18G20G23G24G27G32G02
  25472706.469 6                 133859955.885 6                     -3413.777  
                        40.000                  
  22557357.631 7  22557356.983 7 118539708.830 7  92368614.885 7      1457.704  
      1135.772          44.000          43.000  
  21008528.580 8  21008526.616 7 110400560.818 8  86026401.897 7       756.438  
       589.332          51.000          46.000  
  25458397.257 5                 133784771.475 5                     -4017.373  
                        31.000                  
  23002475.584 7  23002472.693 6 120878816.573 7  94191278.153 6     -3619.744  
     -2821.045          43.000          39.000  
  21844180.328 7  21844177.377 7 114791940.139 7  89448250.839 7     -2685.102  
     -2092.273          46.000          44.000  
  25344662.810 6  25344661.936 6 133187094.060 6 103782137.832 6     -3759.608  
     -2929.581          38.000          39.000  
  20454951.630 8  20454948.019 8 107491494.519 8  83759594.003 8     -1429.071  
     -1113.507          48.000          48.000  
  23410483.147 6  23410483.265 6 123022919.221 6  95862022.147 6      1623.188  
      1264.610          41.000          38.000  
  21296617.633 7  21296616.314 7 111914481.220 7  87206078.213 7      -581.516  
      -453.059          47.000          45.000  
  23193417.101 7  23193416.771 6 121882229.881 7  94973205.715 6      3129.112  
      2438.103          44.000          40.000  
  25111211.258 6                 131960301.161 6                      2844.170  
                        37.000                  
 26  4 14  1  1  0.0000000  0 12G16G08G10G13G15G18G20G23G24G27G32G02
  25492203.625 6                 133962413.505 6                     -3415.891  
                        38.000                  
  22549089.833 7  22549088.954 7 118496263.470 7  92334761.381 7      1439.164  
      1121.354          44.000          43.000  
  21004246.190 8  21004244.097 7 110378056.507 8  86008866.079 7       744.343  
       579.968          51.000          47.000  
  25481348.850 4                 133905388.475 4                     -4023.477  
                        26.000                  
  23023174.496 7  23023171.682 6 120987591.965 7  94276038.135 6     -3631.743  
     -2829.753          42.000          38.000  
  21859545.244 7  21859541.951 7 114872681.540 7  89511166.191 7     -2697.197  
     -2101.857          46.000          44.000  
  25366144.469 6  25366143.897 6 133299981.562 6 103870102.087 6     -3765.369  
     -2934.254          38.000          41.000  
  20463144.903 8  20463141.263 8 107534550.576 8  83793144.179 8     -1441.142  
     -1123.022          48.000          48.000  
  23401268.346 6  23401267.646 6 122974493.710 6  95824288.006 6      1605.802  
      1251.234          41.000          38.000  
  21300002.951 8  21300001.439 7 111932270.074 8  87219939.659 7      -603.922  
      -470.560          48.000          45.000  
  23175578.535 7  23175578.450 6 121788490.958 7  94900162.509 6      3120.622  
      2431.744          44.000          41.000  
  25094980.465 6                 131875008.637 6                      2842.353  
                        39.000                  
 26  4 14  1  1 30.0000000  0 12G16G08G10G13G15G18G20G23G24G27G32G02
  25511712.635 6                 134064933.354 6                     -3418.139  
                        37.000                  
  22540931.036 7  22540930.520 7 118453389.275 7  92301352.963 7      1419.498  
      1105.785          44.000          43.000  
  21000034.224 8  21000032.371 7 110355924.087 8  85991620.054 7       731.344  
       569.782          51.000          47.000  
  25504345.965 2                                                     -4029.626  
                        13.000                  
  23043943.128 7  23043940.606 6 121096730.183 7  94361080.860 6     -3644.165  
     -2839.789          42.000          39.000  
  21874980.370 7  21874976.984 7 114953793.246 7  89574370.089 7     -2709.933  
     -2111.736          46.000          44.000  
  25387661.664 6  25387661.442 6 133413056.345 6 103958212.202 6     -3772.566  
     -2939.445          36.000          40.000  
  20471408.417 8  20471405.293 8 107577976.650 8  83826982.674 8     -1453.860  
     -1132.900          48.000          48.000  
  23392154.702 6  23392154.674 6 122926603.211 6  95786970.815 6      1587.408  
      1236.980          41.000          39.000  
  21303517.000 8  21303515.492 7 111950736.033 8  87234328.722 7      -626.943  
      -488.551          48.000          45.000  
  23157790.240 7  23157790.409 6 121695012.627 7  94827322.366 6      3111.439  
      2424.632          44.000          41.000  
  25078763.414 6                 131789784.814 6                      2839.284  
                        39.000                  
 26  4 14  1  2  0.0000000  0 11G16G08G10G15G18G20G23G24G27G32G02
  25531230.749 6                 134167501.792 6                     -3419.663  
                        37.000                  
  22532880.056 7  22532878.933 7 118411077.535 7  92268382.768 7      1400.717  
      1091.453          44.000          43.000  
  20995891.357 8  20995889.623 7 110334153.004 8  85974655.581 7       719.283  
       560.569          51.000          47.000  
  23064778.342 7  23064775.333 6 121206218.033 7  94446396.034 6     -3655.811  
     -2848.776          43.000          39.000  
  21890483.729 7  21890480.558 7 115035264.105 7  89637853.837 7     -2721.966  
     -2120.936          46.000          45.000  
  25409211.862 5  25409212.059 6 133526305.709 5 104046458.372 6     -3778.335  
     -2944.019          34.000          41.000  
  20479740.536 8  20479737.091 8 107621761.258 8  83861100.549 8     -1465.686  
     -1142.133          48.000          48.000  
  23383141.769 6  23383141.543 6 122879240.054 6  95750064.535 6      1569.643  
      1223.204          41.000          39.000  
  21307157.792 8  21307156.698 7 111969868.287 8  87249236.980 7      -649.059  
      -505.793          48.000          45.000  
  23140049.786 7  23140049.466 6 121601786.750 7  94754678.948 6      3102.996  
      2417.901          45.000          40.000  
  25062557.177 6                 131704620.864 6                      2837.346  
                        40.000                  
 26  4 14  1  2 30.0000000  0 11G16G08G10G15G18G20G23G24G27G32G02
  25550754.740 5                 134270104.369 5                     -3420.555  
                        32.000                  
  22524932.873 7  22524932.618 7 118369318.344 7  92235843.164 7      1382.998  
      1077.535          44.000          43.000  
  20991814.812 8  20991813.236 7 110312731.558 8  85957963.566 7       708.074  
       551.766          51.000          47.000  
  23085676.333 6  23085673.851 6 121316040.944 6  94531972.293 6     -3666.142  
     -2856.980          41.000          39.000  
  21906052.943 7  21906050.050 7 115117081.739 7  89701607.801 7     -2733.001  
     -2129.654          46.000          45.000  
  25430792.817 5  25430793.439 6 133639715.477 5 104134829.511 6     -3782.966  
     -2947.904          35.000          39.000  
  20488138.320 8  20488134.510 8 107665891.810 8  83895487.983 8     -1476.624  
     -1150.666          48.000          48.000  
  23374227.532 6  23374227.574 6 122832395.453 6  95713562.302 6      1552.717  
      1209.802          41.000          39.000  
  21310923.341 8  21310921.848 7 111989654.774 8  87264655.017 7      -670.486  
      -522.472          48.000          45.000  
  23122355.936 7  23122355.455 6 121508804.012 7  94682224.959 6      3095.277  
      2412.261          45.000          41.000  
  25046360.783 6                 131619506.208 6                      2836.060  
                        41.000                  
 26  4 14  1  3  0.0000000  0 11G16G08G10G15G18G20G23G24G27G32G02
  25570280.790 5                 134372715.384 5                     -3420.747  
                        32.000                  
  22517087.210 7  22517087.811 7 118328090.422 7  92203717.561 7      1365.786  
      1064.219          44.000          44.000  
  20987800.708 8  20987798.832 7 110291636.663 8  85941526.010 7       698.038  
       543.828          51.000          46.000  
  23106634.107 6  23106631.043 6 121426173.042 6  94617789.433 6     -3675.855  
     -2864.209          41.000          39.000  
  21921683.721 7  21921680.985 7 115199222.426 7  89765613.511 7     -2743.077  
     -2137.645          46.000          45.000  
  25452399.823 5  25452400.300 6 133753260.364 5 104223305.984 6     -3786.773  
     -2951.124          34.000          38.000  
  20496597.024 8  20496593.539 8 107710344.261 8  83930126.260 8     -1486.823  
     -1158.557          48.000          48.000  
  23365408.079 6  23365408.354 6 122786049.092 6  95677448.306 6      1537.047  
      1197.679          41.000          39.000  
  21314808.651 8  21314806.826 7 112010072.048 8  87280564.577 7      -690.785  
      -538.440          48.000          45.000  
  23104703.718 7  23104703.779 6 121416043.729 7  94609944.322 6      3088.556  
      2406.651          45.000          41.000  
  25030168.777 6                 131534418.612 6                      2836.078  
                        41.000                  
 26  4 14  1  3 30.0000000  0 11G16G08G10G15G18G20G23G24G27G32G02
  25589803.817 5                 134475315.326 5                     -3420.621  
                        31.000                  
  22509340.406 7  22509340.301 7 118287379.043 7  92171994.441 7      1348.048  
      1050.348          44.000          44.000  
  20983845.647 8  20983843.516 7 110270851.752 8  85925329.983 7       687.384  
       535.449          51.000          47.000  
  23127646.444 6  23127643.723 6 121536594.891 6  94703832.396 6     -3685.651  
     -2872.193          41.000          40.000  
  21937373.091 7  21937370.149 7 115281668.950 7  89829857.508 7     -2753.719  
     -2145.724          46.000          45.000  
  25474028.454 5  25474028.721 6 133866921.532 5 104311873.067 6     -3790.969  
     -2953.972          35.000          37.000  
  20505114.349 8  20505110.620 8 107755101.128 8  83965001.717 8     -1497.403  
     -1166.652          48.000          48.000  
  23356680.364 6  23356681.330 6 122740187.261 6  95641711.885 6      1520.338  
      1184.757          41.000          40.000  
  21318810.248 8  21318809.107 7 112031103.145 8  87296952.435 7      -711.686  
      -554.377          48.000          45.000  
  23087091.743 7  23087091.363 6 121323491.646 7  94537825.916 6      3081.375  
      2400.891          45.000          41.000  
  25013979.486 7                 131449343.036 7                      2835.499  
                        42.000                  
 26  4 14  1  4  0.0000000  0 11G16G08G10G15G18G20G23G24G27G32G02
  25609329.234 5                 134577924.873 5                     -3421.147  
                        33.000                  
  22501696.123 7  22501695.733 7 118247209.654 7  92140693.620 7      1329.773  
      1036.073          44.000          43.000  
  20979953.866 8  20979951.833 7 110250400.540 8  85909393.990 7       675.873  
       526.642          51.000          47.000  
  23148718.266 7  23148715.584 6 121647327.494 7  94790117.468 6     -3696.597  
     -2880.110          42.000          39.000  
  21953124.319 7  21953121.655 7 115364444.355 7  89894357.799 7     -2764.890  
     -2154.645          46.000          45.000  
  25495684.012 6  25495684.311 6 133980720.420 6 104400547.483 6     -3795.726  
     -2957.925          37.000          37.000  
  20513693.467 8  20513689.853 8 107800185.175 8  84000132.151 8     -1508.453  
     -1175.453          48.000          48.000  
  23348051.060 6  23348051.171 6 122694836.497 6  95606373.677 6      1502.966  
      1170.992          41.000          39.000  
  21322933.711 8  21322932.107 7 112052771.353 8  87313836.757 7      -733.354  
      -571.259          48.000          45.000  
  23069524.420 7  23069524.281 7 121231173.959 7  94465890.125 7      3072.868  
      2394.578          44.000          42.000  
  24997797.031 7                 131364304.712 7                      2833.520  
                        42.000                  
 26  4 14  1  4 30.0000000  0 11G16G08G10G15G18G20G23G24G27G32G02
  25628857.847 5                 134680545.171 5                     -3420.899  
                        35.000                  
  22494156.167 7  22494155.666 7 118207587.968 7  92109819.606 7      1311.724  
      1021.938          44.000          43.000  
  20976126.284 8  20976124.218 7 110230286.978 8  85893721.102 7       664.832  
       517.938          51.000          46.000  
  23169849.752 7  23169846.572 6 121758371.825 7  94876645.482 6     -3706.530  
     -2888.150          42.000          39.000  
  21968939.487 7  21968936.469 7 115447552.008 7  89959116.931 7     -2775.668  
     -2162.700          45.000          45.000  
  25517366.646 6  25517366.939 6 134094658.791 6 104489330.532 6     -3800.322  
     -2961.105          37.000          37.000  
  20522335.641 8  20522331.681 8 107845599.435 8  84035519.890 8     -1519.226  
     -1183.961          48.000          48.000  
  23339519.769 6  23339519.695 6 122650003.574 6  95571438.980 6      1485.923  
      1157.862          41.000          39.000  
  21327178.956 8  21327177.028 7 112075080.184 8  87331220.264 7      -754.258  
      -587.769          48.000          45.000  
  23052002.346 7  23052002.674 6 121139096.911 7  94394141.878 6      3065.095  
      2388.382          44.000          41.000  
  24981622.947 7                 131279308.555 7                      2832.493  
                        42.000                  
 26  4 14  1  5  0.0000000  0 11G16G08G10G15G18G20G23G24G27G32G02
  25648387.535 6                 134783168.865 6                     -3420.630  
                        36.000                  
  22486720.503 7  22486720.102 7 118168511.214 7  92079370.211 7      1293.838  
      1007.955          44.000          43.000  
  20972362.412 8  20972360.255 7 110210506.473 8  85878307.726 7       654.022  
       509.711          51.000          47.000  
  23191038.284 7  23191035.672 6 121869720.634 7  94963410.740 6     -3716.255  
     -2895.663          42.000          39.000  
  21984816.143 7  21984813.673 7 115530986.598 7  90024130.867 7     -2786.254  
     -2171.010          45.000          45.000  
  25539073.186 6  25539073.597 6 134208729.869 6 104578217.037 6     -3804.346  
     -2964.466          37.000          37.000  
  20531039.560 8  20531035.581 8 107891338.439 8  84071160.661 8     -1529.606  
     -1191.887          48.000          48.000  
  23331086.109 6  23331086.082 6 122605686.658 6  95536906.359 6      1468.752  
      1144.489          40.000          39.000  
  21331545.129 8  21331543.369 7 112098024.623 8  87349099.042 7      -775.034  
      -603.892          48.000          45.000  
  23034526.142 7  23034525.684 6 121047258.384 7  94322579.438 6      3057.590  
      2382.816          44.000          41.000  
  24965456.048 7                 131194351.282 7                      2831.670  
                        42.000                  
 26  4 14  1  5 30.0000000  0 11G16G08G10G15G18G20G23G24G27G32G02
  25667911.905 6                 134885767.536 6                     -3419.536  
                        36.000                  
  22479383.650 7  22479382.798 7 118129955.470 7  92049326.770 7      1276.830  
       995.109          43.000          43.000  
  20968656.576 8  20968654.583 7 110191033.469 8  85863133.982 7       644.385  
       502.094          51.000          47.000  
  23212280.021 6  23212277.702 6 121981345.734 6  95050391.275 6     -3724.909  
     -2902.601          41.000          39.000  
  22000750.843 7  22000748.127 7 115614721.874 7  90089379.103 7     -2795.688  
     -2178.389          45.000          45.000  
  25560800.587 6  25560800.059 6 134322905.557 6 104667185.023 6     -3807.087  
     -2965.966          37.000          36.000  
  20539800.168 8  20539796.253 8 107937375.672 8  84107033.822 8     -1539.069  
     -1199.286          48.000          48.000  
  23322746.319 6  23322746.831 6 122561862.952 6  95502758.076 6      1452.982  
      1132.165          40.000          39.000  
  21336027.699 8  21336026.107 7 112121578.596 8  87367452.778 7      -794.948  
      -619.452          48.000          45.000  
  23017090.548 7  23017090.424 6 120955635.113 7  94251184.745 6      3050.938  
      2377.441          43.000          41.000  
  24949292.024 7                 131109408.643 7                      2831.652  
                        42.000                  
 26  4 14  1  6  0.0000000  0 11G16G08G10G15G18G20G23G24G27G32G02
  25687428.613 6                 134988330.360 6                     -3418.414  
                        37.000                  
  22472144.480 7  22472143.993 7 118091914.135 7  92019684.191 7      1259.173  
       981.242          44.000          43.000  
  20965007.892 8  20965005.927 7 110171859.572 8  85848193.294 7       634.088  
       494.116          51.000          47.000  
  23233572.172 6  23233569.338 6 122093235.736 6  95137578.230 6     -3734.259  
     -2909.844          41.000          39.000  
  22016740.278 7  22016737.961 7 115698748.831 7  90154854.605 7     -2805.869  
     -2186.361          45.000          45.000  
  25582545.566 6  25582545.020 6 134437175.564 6 104756226.493 6     -3810.479  
     -2969.642          38.000          37.000  
  20548615.379 7  20548611.861 8 107983701.844 7  84143132.129 8     -1549.043  
     -1207.107          47.000          48.000  
  23314499.839 6  23314499.840 6 122518526.845 6  95468989.720 6      1436.360  
      1119.354          40.000          38.000  
  21340624.065 8  21340622.709 7 112145733.230 8  87386274.561 7      -815.394  
      -635.328          48.000          46.000  
  22999695.079 7  22999695.003 6 120864221.153 7  94179953.149 6      3043.510  
      2371.279          45.000          41.000  
  24933129.065 6                 131024473.752 6                      2830.861  
                        41.000                  
 26  4 14  1  6 30.0000000  0 11G16G08G10G15G18G20G23G24G27G32G02
  25706941.261 6                 135090868.153 6                     -3417.538  
                        37.000                  
  22465006.239 7  22465005.233 7 118054402.498 7  91990454.368 7      1241.140  
       966.988          44.000          43.000  
  20961418.864 8  20961416.716 7 110152998.390 8  85833496.288 7       623.254  
       485.553          51.000          46.000  
  23254916.349 7  23254913.398 6 122205401.396 7  95224980.009 6     -3743.540  
     -2917.187          42.000          38.000  
  22032788.286 7  22032785.806 7 115783080.356 7  90220567.433 7     -2816.482  
     -2194.563          45.000          45.000  
  25604311.269 6  25604309.893 6 134551551.177 6 104845350.332 6     -3814.729  
     -2972.270          38.000          36.000  
  20557488.468 8  20557484.951 8 108030329.722 8  84179465.521 8     -1559.651  
     -1215.253          48.000          48.000  
  23306348.965 6  23306349.293 6 122475694.735 6  95435614.100 6      1419.058  
      1105.604          40.000          39.000  
  21345337.182 8  21345336.086 7 112170501.603 8  87405574.574 7      -836.312  
      -651.593          48.000          46.000  
  22982342.811 7  22982342.151 6 120773032.483 7  94108897.071 6      3035.596  
      2365.332          45.000          41.000  
  24916970.859 6                 130939561.300 6                      2829.639  
                        40.000                  
 26  4 14  1  7  0.0000000  0 11G16G08G10G15G18G20G23G24G27G32G02
  25726453.015 6                 135193401.308 6                     -3418.184  
                        37.000                  
  22457973.702 7  22457972.943 7 118017445.763 7  91961656.910 7      1222.381  
       952.574          44.000          43.000  
  20957893.872 8  20957891.311 7 110134473.402 8  85819061.230 7       611.774  
       476.904          51.000          47.000  
  23276317.814 7  23276314.819 6 122317863.764 7  95312612.953 6     -3754.020  
     -2925.373          42.000          38.000  
  22048898.462 7  22048895.485 7 115867739.246 7  90286535.375 7     -2827.371  
     -2203.411          46.000          44.000  
  25626099.853 6  25626098.986 6 134666053.862 6 104934573.142 6     -3818.858  
     -2975.741          38.000          37.000  
  20566423.177 7  20566419.694 8 108077281.793 7  84216051.540 8     -1570.497  
     -1223.713          47.000          48.000  
  23298299.356 6  23298298.878 6 122433392.773 6  95402651.562 6      1401.005  
      1092.010          40.000          39.000  
  21350171.622 8  21350170.328 7 112195906.640 8  87425370.687 7      -857.533  
      -668.315          48.000          45.000  
  22965037.584 7  22965037.468 7 120682094.939 7  94038036.693 7      3026.940  
      2358.519          45.000          42.000  
  24900821.472 6                 130854696.157 6                      2827.807  
                        39.000                  
 26  4 14  1  7 30.0000000  0 11G16G08G10G15G18G20G23G24G27G32G02
  25745964.119 6                 135295934.011 6                     -3417.759  
                        36.000                  
  22451048.343 7  22451047.612 7 117981052.213 7  91933298.318 7      1203.692  
       937.790          44.000          44.000  
  20954433.685 8  20954431.415 7 110116291.246 8  85804893.347 7       600.299  
       467.712          51.000          47.000  
  23297775.544 7  23297772.697 6 122430626.494 7  95400479.969 6     -3763.856  
     -2932.574          43.000          39.000  
  22065072.163 7  22065069.355 7 115952731.512 7  90352763.080 7     -2838.669  
     -2212.153          46.000          44.000  
  25647913.906 6  25647913.069 5 134780687.924 6 105023898.384 5     -3823.287  
     -2979.322          37.000          35.000  
  20575420.557 8  20575417.283 8 108124563.847 8  84252894.694 8     -1581.647  
     -1232.434          48.000          48.000  
  23290352.208 6  23290352.141 6 122391630.330 6  95370109.480 6      1383.139  
      1077.583          40.000          39.000  
  21355128.227 7  21355126.892 7 112221954.400 7  87445667.634 7      -878.982  
      -684.769          47.000          45.000  
  22947782.368 7  22947782.461 6 120591417.550 7  93967378.994 6      3018.008  
      2351.903          45.000          41.000  
  24884682.533 6                 130769886.409 6                      2826.312  
                        38.000                  
 26  4 14  1  8  0.0000000  0 11G16G08G10G15G18G20G23G24G27G32G02
  25765474.859 6                 135398459.675 6                     -3417.180  
                        36.000                  
  22444229.344 7  22444229.145 7 117945219.793 7  91905376.960 7      1185.177  
       923.550          44.000          44.000  
  20951038.030 8  20951036.259 7 110098448.187 8  85790989.670 7       589.197  
       459.216          51.000          47.000  
  23319289.419 7  23319286.753 6 122543682.944 7  95488575.865 6     -3773.037  
     -2940.223          43.000          39.000  
  22081308.522 7  22081305.219 7 116038052.667 7  90419247.065 7     -2849.346  
     -2220.452          46.000          44.000  
  25669752.190 6  25669751.531 6 134895447.689 6 105113321.516 6     -3826.991  
     -2982.384          37.000          37.000  
  20584480.054 8  20584476.439 8 108172171.237 8  84289991.357 8     -1592.188  
     -1240.649          48.000          48.000  
  23282507.492 6  23282507.395 6 122350406.379 6  95337986.978 6      1365.512  
      1063.892          41.000          39.000  
  21360206.548 8  21360204.920 7 112248640.583 8  87466462.049 7      -899.897  
      -701.370          48.000          45.000  
  22930576.245 7  22930576.076 6 120500998.957 7  93896922.994 6      3009.764  
      2345.167          45.000          41.000  
  24868553.503 6                 130685129.607 6                      2824.807  
                        37.000                  
 26  4 14  1  8 30.0000000  0 11G16G08G10G15G18G20G23G24G27G32G02
  25784980.588 5                 135500967.777 5                     -3416.698  
                        34.000                  
  22437516.079 7  22437515.888 7 117909942.529 7  91877888.201 7      1166.347  
       908.782          44.000          44.000  
  20947705.800 8  20947703.773 7 110080936.596 8  85777344.288 7       577.972  
       450.378          51.000          46.000  
  23340857.582 7  23340854.561 6 122657023.020 7  95576892.775 6     -3782.806  
     -2948.063          42.000          39.000  
  22097605.220 7  22097602.125 7 116123694.478 7  90485980.906 7     -2860.233  
     -2228.634          46.000          44.000  
  25691612.531 6  25691611.517 6 135010323.210 6 105202834.923 6     -3830.971  
     -2985.672          37.000          37.000  
  20593599.792 8  20593596.215 8 108220095.449 8  84327334.888 8     -1602.961  
     -1249.049          48.000          48.000  
  23274764.483 6  23274764.111 6 122309716.030 6  95306280.234 6      1347.226  
      1049.652          41.000          39.000  
  21365404.655 7  21365402.902 7 112275956.936 7  87487747.506 7      -921.216  
      -717.899          47.000          45.000  
  22913418.164 7  22913418.028 7 120410833.927 7  93826664.548 7      3001.223  
      2338.724          45.000          42.000  
  24852433.357 6                 130600419.608 6                      2822.858  
                        37.000                  
 26  4 14  1  9  0.0000000  0 11G16G08G10G15G18G20G23G24G27G32G02
  25804484.967 5                 135603458.328 5                     -3415.363  
                        34.000                  
  22430909.838 7  22430909.512 7 117875224.502 7  91850835.187 7      1147.755  
       894.453          44.000          44.000  
  20944437.303 8  20944434.885 7 110063758.894 8  85763959.077 7       566.968  
       441.797          51.000          47.000  
  23362479.286 7  23362476.191 6 122770646.184 7  95665430.263 6     -3791.869  
     -2955.017          42.000          38.000  
  22113963.816 7  22113961.234 7 116209658.594 7  90552965.884 7     -2870.776  
     -2237.027          46.000          44.000  
  25713495.214 6  25713493.464 6 135125315.004 6 105292438.883 6     -3834.927  
     -2987.744          39.000          37.000  
  20602780.068 8  20602776.510 8 108268338.049 8  84364926.518 8     -1613.448  
     -1257.173          48.000          48.000  
  23267123.571 6  23267123.695 6 122269564.322 6  95274993.244 6      1329.255  
      1035.948          40.000          39.000  
  21370723.175 8  21370721.458 7 112303905.256 8  87509525.389 7      -942.060  
      -734.021          48.000          45.000  
  22896309.734 7  22896309.393 7 120320927.272 7  93756607.425 7      2992.467  
      2332.007          46.000          42.000  
  24836323.397 6                 130515760.024 6                      2820.938  
                        39.000                  
 26  4 14  1  9 30.0000000  0 11G16G08G10G15G18G20G23G24G27G32G02
  25823986.297 5                 135705938.508 5                     -3415.209  
                        35.000                  
  22424411.922 7  22424411.253 7 117841077.070 7  91824226.810 7      1129.087  
       879.655          44.000          43.000  
  20941233.764 8  20941231.605 7 110046924.916 8  85750841.694 7       555.579  
       433.002          51.000          47.000  
  23384156.455 7  23384153.988 6 122884559.529 7  95754193.849 6     -3801.738  
     -2962.438          42.000          40.000  
  22130385.590 7  22130382.257 7 116295954.154 7  90620209.151 7     -2881.792  
     -2245.764          46.000          44.000  
  25735400.905 6  25735399.318 6 135240430.804 6 105382139.466 6     -3839.248  
     -2991.623          39.000          38.000  
  20612022.729 7  20612019.168 8 108316907.892 7  84402773.147 8     -1624.167  
     -1265.617          47.000          48.000  
  23259587.901 6  23259587.955 6 122229963.684 6  95244135.690 6      1311.083  
      1021.369          41.000          39.000  
  21376163.747 8  21376161.866 7 112332494.657 8  87531802.830 7      -963.407  
      -750.651          48.000          45.000  
  22879252.419 7  22879252.350 7 120231291.097 7  93686761.108 7      2983.528  
      2324.790          45.000          42.000  
  24820225.475 6                 130431162.133 6                      2818.866  
                        40.000                  
 26  4 14  1 10  0.0000000  0 11G16G08G10G15G18G20G23G24G27G32G02
  25843480.924 6                 135808382.950 6                     -3414.603  
                        36.000                  
  22418018.321 7  22418017.712 7 117807479.384 7  91798046.804 7      1110.139  
       864.906          44.000          43.000  
  20938091.235 8  20938089.140 7 110030412.143 8  85737974.610 7       544.397  
       424.237          51.000          47.000  
  23405883.388 6  23405881.580 6 122998738.063 6  95843164.058 6     -3810.951  
     -2969.785          40.000          41.000  
  22146865.818 7  22146862.666 7 116382557.986 7  90687692.606 7     -2892.615  
     -2253.970          46.000          44.000  
  25757325.397 6  25757324.480 6 135355645.631 6 105471917.250 6     -3842.877  
     -2994.400          38.000          38.000  
  20621323.120 8  20621319.414 8 108365781.675 8  84440856.599 8     -1634.829  
     -1273.996          48.000          48.000  
  23252153.204 6  23252153.076 6 122190894.327 6  95213692.085 6      1292.968  
      1007.382          40.000          39.000  
  21381721.658 8  21381719.698 7 112361701.997 8  87554561.781 7      -984.398  
      -767.113          48.000          45.000  
  22862242.822 7  22862242.700 7 120141905.353 7  93617109.910 7      2974.588  
      2317.775          46.000          42.000  
  24804134.902 6                 130346604.961 6                      2817.181  
                        41.000                  
 26  4 14  1 10 30.0000000  0 11G16G08G10G15G18G20G23G24G27G32G02
  25862965.965 5                 135910780.054 5                     -3411.626  
                        35.000                  
  22411727.723 7  22411727.391 7 117774423.860 7  91772289.253 7      1093.730  
       852.096          43.000          43.000  
  20935008.395 8  20935006.470 7 110014211.418 8  85725350.693 7       535.339  
       417.072          51.000          47.000  
  23427659.245 6  23427657.277 6 123113169.959 6  95932331.686 6     -3818.338  
     -2975.159          40.000          41.000  
  22163402.601 7  22163399.403 7 116469460.191 7  90755408.578 7     -2901.380  
     -2260.676          45.000          43.000  
  25779266.847 6  25779265.951 6 135470948.485 6 105561763.665 6     -3844.342  
     -2996.117          38.000          38.000  
  20630679.495 8  20630675.791 8 108414949.339 8  84479169.056 8     -1643.298  
     -1280.580          48.000          48.000  
  23244818.791 6  23244818.198 6 122152349.694 6  95183657.354 6      1276.554  
       994.576          41.000          40.000  
  21387395.101 7  21387393.918 7 112391517.398 7  87577794.563 7     -1003.470  
      -782.031          47.000          45.000  
  22845279.783 7  22845279.966 7 120052763.221 7  93547648.558 7      2967.819  
      2312.590          45.000          42.000  
  24788050.004 6                 130262080.531 6                      2817.305  
                        41.000                  
 26  4 14  1 11  0.0000000  0 11G16G08G10G15G18G20G23G24G27G32G02
  25882436.564 6                 136013099.156 6                     -3409.513  
                        36.000                  
  22405535.960 7  22405535.199 7 117741884.059 7  91746933.569 7      1076.186  
       838.503          44.000          44.000  
  20931979.865 8  20931977.444 7 109998294.722 8  85712948.070 7       525.867  
       409.741          51.000          47.000  
  23449477.883 6  23449475.339 6 123227824.300 6  96021672.667 6     -3825.532  
     -2981.162          41.000          40.000  
  22179990.565 7  22179987.664 7 116556632.044 7  90823334.677 7     -2910.234  
     -2267.731          45.000          44.000  
  25801218.556 6  25801218.107 6 135586309.956 6 105651655.758 6     -3846.500  
     -2997.157          37.000          38.000  
  20640085.785 7  20640082.256 8 108464381.985 7  84517687.997 8     -1652.149  
     -1287.477          47.000          48.000  
  23237578.537 6  23237578.518 6 122114304.365 6  95154011.670 6      1259.713  
       981.567          40.000          40.000  
  21393179.107 7  21393177.786 7 112421912.130 7  87601478.739 7     -1022.783  
      -797.006          47.000          45.000  
  22828357.589 7  22828358.051 7 119963839.028 7  93478357.031 7      2960.600  
      2306.771          45.000          42.000  
  24771966.585 7                 130177562.185 7                      2817.307  
                        42.000                  
 26  4 14  1 11 30.0000000  0 11G16G08G10G15G18G20G23G24G27G32G02
  25901887.781 5                 136115313.104 5                     -3406.139  
                        35.000                  
  22399437.798 7  22399437.486 7 117709837.547 7  91721962.265 7      1059.035  
       825.283          44.000          44.000  
  20929000.366 8  20928997.994 7 109982638.043 8  85700748.067 7       516.748  
       402.631          51.000          46.000  
  23471332.852 6  23471330.466 6 123342674.272 6  96111166.085 6     -3832.242  
     -2986.203          41.000          40.000  
  22196625.548 7  22196622.963 7 116644048.861 7  90891451.624 7     -2918.799  
     -2274.370          45.000          44.000  
  25823177.170 6  25823177.289 6 135701703.510 6 105741572.829 6     -3847.710  
     -2998.091          37.000          37.000  
  20649538.516 8  20649534.719 8 108514054.765 8  84556394.044 8     -1660.539  
     -1293.956          48.000          48.000  
  23230429.572 6  23230429.700 6 122076736.927 6  95124738.429 6      1243.590  
       968.887          40.000          40.000  
  21399068.422 7  21399067.002 7 112452861.449 7  87625595.087 7     -1041.796  
      -811.758          47.000          45.000  
  22811473.587 7  22811473.634 7 119875111.169 7  93409218.486 7      2953.555  
      2301.396          46.000          42.000  
  24755880.037 7                 130093027.697 7                      2817.253  
                        42.000                  
 26  4 14  1 12  0.0000000  0 11G16G08G10G15G18G20G23G24G27G32G02
  25921329.806 6                 136217480.939 6                     -3404.578  
                        37.000                  
  22393445.123 7  22393444.874 7 117678346.706 7  91697423.980 7      1040.260  
       810.715          44.000          44.000  
  20926081.799 8  20926079.585 7 109967302.321 8  85688798.161 7       505.743  
       394.073          51.000          46.000  
  23493236.272 6  23493234.061 6 123457778.146 6  96200857.342 6     -3841.150  
     -2992.986          41.000          39.000  
  22213318.431 7  22213315.810 7 116731770.776 7  90959806.315 7     -2929.129  
     -2282.345          45.000          44.000  
  25845153.040 6  25845153.335 6 135817188.183 6 105831560.931 6     -3851.007  
     -3000.613          37.000          37.000  
  20659048.013 7  20659044.285 8 108564027.701 7  84595333.988 8     -1670.831  
     -1302.034          47.000          48.000  
  23223383.754 6  23223383.713 6 122039710.893 6  95095887.016 6      1224.991  
       954.410          40.000          39.000  
  21405074.875 7  21405073.592 7 112484425.474 7  87650190.406 7     -1062.654  
      -827.982          47.000          45.000  
  22794638.744 7  22794638.665 7 119786642.922 7  93340282.251 7      2944.312  
      2294.321          46.000          43.000  
  24739802.499 7                 130008538.990 7                      2815.425  
                        42.000                  
 26  4 14  1 12 30.0000000  0 11G16G08G10G15G18G20G23G24G27G32G02
  25940759.939 6                 136319587.672 6                     -3402.651  
                        36.000                  
  22387556.444 7  22387555.839 7 117647401.068 7  91673310.496 7      1022.299  
       796.998          44.000          44.000  
  20923222.424 8  20923220.193 7 109952275.484 8  85677088.947 7       495.630  
       386.298          51.000          46.000  
  23515185.543 6  23515183.035 6 123573121.235 6  96290735.027 6     -3848.550  
     -2999.034          41.000          39.000  
  22230067.110 7  22230064.623 7 116819785.047 7  91028388.831 7     -2938.775  
     -2290.018          45.000          44.000  
  25867143.849 6  25867143.427 6 135932750.377 6 105921609.552 6     -3853.427  
     -3002.457          38.000          37.000  
  20668612.296 7  20668608.461 8 108614287.887 7  84634497.760 8     -1680.113  
     -1309.290          47.000          48.000  
  23216439.137 6  23216439.109 6 122003216.726 6  95067450.020 6      1207.488  
       941.132          41.000          40.000  
  21411195.806 7  21411194.746 7 112516591.350 7  87675254.708 7     -1082.244  
      -843.331          47.000          45.000  
  22777851.240 7  22777850.973 7 119698424.534 7  93271540.734 7      2936.425  
      2287.983          46.000          42.000  
  24723731.339 7                 129924085.582 7                      2814.543  
                        42.000                  
 26  4 14  1 13  0.0000000  0 11G16G08G10G15G18G23G24G27G32G02G20
  25960179.888 6                 136421638.783 6                     -3400.279  
                        36.000                  
  22381773.340 7  22381773.249 7 117617010.037 7  91649629.207 7      1004.051  
       782.485          44.000          44.000  
  20920423.362 8  20920421.032 7 109937565.445 8  85665626.599 7       485.364  
       378.137          51.000          46.000  
  23537181.422 7  23537178.589 6 123688708.501 7  96380802.980 6     -3856.809  
     -3005.585          42.000          38.000  
  22246872.819 7  22246870.433 7 116908098.872 7  91097204.741 7     -2948.627  
     -2297.586          45.000          44.000  
  20678232.443 8  20678228.859 8 108664842.410 8  84673890.890 8     -1689.878  
     -1316.757          48.000          48.000  
  23209597.506 6  23209597.462 6 121967264.875 6  95039435.683 6      1189.632  
       926.888          41.000          40.000  
  21417432.903 7  21417431.107 7 112549366.245 7  87700793.573 7     -1102.583  
      -859.122          47.000          44.000  
  22761113.323 7  22761112.953 7 119610466.320 7  93203001.932 7      2927.732  
      2281.303          46.000          43.000  
  24707668.832 7                 129839676.884 7                      2812.788  
                        42.000                  
                  25889147.828 3                                                
     -3012.002                          22.000  
 26  4 14  1 13 30.0000000  0 10G16G08G10G15G18G23G24G27G32G02
  25981524.951 6                 136533807.309 6                     -3398.184  
                        37.000                  
  22375530.674 7  22375529.854 7 117584202.341 7  91624064.782 7       983.949  
       766.681          44.000          44.000  
  20917409.710 8  20917407.810 7 109921730.424 8  85653287.629 7       473.755  
       369.220          51.000          47.000  
  23561425.869 7  23561423.176 6 123816113.903 7  96480079.867 6     -3865.278  
     -3011.798          43.000          38.000  
  22265420.908 7  22265417.982 7 117005569.280 7  91173155.646 7     -2959.396  
     -2305.893          45.000          44.000  
  20688875.161 7  20688872.041 8 108720771.404 7  84717471.908 8     -1700.360  
     -1324.908          47.000          48.000  
  23202188.139 6  23202187.772 6 121928327.401 6  95009094.827 6      1169.654  
       911.571          41.000          39.000  
  21424423.027 7  21424421.380 7 112586101.059 7  87729418.101 7     -1124.639  
      -876.354          47.000          45.000  
  22742755.053 7  22742755.264 7 119513995.645 7  93127830.057 7      2918.416  
      2273.991          46.000          43.000  
  24690006.322 6                 129746861.174 6                      2811.621  
                        41.000                  
 26  4 14  1 14  0.0000000  0 10G16G08G10G15G18G23G24G27G32G02
  25998980.217 5                 136625534.968 5                     -3396.254  
                        35.000                  
  22370519.355 7  22370518.919 7 117557870.013 7  91603546.107 7       967.496  
       753.524          44.000          44.000  
  20915000.360 8  20914998.208 7 109909068.121 8  85643420.916 7       464.618  
       361.908          51.000          46.000  
  23581304.361 7  23581302.006 6 123920578.291 7  96561480.656 6     -3872.147  
     -3017.517          42.000          36.000  
  22280649.056 7  22280646.505 7 117085594.534 7  91235512.948 7     -2968.028  
     -2312.684          45.000          45.000  
  20697634.758 7  20697631.601 8 108766803.324 7  84753340.926 8     -1708.868  
     -1331.500          47.000          48.000  
  23196221.283 6  23196220.966 6 121896970.669 6  94984661.039 6      1153.544  
       898.766          41.000          40.000  
  21430248.027 7  21430246.511 7 112616711.844 7  87753270.655 7     -1142.318  
      -890.175          47.000          44.000  
  22727782.419 7  22727782.315 7 119435312.053 7  93066518.218 7      2910.413  
      2267.842          46.000          43.000  
  24675565.036 6                 129670972.503 6                      2810.385  
                        40.000                  
 26  4 14  1 14 30.0000000  0 10G16G08G10G15G18G23G24G27G32G02
  26018366.382 5                 136727408.958 5                     -3394.408  
                        33.000                  
  22365055.680 7  22365055.371 7 117529157.516 7  91581172.735 7       947.926  
       738.648          44.000          44.000  
  20912382.992 8  20912381.032 7 109895314.407 8  85632703.732 7       453.265  
       353.284          51.000          46.000  
  23603437.917 7  23603434.699 5 124036889.014 7  96652112.356 5     -3880.865  
     -3023.936          42.000          35.000  
  22297625.926 7  22297622.851 7 117174808.470 7  91305030.255 7     -2978.704  
     -2321.162          45.000          44.000  
  20707423.197 7  20707419.964 8 108818241.581 7  84793422.685 8     -1719.348  
     -1339.868          47.000          48.000  
  23189693.652 6  23189692.882 6 121862666.805 6  94957930.800 6      1134.229  
       883.787          41.000          40.000  
  21436832.826 7  21436831.053 7 112651314.413 7  87780233.696 7     -1163.472  
      -906.539          47.000          45.000  
  22711196.644 7  22711196.445 7 119348154.230 7  92998603.109 7      2900.959  
      2260.564          46.000          43.000  
  24659530.920 6                 129586712.818 6                      2808.105  
                        40.000                  
 26  4 14  1 15  0.0000000  0 10G16G08G10G15G18G23G24G27G32G02
  26037739.182 5                 136829221.318 5                     -3393.291  
                        34.000                  
  22359699.012 7  22359698.316 7 117501009.545 7  91559239.266 7       928.411  
       723.411          44.000          44.000  
  20909826.755 8  20909824.732 7 109881881.616 8  85622236.628 7       442.151  
       344.409          51.000          47.000  
  23625616.510 7  23625613.553 5 124153437.580 7  96742929.436 5     -3889.122  
     -3030.900          43.000          35.000  
  22314660.217 7  22314657.325 7 117264323.123 7  91374781.877 7     -2989.234  
     -2329.137          45.000          44.000  
  20717267.943 7  20717264.315 8 108869974.901 7  84833734.343 8     -1729.791  
     -1347.888          47.000          48.000  
  23183271.602 6  23183270.705 6 121828919.313 6  94931634.096 6      1115.075  
       869.012          41.000          39.000  
  21443533.685 7  21443531.855 7 112686526.588 7  87807671.737 7     -1184.463  
      -922.810          47.000          45.000  
  22694663.373 7  22694662.999 7 119261270.061 7  92930901.223 7      2891.247  
      2252.988          46.000          43.000  
  24643507.712 6                 129502507.810 6                      2805.467  
                        40.000                  
 26  4 14  1 15 30.0000000  0 10G16G08G10G15G18G23G24G27G32G02
  26057104.182 4                 136930976.994 4                     -3391.104  
                        27.000                  
  22354451.806 7  22354451.251 7 117473434.896 7  91537752.540 7       909.678  
       708.904          44.000          44.000  
  20907333.108 8  20907330.874 7 109868777.093 8  85612025.323 7       431.580  
       336.249          51.000          47.000  
  23647841.088 7  23647838.337 6 124270228.750 7  96833935.532 6     -3896.796  
     -3036.705          42.000          38.000  
  22331752.786 7  22331750.185 7 117354145.084 7  91444772.972 7     -2998.966  
     -2336.897          45.000          45.000  
  20727169.713 7  20727166.222 8 108922009.774 7  84874280.982 8     -1739.178  
     -1355.237          47.000          48.000  
  23176957.313 7  23176956.598 6 121795738.132 7  94905778.658 6      1096.793  
       854.854          42.000          40.000  
  21450351.253 7  21450349.710 7 112722354.781 7  87835589.825 7     -1204.310  
      -938.464          47.000          45.000  
  22678183.603 7  22678183.608 7 119174669.212 7  92863420.124 7      2882.244  
      2245.860          46.000          43.000  
  24627495.847 6                 129418366.714 6                      2804.057  
                        41.000                  
 26  4 14  1 16  0.0000000  0  9G08G10G15G18G23G24G27G32G02
  22349307.913 7  22349307.586 7 117446403.333 7  91516689.009 7       891.697  
       694.840          44.000          44.000  
  20904895.883 8  20904893.726 7 109855969.251 8  85602045.192 7       421.613  
       328.418          51.000          46.000  
  23670105.026 6  23670102.945 6 124387228.463 6  96925104.064 6     -3903.638  
     -3041.642          41.000          39.000  
  22348897.473 7  22348895.054 7 117444241.984 7  91514978.285 7     -3008.140  
     -2343.998          45.000          44.000  
  20737122.698 7  20737119.369 8 108974313.783 7  84915037.345 8     -1748.291  
     -1362.177          47.000          48.000  
  23170744.980 6  23170744.925 6 121763093.968 6  94880341.719 6      1078.824  
       840.379          41.000          40.000  
  21457280.556 7  21457278.719 7 112758766.496 7  87863962.570 7     -1223.933  
      -953.605          47.000          44.000  
  22661752.242 7  22661751.880 7 119088322.429 7  92796136.994 7      2873.546  
      2238.904          46.000          43.000  
  24611490.151 6                 129334258.798 6                      2802.650  
                        41.000                  
 26  4 14  1 16 30.0000000  0  9G08G10G15G18G23G24G27G32G02
  22344268.069 7  22344267.286 7 117419918.169 7  91496051.246 7       874.262  
       681.383          44.000          44.000  
  20902515.425 8  20902513.296 7 109843459.968 8  85592297.700 7       412.714  
       321.613          51.000          46.000  
  23692408.261 6  23692406.940 6 124504435.762 6  97016434.343 6     -3909.973  
     -3046.460          38.000          40.000  
  22366095.569 7  22366092.578 7 117534614.960 7  91585398.729 7     -3016.321  
     -2350.458          45.000          44.000  
  20747127.356 7  20747124.036 8 109026888.009 7  84956004.262 8     -1756.360  
     -1368.628          47.000          48.000  
  23164636.369 6  23164635.938 6 121730991.157 6  94855326.557 6      1061.763  
       827.425          41.000          40.000  
  21464320.666 8  21464319.100 7 112795762.588 8  87892790.699 7     -1242.301  
      -968.007          48.000          45.000  
  22645369.950 7  22645369.635 7 119002233.899 7  92729055.066 7      2865.881  
      2233.181          46.000          42.000  
  24595491.962 7                 129250187.879 7                      2802.533  
                        42.000                  
 26  4 14  1 17  0.0000000  0  9G08G10G15G18G23G24G27G32G02
  22339331.004 7  22339330.854 7 117393975.595 7  91475836.262 7       855.403  
       666.666          45.000          44.000  
  20900190.939 8  20900188.484 7 109831244.117 8  85582778.869 7       402.173  
       313.275          51.000          46.000  
  23714750.677 6  23714748.642 6 124621842.833 6  97107920.293 6     -3917.188  
     -3052.295          39.000          40.000  
  22383343.897 7  22383341.051 7 117625258.199 7  91656029.787 7     -3026.265  
     -2358.249          45.000          44.000  
  20757182.388 7  20757178.945 8 109079726.417 7  84997177.042 8     -1765.930  
     -1376.105          47.000          48.000  
  23158629.284 6  23158629.242 6 121699426.933 6  94830731.119 6      1043.093  
       812.502          41.000          39.000  
  21471470.886 7  21471469.408 7 112833336.964 7  87922069.420 7     -1262.350  
      -983.627          47.000          45.000  
  22629036.564 7  22629036.248 7 118916400.830 7  92662172.223 7      2856.568  
      2225.774          46.000          43.000  
  24579500.158 7                 129166149.985 7                      2800.681  
                        43.000                  
 26  4 14  1 17 30.0000000  0  9G08G10G15G18G23G24G27G32G02
  22334497.708 7  22334497.010 7 117368574.731 7  91456043.393 7       837.604  
       652.682          45.000          44.000  
  20897921.614 8  20897919.429 7 109819319.452 8  85573486.919 7       392.609  
       306.055          51.000          46.000  
  23737130.142 6  23737127.676 6 124739444.845 6  97199558.163 6     -3923.407  
     -3057.037          40.000          40.000  
  22400643.717 7  22400640.943 7 117716168.580 7  91726868.996 7     -3034.770  
     -2364.753          44.000          44.000  
  20767286.769 7  20767283.484 8 109132826.003 7  85038553.324 8     -1774.402  
     -1382.648          47.000          48.000  
  23152725.608 6  23152725.095 6 121668401.467 6  94806555.459 6      1025.133  
       799.039          40.000          39.000  
  21478730.663 8  21478728.637 7 112871486.347 8  87951796.213 7     -1281.133  
      -998.391          48.000          44.000  
  22612751.829 7  22612751.161 7 118830823.323 7  92595488.501 7      2848.126  
      2219.413          46.000          43.000  
  24563514.976 7                 129082144.818 7                      2799.507  
                        43.000                  
 26  4 14  1 18  0.0000000  0  9G08G10G15G18G23G24G27G32G02
  22329764.108 7  22329763.589 7 117343699.799 7  91436660.341 7       820.114  
       639.160          44.000          44.000  
  20895704.685 8  20895702.242 7 109807668.894 8  85564408.566 7       383.368  
       298.767          51.000          46.000  
  23759542.166 6  23759539.778 6 124857222.403 6  97291332.843 6     -3929.175  
     -3061.737          39.000          40.000  
  22417990.117 7  22417988.073 7 117807328.300 7  91797902.464 7     -3042.857  
     -2371.049          44.000          44.000  
  20777437.712 8  20777434.160 8 109186168.841 8  85080119.169 8     -1782.373  
     -1388.989          48.000          48.000  
  23146921.345 6  23146920.668 6 121637899.990 6  94782788.128 6      1007.656  
       785.240          41.000          39.000  
  21486095.768 7  21486093.928 7 112910192.663 7  87981956.978 7     -1299.844  
     -1012.866          47.000          44.000  
  22596512.315 7  22596512.152 7 118745486.537 7  92528992.368 7      2840.386  
      2213.246          46.000          43.000  
  24547532.407 7                 128998156.464 7                      2799.182  
                        42.000                  
 26  4 14  1 18 30.0000000  0  9G08G10G15G18G23G24G27G32G02
  22325130.146 7  22325129.439 7 117319347.803 7  91417684.788 7       802.780  
       625.448          45.000          44.000  
  20893538.847 8  20893536.706 7 109796288.140 8  85555540.452 7       374.677  
       291.876          51.000          46.000  
  23781986.191 6  23781983.994 6 124975168.289 6  97383238.670 6     -3934.582  
     -3065.631          39.000          40.000  
  22435384.499 7  22435381.904 7 117898732.288 7  91869126.296 7     -3051.004  
     -2377.428          44.000          44.000  
  20787633.840 7  20787630.263 8 109239749.855 7  85121870.592 8     -1790.204  
     -1394.971          47.000          48.000  
  23141216.611 7  23141215.844 6 121607920.548 7  94759427.565 6       990.119  
       771.619          42.000          39.000  
  21493566.341 8  21493564.445 7 112949450.523 8  88012547.508 7     -1318.068  
     -1026.918          48.000          45.000  
  22580318.709 7  22580318.716 7 118660388.585 7  92462682.320 7      2832.171  
      2206.977          46.000          43.000  
  24531552.500 7                 128914182.368 7                      2798.463  
                        42.000                  
 26  4 14  1 19  0.0000000  0  9G08G10G15G18G23G24G27G32G02
  22320594.320 7  22320593.054 7 117295512.731 7  91399111.997 7       785.923  
       612.463          45.000          43.000  
  20891423.072 8  20891420.705 7 109785169.883 8  85546876.890 7       366.290  
       285.413          51.000          46.000  
  23804460.894 6  23804458.910 6 125093272.847 6  97475268.099 6     -3939.209  
     -3069.525          40.000          40.000  
  22452822.615 7  22452820.513 7 117990372.435 7  91940534.148 7     -3058.511  
     -2383.128          44.000          44.000  
  20797873.738 7  20797870.101 8 109293560.923 7  85163801.286 8     -1797.394  
     -1400.470          47.000          48.000  
  23135609.944 6  23135609.330 6 121578458.097 6  94736469.868 6       973.472  
       758.604          41.000          39.000  
  21501140.571 8  21501138.662 7 112989251.566 8  88043561.319 7     -1335.566  
     -1040.654          48.000          44.000  
  22564169.576 7  22564169.263 7 118575524.401 7  92396554.422 7      2825.002  
      2201.668          46.000          43.000  
  24515573.914 6                 128830216.671 6                      2798.888  
                        40.000                  
 26  4 14  1 19 30.0000000  0  9G08G10G15G18G23G24G27G32G02
  22316158.803 7  22316157.682 7 117272202.833 7  91380948.452 7       768.333  
       598.820          45.000          44.000  
  20889358.908 8  20889356.327 7 109774321.146 8  85538423.316 7       357.349  
       278.467          52.000          46.000  
  23826966.843 6  23826964.706 6 125211540.313 6  97567424.473 6     -3944.745  
     -3073.669          41.000          40.000  
  22470308.010 7  22470305.298 7 118082254.972 7  92012130.889 7     -3066.575  
     -2389.595          44.000          44.000  
  20808158.600 7  20808155.053 8 109347608.198 7  85205916.036 8     -1805.298  
     -1406.653          47.000          48.000  
  23130103.608 7  23130102.888 6 121549521.996 7  94713922.276 6       956.045  
       745.042          42.000          39.000  
  21508819.043 7  21508816.721 7 113029601.657 7  88075002.930 7     -1353.973  
     -1055.051          47.000          44.000  
  22548066.607 7  22548066.541 7 118490903.309 7  92330615.972 7      2816.834  
      2194.985          46.000          43.000  
  24499598.462 6                 128746268.144 6                      2798.315  
                        38.000                  
 26  4 14  1 20  0.0000000  0  9G08G10G15G18G23G24G27G32G02
  22311822.577 7  22311821.798 7 117249416.836 7  91363193.146 7       750.706  
       584.895          45.000          44.000  
  20887345.202 8  20887342.619 7 109763739.381 8  85530177.800 7       347.992  
       271.155          51.000          46.000  
  23849502.537 7  23849500.577 6 125329965.454 7  97659703.758 6     -3950.415  
     -3078.357          42.000          40.000  
  22487837.509 7  22487835.161 7 118174376.596 7  92083913.895 7     -3075.130  
     -2396.126          44.000          44.000  
  20818487.753 7  20818484.216 8 109401888.390 7  85248212.297 8     -1813.470  
     -1413.226          47.000          48.000  
  23124697.201 7  23124696.549 6 121521111.955 7  94691784.614 6       937.979  
       730.955          42.000          39.000  
  21516600.952 7  21516599.113 7 113070497.192 7  88106869.589 7     -1372.378  
     -1069.458          47.000          45.000  
  22532009.886 7  22532009.936 7 118406525.087 7  92264866.770 7      2808.176  
      2188.287          46.000          43.000  
  24483626.579 6                 128662335.794 6                      2797.489  
                        39.000                  
 26  4 14  1 20 30.0000000  0  9G08G10G15G18G23G24G27G32G02
  22307588.359 7  22307588.064 7 117227166.496 7  91345855.230 7       732.149  
       570.613          45.000          44.000  
  20885384.067 8  20885381.802 7 109753435.096 8  85522148.494 7       338.348  
       263.696          51.000          46.000  
  23872069.491 7  23872067.663 6 125448556.680 7  97752112.424 6     -3956.170  
     -3082.709          42.000          39.000  
  22505415.806 7  22505412.724 7 118266746.955 7  92155890.741 7     -3083.647  
     -2402.669          45.000          44.000  
  20828862.903 7  20828859.909 8 109456411.174 7  85290697.574 8     -1821.875  
     -1419.666          47.000          48.000  
  23119393.784 7  23119392.983 6 121493240.739 7  94670066.824 6       919.770  
       716.624          42.000          40.000  
  21524488.608 8  21524487.003 7 113111947.509 8  88139168.529 7     -1391.217  
     -1084.153          48.000          45.000  
  22516001.955 7  22516001.846 7 118322402.524 7  92199316.767 7      2798.958  
      2181.349          46.000          43.000  
  24467660.676 6                 128578431.675 6                      2796.576  
                        40.000                  
 26  4 14  1 21  0.0000000  0  9G08G10G15G18G23G24G27G32G02
  22303462.720 7  22303462.044 7 117205485.787 7  91328961.189 7       713.570  
       555.944          45.000          44.000  
  20883482.527 8  20883479.985 7 109743441.119 8  85514360.977 7       328.363  
       255.957          51.000          46.000  
  23894674.521 7  23894671.878 6 125567343.743 7  97844673.720 6     -3962.469  
     -3087.384          42.000          37.000  
  22523046.342 7  22523043.875 7 118359398.094 7  92228086.408 7     -3092.622  
     -2410.044          44.000          44.000  
  20839290.537 7  20839287.319 8 109511208.593 7  85333396.843 8     -1830.804  
     -1426.440          47.000          48.000  
  23114199.116 7  23114198.579 6 121465943.351 7  94648796.162 6       900.878  
       701.752          42.000          40.000  
  21532488.013 7  21532486.566 7 113153984.275 7  88171924.441 7     -1410.683  
     -1099.154          47.000          45.000  
  22500049.168 7  22500049.007 7 118238570.740 7  92133993.377 7      2789.819  
      2173.823          46.000          43.000  
  24451706.288 6                 128494590.061 6                      2794.434  
                        41.000                  
 26  4 14  1 21 30.0000000  0  9G08G10G15G18G23G24G27G32G02
  22299436.412 7  22299435.926 7 117184327.163 7  91312473.955 7       696.467  
       542.667          45.000          44.000  
  20881630.611 8  20881627.832 7 109733708.650 8  85506777.243 7       319.916  
       249.359          52.000          46.000  
  23917306.198 7  23917303.870 5 125686275.560 7  97937347.821 5     -3966.766  
     -3090.765          42.000          34.000  
  22540721.363 7  22540718.518 7 118452280.479 7  92300462.213 7     -3099.927  
     -2415.592          45.000          44.000  
  20849760.967 7  20849757.724 8 109566231.061 7  85376271.490 8     -1837.817  
     -1432.159          47.000          48.000  
  23109104.707 6  23109104.199 6 121439173.247 6  94627936.383 6       883.503  
       688.313          41.000          40.000  
  21540589.205 7  21540587.603 7 113196557.517 7  88205098.396 7     -1428.088  
     -1112.771          47.000          44.000  
  22484143.323 7  22484142.906 7 118154983.260 7  92068860.338 7      2782.142  
      2167.993          46.000          43.000  
  24435754.775 6                 128410763.969 6                      2793.790  
                        41.000                  
 26  4 14  1 22  0.0000000  0  9G08G10G15G18G23G24G27G32G02
  22295512.378 7  22295512.144 7 117163705.184 7  91296404.880 7       678.428  
       528.545          45.000          45.000  
  20879830.833 8  20879828.207 7 109724251.101 8  85499407.732 7       310.785  
       242.212          51.000          46.000  
  23939967.761 6  23939965.072 5 125805362.996 6  98030143.272 5     -3971.985  
     -3095.435          41.000          32.000  
  22558443.101 7  22558440.399 7 118545406.625 7  92373027.988 7     -3108.217  
     -2422.052          45.000          44.000  
  20860276.489 7  20860273.254 8 109621491.219 7  85419331.342 8     -1845.874  
     -1438.440          47.000          48.000  
  23104113.675 6  23104113.193 6 121412946.001 6  94607499.561 6       865.070  
       674.319          40.000          40.000  
  21548795.306 7  21548793.404 7 113239679.420 7  88238699.871 7     -1446.415  
     -1127.025          47.000          44.000  
  22468286.182 7  22468286.110 7 118071655.702 7  92003929.840 7      2773.317  
      2161.101          47.000          43.000  
  24419808.600 6                 128326968.409 6                      2792.617  
                        41.000                  
 26  4 14  1 22 30.0000000  0  9G08G10G15G18G23G24G27G32G02
  22291687.559 7  22291687.585 7 117143608.209 7  91280744.910 7       661.040  
       515.010          45.000          44.000  
  20878080.978 8  20878078.557 7 109715055.734 8  85492242.528 7       302.045  
       235.236          51.000          46.000  
  23962656.124 6  23962653.503 5 125924590.756 6  98123048.017 5     -3976.562  
     -3098.865          39.000          34.000  
  22576208.036 7  22576205.553 7 118638763.020 7  92445773.161 7     -3115.953  
     -2427.832          45.000          44.000  
  20870834.889 7  20870831.616 8 109676975.493 7  85462565.824 8     -1853.412  
     -1444.012          47.000          48.000  
  23099224.022 6  23099223.602 6 121387250.990 6  94587477.515 6       847.829  
       660.079          41.000          40.000  
  21557102.797 7  21557101.266 7 113283336.023 7  88272717.995 7     -1464.318  
     -1140.916          47.000          45.000  
  22452477.242 7  22452476.865 7 117988577.608 7  91939193.733 7      2765.056  
      2154.832          47.000          43.000  
  24403866.720 7                 128243192.102 7                      2791.938  
                        42.000                  
 26  4 14  1 23  0.0000000  0  9G08G10G15G18G23G24G27G32G02
  22287964.937 7  22287964.464 7 117124044.336 7  91265500.333 7       644.071  
       501.887          45.000          44.000  
  20876382.112 8  20876380.008 7 109706129.458 8  85485286.987 7       293.896  
       229.028          51.000          47.000  
  23985371.894 6  23985369.400 6 126043963.412 6  98216065.580 6     -3980.838  
     -3101.893          39.000          36.000  
  22594018.727 7  22594015.506 7 118732355.760 7  92518702.526 7     -3122.880  
     -2433.265          46.000          44.000  
  20881437.332 7  20881433.809 8 109732690.064 7  85505979.768 8     -1860.095  
     -1449.384          47.000          48.000  
  23094437.514 6  23094437.155 6 121362097.328 6  94567877.304 6       830.321  
       646.870          41.000          40.000  
  21565513.079 7  21565511.536 7 113327533.008 7  88307157.188 7     -1481.290  
     -1154.248          47.000          45.000  
  22436716.987 7  22436716.708 7 117905758.179 7  91874659.214 7      2757.217  
      2148.089          47.000          43.000  
  24387929.972 7                 128159443.624 7                      2791.925  
                        42.000                  
 26  4 14  1 23 30.0000000  0  9G08G10G15G18G23G24G27G32G02
  22284337.723 7  22284336.994 7 117104980.396 7  91250645.317 7       626.025  
       487.818          45.000          44.000  
  20874728.430 8  20874726.024 7 109697438.017 8  85478514.454 7       284.790  
       221.851          51.000          46.000  
  24008108.337 6  24008105.978 6 126163444.211 6  98309167.476 6     -3985.846  
     -3105.794          38.000          37.000  
  22611866.825 7  22611864.193 7 118826149.758 7  92591788.704 7     -3130.881  
     -2439.562          45.000          44.000  
  20892076.194 7  20892073.051 7 109788599.890 7  85549545.855 7     -1867.932  
     -1455.426          47.000          47.000  
  23089747.698 6  23089747.469 6 121337452.887 6  94548673.860 6       811.751  
       632.701          40.000          40.000  
  21574019.725 7  21574017.743 7 113372234.859 7  88341989.797 7     -1499.560  
     -1168.481          47.000          45.000  
  22421000.306 7  22420999.628 7 117823165.408 7  91810301.255 7      2748.276  
      2141.600          47.000          43.000  
  24371992.102 7                 128075690.446 7                      2790.513  
                        42.000                  
 26  4 14  1 24  0.0000000  0  9G08G10G15G18G23G24G27G32G02
  22280810.092 7  22280809.052 7 117086443.322 7  91236200.858 7       609.038  
       474.478          46.000          44.000  
  20873124.176 8  20873121.618 7 109689007.288 8  85471945.062 7       276.593  
       215.417          52.000          46.000  
  24030869.966 6  24030867.869 6 126283056.332 6  98402371.618 6     -3989.720  
     -3108.226          37.000          38.000  
  22629758.374 7  22629755.814 7 118920170.056 7  92665051.213 7     -3137.892  
     -2445.249          45.000          44.000  
  20902757.678 7  20902754.053 7 109844730.046 7  85593283.640 7     -1874.762  
     -1461.017          47.000          47.000  
  23085160.419 6  23085159.868 6 121313345.541 6  94529888.980 6       794.447  
       618.971          41.000          39.000  
  21582627.026 7  21582625.269 7 113417466.102 7  88377234.923 7     -1516.621  
     -1181.825          47.000          45.000  
  22405331.664 7  22405331.067 7 117740827.393 7  91746141.837 7      2740.215  
      2135.148          47.000          43.000  
  24356058.819 7                 127991960.022 7                      2790.270  
                        42.000                  
 26  4 14  1 24 30.0000000  0  9G08G10G15G18G23G24G27G32G02
  22277381.914 7  22277381.116 7 117068429.425 7  91222164.030 7       592.444  
       461.703          45.000          44.000  
  20871568.552 8  20871565.837 7 109680832.481 8  85465575.080 7       268.860  
       209.540          51.000          46.000  
  24053655.119 6  24053652.812 6 126402792.454 6  98495672.464 6     -3992.384  
     -3111.325          36.000          39.000  
  22647691.977 7  22647688.891 7 119014411.045 7  92738485.681 7     -3144.402  
     -2449.952          45.000          44.000  
  20913479.860 7  20913476.523 7 109901075.019 7  85637188.778 7     -1881.079  
     -1465.594          47.000          47.000  
  23080674.507 6  23080673.750 6 121289772.649 6  94511520.495 6       777.451  
       606.077          41.000          39.000  
  21591333.833 7  21591332.082 7 113463220.704 7  88412887.839 7     -1533.155  
     -1194.652          47.000          45.000  
  22389711.454 7  22389710.357 7 117658741.628 7  91682178.945 7      2732.672  
      2129.427          47.000          43.000  
  24340129.213 7                 127908249.210 7                      2790.849  
                        43.000                  
 26  4 14  1 25  0.0000000  0  9G08G10G15G18G23G24G27G32G02
  22274048.893 7  22274048.979 7 117050915.899 7  91208517.172 7       575.559  
       448.325          45.000          44.000  
  20870057.037 8  20870054.520 7 109672889.765 8  85459385.971 7       260.925  
       203.180          51.000          46.000  
  24076458.844 6  24076456.501 6 126522626.467 6  98589049.533 6     -3996.005  
     -3113.943          39.000          39.000  
  22665662.676 7  22665659.801 7 119108848.070 7  92812072.915 7     -3151.111  
     -2455.206          45.000          45.000  
  20924238.205 7  20924234.500 7 109957610.196 7  85681242.167 7     -1887.732  
     -1470.911          47.000          47.000  
  23076286.718 6  23076285.487 6 121266712.447 6  94493551.550 6       760.210  
       592.404          41.000          39.000  
  21600135.528 8  21600133.594 7 113509473.503 8  88448928.976 7     -1549.894  
     -1207.878          48.000          45.000  
  22374134.837 7  22374133.905 7 117576886.524 7  91618395.802 7      2724.678  
      2123.322          47.000          43.000  
  24324198.854 7                 127824536.013 7                      2790.632  
                        42.000                  
 26  4 14  1 25 30.0000000  0  9G08G10G15G18G23G24G27G32G02
  22270812.579 7  22270812.021 7 117033908.784 7  91195264.851 7       558.938  
       435.763          45.000          44.000  
  20868590.799 8  20868588.348 7 109665184.132 8  85453381.575 7       253.485  
       197.449          51.000          46.000  
  24099281.687 6  24099279.477 6 126642560.525 6  98682504.567 6     -3998.777  
     -3115.918          41.000          40.000  
  22683672.097 7  22683668.857 7 119203485.263 7  92885816.139 7     -3157.339  
     -2460.366          45.000          44.000  
  20935033.509 7  20935029.987 7 110014339.810 7  85725447.048 7     -1893.652  
     -1475.677          47.000          47.000  
  23071996.751 6  23071996.225 6 121244171.913 6  94475987.510 6       742.959  
       579.307          41.000          39.000  
  21609032.701 8  21609031.123 7 113556228.127 8  88485361.131 7     -1566.375  
     -1220.455          48.000          45.000  
  22358603.087 7  22358602.783 7 117495269.324 7  91554798.052 7      2717.203  
      2117.129          47.000          43.000  
  24308269.558 7                 127740826.806 7                      2790.774  
                        42.000                  
 26  4 14  1 26  0.0000000  0  9G08G10G15G18G23G24G27G32G02
  22267667.304 7  22267666.823 7 117017380.552 7  91182385.725 7       542.143  
       422.362          45.000          44.000  
  20867164.087 8  20867161.779 7 109657687.089 8  85447539.740 7       245.587  
       191.260          52.000          47.000  
  24122117.454 7  24122115.568 6 126762563.854 7  98776013.600 6     -4001.930  
     -3118.416          42.000          40.000  
  22701712.774 7  22701710.550 7 119298293.240 7  92959692.423 7     -3163.990  
     -2465.437          44.000          44.000  
  20945860.124 7  20945856.645 7 110071234.581 7  85769780.624 7     -1900.110  
     -1480.670          47.000          47.000  
  23067801.269 6  23067800.691 6 121222124.537 6  94458807.760 6       725.585  
       565.619          41.000          39.000  
  21618019.555 7  21618017.614 7 113603454.681 7  88522161.037 7     -1582.928  
     -1233.612          47.000          45.000  
  22343112.419 7  22343111.580 7 117413863.734 7  91491365.177 7      2708.975  
      2110.861          47.000          43.000  
  24292335.717 7                 127657094.713 7                      2790.703  
                        42.000                  
 26  4 14  1 26 30.0000000  0  9G08G10G15G18G23G24G27G32G02
  22264628.803 7  22264627.989 7 117001413.649 7  91169943.993 7       522.725  
       407.320          45.000          43.000  
  20865792.588 8  20865790.189 7 109650480.092 8  85441923.907 7       235.223  
       183.368          52.000          46.000  
  24144981.547 7  24144979.607 6 126882715.567 7  98869638.263 6     -4007.718  
     -3122.827          42.000          40.000  
  22719801.693 7  22719799.520 7 119393352.714 7  93033764.659 7     -3172.993  
     -2472.542          43.000          44.000  
  20956733.970 7  20956730.197 7 110128375.246 7  85814305.803 7     -1909.070  
     -1487.482          47.000          47.000  
  23063715.759 6  23063715.124 6 121200653.741 6  94442077.322 6       705.753  
       549.752          41.000          39.000  
  21627111.467 7  21627109.582 7 113651233.249 7  88559391.075 7     -1602.006  
     -1248.284          47.000          44.000  
  22327677.341 7  22327676.867 7 117332753.428 7  91428162.400 7      2698.612  
      2102.857          46.000          43.000  
  24276413.610 7                 127573423.114 7                      2787.823  
                        42.000                  
 26  4 14  1 27  0.0000000  0  9G08G10G15G18G23G24G27G32G02
  22261698.255 7  22261696.760 7 116986011.268 7  91157942.121 7       504.128  
       393.067          45.000          44.000  
  20864476.659 8  20864474.232 7 109643565.356 8  85436535.815 7       225.977  
       176.007          52.000          47.000  
  24167873.903 7  24167871.934 6 127003015.248 7  98963378.238 6     -4012.030  
     -3126.445          42.000          40.000  
  22737939.288 7  22737937.006 7 119488664.884 7  93108033.851 7     -3180.799  
     -2478.667          44.000          44.000  
  20967654.490 7  20967650.982 7 110185763.238 7  85859023.713 7     -1916.656  
     -1493.530          47.000          47.000  
  23059740.108 6  23059739.490 6 121179763.725 6  94425799.411 6       687.023  
       535.043          41.000          39.000  
  21636308.871 8  21636306.751 7 113699564.613 8  88597051.863 7     -1620.007  
     -1262.492          48.000          44.000  
  22312299.481 7  22312299.028 7 117251942.844 7  91365193.180 7      2688.882  
      2095.105          47.000          43.000  
  24260503.679 7                 127489815.781 7                      2786.031  
                        42.000                  
 26  4 14  1 27 30.0000000  0  9G08G10G15G18G23G24G27G32G02
  22258865.581 7  22258864.538 7 116971123.996 7  91146341.659 7       486.904  
       379.529          45.000          44.000  
  20863207.182 8  20863204.537 7 109636892.555 8  85431336.225 7       217.755  
       169.592          52.000          47.000  
  24190784.224 6  24190782.592 6 127123410.285 6  99057192.502 6     -4015.372  
     -3129.178          41.000          40.000  
  22756115.060 7  22756112.336 7 119584178.705 7  93182460.134 7     -3187.949  
     -2484.169          44.000          44.000  
  20978612.193 7  20978608.782 7 110243347.503 7  85903894.553 7     -1923.419  
     -1498.822          47.000          47.000  
  23055866.496 6  23055865.373 6 121159406.084 6  94409936.333 6       669.222  
       520.883          41.000          38.000  
  21645601.175 7  21645599.383 7 113748397.062 7  88635103.102 7     -1636.779  
     -1275.518          47.000          45.000  
  22296969.951 7  22296969.045 7 117171383.874 7  91302419.996 7      2680.407  
      2088.868          47.000          43.000  
  24244596.589 7                 127406224.012 7                      2785.662  
                        42.000                  
 26  4 14  1 28  0.0000000  0  9G08G10G15G18G23G24G27G32G02
  22256136.953 7  22256136.443 7 116956789.582 7  91135171.992 7       468.873  
       365.424          44.000          44.000  
  20861990.281 8  20861987.820 7 109630498.505 8  85426353.872 7       208.966  
       162.726          52.000          47.000  
  24213719.382 6  24213717.377 6 127243935.035 6  99151107.830 6     -4019.534  
     -3131.908          40.000          39.000  
  22774335.677 7  22774333.757 7 119679930.033 7  93257071.505 7     -3195.151  
     -2489.856          44.000          44.000  
  20989614.366 7  20989610.703 7 110301164.134 7  85948946.463 7     -1930.716  
     -1504.590          47.000          47.000  
  23052101.008 6  23052099.889 6 121139619.555 6  94394518.253 6       650.167  
       506.375          41.000          39.000  
  21654995.750 7  21654993.896 7 113797765.929 7  88673572.332 7     -1654.331  
     -1288.974          47.000          45.000  
  22281695.121 7  22281694.562 7 117091115.551 7  91239873.315 7      2671.126  
      2081.307          47.000          43.000  
  24228699.788 7                 127322686.485 7                      2783.977  
                        42.000                  
 26  4 14  1 28 30.0000000  0  9G08G10G15G18G23G24G27G32G02
  22253514.754 7  22253513.941 7 116943007.966 7  91124433.090 7       449.090  
       349.763          44.000          44.000  
  20860826.184 8  20860823.931 7 109624382.262 8  85421587.978 7       198.340  
       154.468          52.000          47.000  
  24236678.326 6  24236676.522 6 127364585.983 6  99245121.506 6     -4024.679  
     -3136.257          38.000          38.000  
  22792601.548 7  22792599.082 7 119775917.116 7  93331866.554 7     -3204.554  
     -2497.025          44.000          43.000  
  21000660.381 7  21000656.919 7 110359211.410 7  85994178.099 7     -1939.728  
     -1511.569          47.000          47.000  
  23048444.632 7  23048443.914 6 121120405.033 7  94379545.912 6       629.856  
       490.999          42.000          39.000  
  21664492.230 7  21664490.116 7 113847668.802 7  88712457.674 7     -1673.326  
     -1304.000          47.000          45.000  
  22266476.031 7  22266475.615 7 117011139.104 7  91177554.061 7      2660.128  
      2072.779          47.000          43.000  
  24212813.628 7                 127239204.062 7                      2781.087  
                        42.000                  
 26  4 14  1 29  0.0000000  0  9G08G10G15G18G23G24G27G32G02
  22250998.772 7  22250998.533 7 116929789.066 7  91114132.662 7       432.999  
       337.353          44.000          44.000  
  20859717.086 8  20859714.585 7 109618552.885 8  85417045.610 7       191.180  
       148.859          51.000          47.000  
  24259663.230 6  24259660.858 6 127485369.873 6  99339238.760 6     -4026.745  
     -3137.636          38.000          38.000  
  22810914.023 7  22810911.442 7 119872148.040 7  93406851.658 7     -3210.139  
     -2501.354          44.000          43.000  
  21011751.679 7  21011748.301 7 110417497.675 7  86039595.954 7     -1945.123  
     -1515.768          47.000          47.000  
  23044899.227 7  23044898.796 6 121101773.449 7  94365027.832 6       613.047  
       477.676          42.000          39.000  
  21674091.152 7  21674089.235 7 113898113.249 7  88751765.016 7     -1688.850  
     -1316.024          47.000          45.000  
  22251314.694 7  22251314.290 7 116931465.786 7  91115471.014 7      2652.355  
      2066.734          47.000          44.000  
  24196939.658 7                 127155787.266 7                      2781.261  
                        42.000                  
 26  4 14  1 29 30.0000000  0  9G08G10G15G18G23G24G27G32G02
  22248577.046 7  22248577.227 7 116917063.843 7  91104216.921 7       414.761  
       323.341          45.000          44.000  
  20858648.599 8  20858646.515 7 109612940.428 8  85412672.276 7       182.336  
       141.998          51.000          47.000  
  24282658.993 6  24282657.111 6 127606214.494 6  99433403.337 6     -4030.569  
     -3140.596          37.000          37.000  
  22829259.115 7  22829256.434 7 119968552.072 7  93481971.624 7     -3217.378  
     -2507.270          44.000          42.000  
  21022875.431 7  21022871.810 7 110475952.269 7  86085144.983 7     -1952.526  
     -1521.320          47.000          47.000  
  23041452.024 7  23041451.086 6 121083656.730 7  94350910.934 6       593.994  
       462.875          42.000          39.000  
  21683779.950 7  21683778.526 7 113949027.827 7  88791438.680 7     -1706.174  
     -1329.330          47.000          45.000  
  22236198.002 7  22236197.527 7 116852027.835 7  91053571.357 7      2642.720  
      2059.305          47.000          43.000  
  24181065.850 7                 127072368.330 7                      2779.035  
                        43.000                  
 26  4 14  1 30  0.0000000  0  9G08G10G15G18G23G24G27G32G02
  22246262.156 7  22246261.062 7 116904893.113 7  91094733.238 7       396.694  
       309.183          45.000          44.000  
  20857633.442 8  20857631.169 7 109607604.876 8  85408514.698 7       173.480  
       135.223          51.000          47.000  
  24305677.845 6  24305675.281 6 127727177.271 6  99527659.998 6     -4033.668  
     -3143.027          39.000          37.000  
  22847648.311 7  22847645.598 7 120065188.254 7  93557272.470 7     -3224.636  
     -2512.612          44.000          43.000  
  21034042.228 7  21034038.663 7 110534634.436 7  86130871.329 7     -1959.566  
     -1526.878          47.000          47.000  
  23038114.492 7  23038113.145 6 121066116.647 7  94337243.349 6       575.509  
       448.672          42.000          38.000  
  21693569.096 7  21693567.905 7 114000470.978 7  88831524.254 7     -1723.091  
     -1342.831          47.000          45.000  
  22221138.073 7  22221137.546 7 116772887.451 7  90991903.591 7      2633.396  
      2052.012          47.000          43.000  
  24165203.149 7                 126989008.497 7                      2778.029  
                        43.000                  
 26  4 14  1 30 30.0000000  0  9G08G10G15G18G23G24G27G32G02
  22244048.644 7  22244047.557 7 116893263.110 7  91085670.923 7       377.434  
       294.086          45.000          43.000  
  20856668.542 8  20856665.743 7 109602531.742 8  85404561.607 7       163.373  
       127.405          52.000          47.000  
  24328715.202 6  24328713.080 6 127848241.388 6  99621995.668 6     -4038.347  
     -3146.863          39.000          36.000  
  22866078.688 7  22866076.662 7 120162041.201 7  93632742.247 7     -3233.429  
     -2519.477          44.000          43.000  
  21045249.340 7  21045245.958 7 110593528.951 7  86176763.163 7     -1967.885  
     -1533.452          47.000          47.000  
  23034883.724 6  23034882.277 6 121049140.461 6  94324015.192 6       555.215  
       432.506          41.000          38.000  
  21703455.789 7  21703454.735 7 114052426.664 7  88872009.168 7     -1741.809  
     -1357.269          47.000          45.000  
  22206132.359 7  22206131.849 7 116694032.249 7  90930458.041 7      2622.547  
      2043.287          47.000          44.000  
  24149348.925 7                 126905695.096 7                      2775.004  
                        43.000                  
 26  4 14  1 31  0.0000000  0  9G08G10G15G18G23G24G27G32G02
  22241950.860 7  22241949.446 7 116882238.956 7  91077080.688 7       357.547  
       278.596          45.000          43.000  
  20855764.982 8  20855762.498 7 109597785.255 8  85400863.062 7       152.930  
       119.073          52.000          47.000  
  24351784.122 6  24351782.159 6 127969468.873 6  99716458.608 6     -4043.455  
     -3151.064          40.000          36.000  
  22884562.777 7  22884560.376 7 120259174.302 7  93708430.298 7     -3242.281  
     -2526.548          43.000          43.000  
  21056509.615 7  21056505.795 7 110652699.363 7  86222869.964 7     -1976.706  
     -1540.400          47.000          47.000  
  23031772.762 6  23031771.443 6 121032794.201 6  94311277.862 6       534.473  
       416.685          41.000          38.000  
  21713452.370 7  21713450.870 7 114104957.570 7  88912942.326 7     -1760.347  
     -1371.934          47.000          45.000  
  22191193.787 7  22191193.002 7 116615528.671 7  90869286.451 7      2611.093  
      2034.664          47.000          44.000  
  24133516.324 7                 126822494.211 7                      2771.625  
                        43.000                  
 26  4 14  1 31 30.0000000  0  9G08G10G15G18G23G24G27G32G02
  22239964.479 7  22239962.774 7 116871801.215 7  91068947.415 7       337.949  
       263.113          45.000          43.000  
  20854919.902 8  20854917.538 7 109593345.304 8  85397403.360 7       142.651  
       111.395          51.000          47.000  
  24374879.857 6  24374877.660 5 128090837.005 6  99811031.158 5     -4048.310  
     -3155.043          39.000          35.000  
  22903095.889 7  22903093.495 7 120356566.494 7  93784320.249 7     -3250.936  
     -2533.201          44.000          43.000  
  21067817.742 7  21067814.008 7 110712124.837 7  86269175.517 7     -1985.243  
     -1546.961          47.000          47.000  
  23028777.931 6  23028777.231 6 121017059.468 6  94299017.053 6       514.216  
       400.556          40.000          38.000  
  21723554.289 7  21723552.329 7 114158041.953 7  88954306.749 7     -1778.909  
     -1386.195          47.000          45.000  
  22176318.662 7  22176318.105 7 116537358.727 7  90808374.867 7      2599.809  
      2025.844          47.000          44.000  
  24117701.352 7                 126739387.490 7                      2768.561  
                        42.000                  
 26  4 14  1 32  0.0000000  0  9G08G10G15G18G23G24G27G32G02
  22238086.929 7  22238085.331 7 116861932.729 7  91061257.684 7       319.660  
       249.079          45.000          43.000  
  20854130.044 8  20854127.483 7 109589193.952 8  85394168.554 7       133.777  
       104.132          51.000          47.000  
  24397998.203 6  24397996.305 5 128212325.536 6  99905697.524 5     -4051.394  
     -3156.815          38.000          34.000  
  22921674.997 7  22921672.110 7 120454198.907 7  93860397.381 7     -3258.250  
     -2538.718          43.000          43.000  
  21079171.178 7  21079167.338 7 110771786.673 7  86315665.242 7     -1992.365  
     -1552.612          47.000          47.000  
  23025897.483 6  23025896.322 6 121001919.983 6  94287220.096 6       494.843  
       385.386          41.000          38.000  
  21733757.191 7  21733755.713 7 114211660.273 7  88996087.238 7     -1796.043  
     -1399.401          47.000          45.000  
  22161503.948 7  22161503.075 7 116459506.613 7  90747710.941 7      2589.993  
      2018.056          47.000          44.000  
  24101901.268 6                 126656358.820 6                      2766.643  
                        41.000                  
 26  4 14  1 32 30.0000000  0  9G08G10G15G18G23G24G27G32G02
  22236316.756 7  22236315.311 7 116852632.085 7  91054010.454 7       300.750  
       234.401          45.000          43.000  
  20853394.811 8  20853392.003 7 109585329.105 8  85391156.983 7       124.286  
        96.851          51.000          47.000  
  24421138.613 6  24421137.038 6 128333930.065 6 100000454.272 6     -4055.388  
     -3159.532          38.000          37.000  
  22940299.136 7  22940296.513 7 120552068.583 7  93936659.400 7     -3266.087  
     -2544.998          44.000          43.000  
  21090568.840 7  21090565.236 7 110831682.076 7  86362336.976 7     -2000.032  
     -1558.294          47.000          47.000  
  23023130.347 6  23023128.757 6 120987375.430 6  94275886.663 6       475.148  
       370.467          41.000          39.000  
  21744061.492 7  21744059.771 7 114265808.832 7  89038280.901 7     -1813.626  
     -1413.091          47.000          45.000  
  22146749.076 7  22146748.634 7 116381972.357 7  90687294.688 7      2579.403  
      2009.926          47.000          44.000  
  24086116.188 7                 126573407.637 7                      2764.117  
                        42.000                  
 26  4 14  1 33  0.0000000  0  9G08G10G15G18G23G24G27G32G02
  22234655.931 7  22234654.069 7 116843902.568 7  91047208.229 7       280.308  
       218.674          45.000          43.000  
  20852714.050 8  20852711.777 7 109581753.317 8  85388370.661 7       113.489  
        88.446          52.000          46.000  
  24444301.417 6  24444299.622 6 128455650.706 6 100095301.498 6     -4060.194  
     -3164.241          37.000          36.000  
  22958968.735 7  22958966.181 7 120650177.122 7  94013107.549 7     -3275.402  
     -2552.158          43.000          42.000  
  21102011.156 7  21102007.560 7 110891812.911 7  86409192.166 7     -2009.358  
     -1565.737          47.000          47.000  
  23020476.539 6  23020475.546 6 120973429.929 6  94265020.075 6       453.811  
       353.716          41.000          39.000  
  21754466.745 7  21754465.241 7 114320488.514 7  89080888.416 7     -1832.776  
     -1428.064          47.000          45.000  
  22132056.388 7  22132055.782 7 116304760.695 7  90627129.817 7      2567.275  
      2000.472          47.000          44.000  
  24070346.576 7                 126490538.418 7                      2759.899  
                        42.000                  
 26  4 14  1 33 30.0000000  0  9G08G10G15G18G23G24G27G32G02
  22233105.980 7  22233104.565 7 116835758.240 7  91040862.000 7       261.621  
       203.888          45.000          44.000  
  20852091.299 8  20852088.750 7 109578479.980 8  85385820.010 7       104.083  
        81.146          52.000          47.000  
  24467489.059 6  24467486.551 6 128577498.704 6 100190247.937 6     -4063.688  
     -3166.507          40.000          37.000  
  22977685.722 7  22977683.310 7 120748537.064 7  94089751.595 7     -3282.818  
     -2557.911          43.000          43.000  
  21113500.903 7  21113497.124 7 110952191.920 7  86456240.736 7     -2016.767  
     -1571.546          47.000          46.000  
  23017939.028 6  23017938.239 6 120960098.583 6  94254632.057 6       434.001  
       337.944          41.000          39.000  
  21764975.190 7  21764973.178 7 114375711.066 7  89123918.962 7     -1849.778  
     -1441.375          47.000          45.000  
  22117427.487 7  22117426.853 7 116227887.099 7  90567228.378 7      2556.721  
      1992.275          47.000          44.000  
  24054595.373 7                 126407766.434 7                      2757.381  
                        43.000                  
 26  4 14  1 34  0.0000000  0  9G08G10G15G18G23G24G27G32G02
  22231665.922 7  22231666.110 7 116828197.263 7  91034970.378 7       242.974  
       189.177          44.000          43.000  
  20851525.375 8  20851523.011 7 109575506.647 8  85383503.137 7        94.720  
        73.804          51.000          47.000  
  24490699.354 6  24490696.828 6 128699469.169 6 100285289.851 6     -4066.770  
     -3169.253          41.000          38.000  
  22996450.455 7  22996447.688 7 120847144.949 7  94166588.856 7     -3290.317  
     -2563.848          44.000          42.000  
  21125036.971 7  21125033.391 7 111012815.917 7  86503480.218 7     -2024.170  
     -1577.477          47.000          46.000  
  23015518.897 6  23015518.251 6 120947380.457 6  94244721.851 6       414.504  
       322.916          41.000          39.000  
  21775586.250 7  21775584.563 7 114431472.367 7  89167369.296 7     -1867.171  
     -1454.851          47.000          45.000  
  22102863.412 8  22102862.367 7 116151351.254 8  90507590.092 7      2545.990  
      1983.969          48.000          44.000  
  24038863.189 7                 126325090.872 7                      2754.856  
                        44.000                  
 26  4 14  1 34 30.0000000  0  9G08G10G15G18G23G24G27G32G02
  22230332.391 7  22230331.916 7 116821186.551 7  91029507.478 7       224.213  
       174.657          45.000          44.000  
  20851010.473 8  20851007.947 7 109572799.567 8  85381393.726 7        85.443  
        66.608          51.000          47.000  
  24513925.531 6  24513923.265 6 128821526.039 6 100380399.026 6     -4070.362  
     -3171.771          41.000          39.000  
  23015255.051 7  23015253.548 7 120945966.123 7  94243592.327 7     -3297.851  
     -2569.748          43.000          44.000  
  21136613.776 7  21136609.672 7 111073650.400 7  86550883.693 7     -2031.791  
     -1583.090          47.000          46.000  
  23013209.386 6  23013208.057 6 120935243.428 6  94235264.418 6       394.517  
       307.400          41.000          38.000  
  21786293.056 7  21786291.402 7 114487736.909 7  89211211.776 7     -1884.256  
     -1468.257          47.000          45.000  
  22088357.625 8  22088356.532 7 116075121.479 8  90448190.314 7      2535.411  
      1975.737          48.000          44.000  
  24023142.831 7                 126242479.888 7                      2752.233  
                        44.000                  
 26  4 14  1 35  0.0000000  0  9G08G10G15G18G23G24G27G32G02
  22229102.498 7  22229102.384 7 116814724.299 7  91024471.957 7       205.885  
       160.622          44.000          44.000  
  20850545.242 8  20850543.026 7 109570356.335 8  85379489.908 7        76.758  
        59.991          52.000          46.000  
  24537167.764 6  24537165.442 6 128943664.635 6 100475571.928 6     -4072.905  
     -3173.879          41.000          38.000  
  23034100.203 7  23034098.519 7 121044997.297 7  94320759.401 7     -3304.811  
     -2575.182          44.000          44.000  
  21148229.710 7  21148225.800 7 111134692.342 7  86598448.833 7     -2038.520  
     -1588.397          47.000          46.000  
  23011010.648 6  23011008.876 6 120923686.646 6  94226259.158 6       375.279  
       292.258          41.000          39.000  
  21797094.721 7  21797093.378 7 114544500.611 7  89255443.221 7     -1900.609  
     -1481.190          47.000          45.000  
  22073909.580 8  22073908.365 7 115999197.492 8  90389028.821 7      2525.299  
      1967.748          48.000          44.000  
  24007434.937 7                 126159932.964 7                      2750.157  
                        44.000                  
 26  4 14  1 35 30.0000000  0  9G08G10G15G18G23G24G27G32G02
  22227979.502 7  22227979.173 7 116808822.291 7  91019872.988 7       187.175  
       145.910          44.000          44.000  
  20850132.524 8  20850130.327 7 109568188.165 8  85377800.434 7        67.627  
        52.631          51.000          47.000  
  24560426.670 6  24560424.603 6 129065893.918 6 100570815.515 6     -4075.837  
     -3176.217          38.000          36.000  
  23052987.522 7  23052985.029 7 121144248.594 7  94398098.015 7     -3312.164  
     -2580.931          44.000          44.000  
  21159886.715 7  21159883.119 7 111195952.249 7  86646183.818 7     -2045.779  
     -1594.106          47.000          46.000  
  23008924.050 7  23008922.584 6 120912722.808 7  94217715.921 6       355.507  
       276.854          42.000          39.000  
  21807993.337 7  21807991.970 7 114601772.948 7  89300070.974 7     -1917.748  
     -1494.209          47.000          45.000  
  22059522.188 8  22059521.093 7 115923592.577 8  90330115.939 7      2514.786  
      1959.510          48.000          44.000  
  23991741.208 7                 126077463.027 7                      2747.420  
                        44.000                  
 26  4 14  1 36  0.0000000  0  9G08G10G15G18G23G24G27G32G02
  22226966.372 7  22226966.764 7 116803499.289 7  91015725.214 7       168.151  
       131.033          44.000          44.000  
  20849776.271 8  20849773.310 7 109566313.301 8  85376339.504 7        57.739  
        45.129          51.000          46.000  
  24583705.309 5  24583704.388 5 129188230.031 5 100666142.269 5     -4079.603  
     -3179.236          35.000          35.000  
  23071919.291 7  23071917.235 7 121243737.378 7  94475621.700 7     -3320.036  
     -2587.002          43.000          44.000  
  21171589.352 7  21171585.422 7 111257447.655 7  86694102.301 7     -2053.609  
     -1600.300          47.000          46.000  
  23006954.622 6  23006953.522 6 120902371.663 6  94209650.099 6       335.061  
       261.210          41.000          39.000  
  21818991.981 7  21818990.304 7 114659570.378 7  89345107.917 7     -1935.068  
     -1507.925          47.000          45.000  
  22045199.814 8  22045198.532 7 115848327.022 8  90271467.488 7      2503.284  
      1950.789          48.000          43.000  
  23976065.925 7                 125995089.996 7                      2744.299  
                        43.000                  
 26  4 14  1 36 30.0000000  0  9G08G10G15G18G23G24G27G32G02
  22226064.595 7  22226064.838 7 116798759.426 7  91012031.814 7       148.009  
       115.312          45.000          45.000  
  20849475.759 8  20849472.925 7 109564735.274 8  85375109.889 7        47.333  
        36.798          51.000          46.000  
  24607005.827 6  24607004.892 5 129310673.832 6 100761552.984 5     -4083.116  
     -3182.022          36.000          35.000  
  23090897.417 7  23090895.414 7 121343466.268 7  94553332.448 7     -3328.652  
     -2593.576          43.000          44.000  
  21183336.328 7  21183332.817 7 111319181.448 7  86742206.558 7     -2062.114  
     -1606.789          47.000          46.000  
  23005101.754 6  23005101.270 6 120892638.246 6  94202065.655 6       314.023  
       244.623          41.000          39.000  
  21830090.581 7  21830089.314 7 114717894.683 7  89390555.412 7     -1953.166  
     -1521.971          47.000          45.000  
  22030942.816 8  22030941.376 7 115773406.479 8  90213087.900 7      2491.326  
      1941.160          48.000          43.000  
  23960410.035 7                 125912819.270 7                      2740.381  
                        43.000                  
 26  4 14  1 37  0.0000000  0  9G08G10G15G18G23G24G27G32G02
  22225277.846 7  22225278.032 7 116794624.047 7  91008809.439 7       127.785  
        99.744          45.000          45.000  
  20849235.953 8  20849233.368 7 109563474.972 8  85374127.834 7        36.774  
        28.583          51.000          47.000  
  24630331.339 6  24630329.561 5 129433244.262 6 100857062.409 5     -4087.711  
     -3185.352          39.000          35.000  
  23109924.254 7  23109922.336 7 121443455.136 7  94631245.781 7     -3337.201  
     -2600.388          42.000          44.000  
  21195133.386 7  21195129.636 7 111381173.846 7  86790512.308 7     -2070.615  
     -1613.525          47.000          46.000  
  23003371.299 6  23003370.636 6 120883544.854 6  94194979.944 6       292.418  
       227.661          41.000          39.000  
  21841293.065 7  21841292.060 7 114776764.930 7  89436428.311 7     -1971.461  
     -1536.268          46.000          45.000  
  22016755.948 8  22016754.734 7 115698853.875 8  90154994.996 7      2478.962  
      1931.672          48.000          44.000  
  23944778.490 7                 125830673.747 7                      2736.035  
                        43.000                  
 26  4 14  1 37 30.0000000  0  9G08G10G15G18G23G24G27G32G02
  22224602.180 7  22224601.770 7 116791070.656 7  91006040.577 7       109.589  
        85.292          46.000          45.000  
  20849052.056 8  20849049.849 7 109562509.386 8  85373375.447 7        28.125  
        21.881          52.000          47.000  
  24653675.510 6  24653673.471 5 129555915.912 6 100952650.722 5     -4089.844  
     -3187.072          41.000          35.000  
  23128996.464 7  23128995.142 7 121543680.008 7  94709343.017 7     -3343.783  
     -2605.867          43.000          44.000  
  21206974.712 7  21206971.175 7 111443401.137 7  86839001.103 7     -2077.161  
     -1618.703          47.000          46.000  
  23001758.864 6  23001757.915 6 120875069.928 6  94188376.097 6       273.000  
       212.824          41.000          39.000  
  21852595.059 7  21852593.567 7 114836156.332 7  89482707.293 7     -1987.449  
     -1548.448          46.000          45.000  
  22002634.934 8  22002633.802 7 115624648.245 8  90097172.468 7      2468.691  
      1923.644          48.000          44.000  
  23929166.042 7                 125748632.268 7                      2733.777  
                        43.000                  
 26  4 14  1 38  0.0000000  0  9G08G10G15G18G23G24G27G32G02
  22224035.557 7  22224034.355 7 116788091.675 7  91003719.300 7        89.994  
        70.018          46.000          44.000  
  20848922.951 8  20848920.640 7 109561830.466 8  85372846.420 7        17.999  
        13.977          51.000          47.000  
  24677036.459 6  24677034.330 6 129678678.361 6 101048309.803 6     -4093.153  
     -3190.251          41.000          36.000  
  23148111.841 7  23148110.428 7 121644131.891 7  94787617.126 7     -3352.127  
     -2612.013          43.000          43.000  
  21218859.205 7  21218855.689 7 111505854.610 7  86887666.132 7     -2085.228  
     -1624.920          47.000          46.000  
  23000262.261 6  23000261.491 6 120867206.754 6  94182248.961 6       251.918  
       196.420          41.000          39.000  
  21863994.400 7  21863992.654 7 114896058.981 7  89529384.670 7     -2005.080  
     -1562.312          46.000          44.000  
  21988578.779 8  21988578.003 7 115550783.587 8  90039615.645 7      2456.794  
      1914.297          48.000          44.000  
  23913573.179 7                 125666688.700 7                      2729.901  
                        44.000                  
 26  4 14  1 38 30.0000000  0  9G08G10G15G18G23G24G27G32G02
  22223572.548 7  22223570.975 7 116785659.070 7  91001823.765 7        71.091  
        55.424          46.000          43.000  
  20848843.086 8  20848840.734 7 109561409.760 8  85372518.607 7         9.143  
         6.927          51.000          46.000  
  24700408.648 6  24700406.841 6 129801501.248 6 101144015.926 6     -4096.103  
     -3191.338          41.000          38.000  
  23167265.137 7  23167263.268 7 121744781.320 7  94866045.215 7     -3358.933  
     -2617.790          43.000          43.000  
  21230781.742 7  21230777.581 7 111568505.161 7  86936484.718 7     -2092.454  
     -1630.479          47.000          45.000  
  22998877.557 6  22998876.401 6 120859928.274 6  94176577.439 6       231.891  
       180.905          41.000          39.000  
  21875484.560 7  21875483.445 7 114956442.586 7  89576436.823 7     -2021.622  
     -1575.177          46.000          45.000  
  21974582.743 8  21974581.896 7 115477233.498 8  89982303.933 7      2445.654  
      1905.811          48.000          44.000  
  23897993.403 7                 125584816.282 7                      2726.996  
                        43.000                  
 26  4 14  1 39  0.0000000  0  9G08G10G15G18G23G24G27G32G02
  22223216.074 7  22223215.119 7 116783788.567 7  91000366.228 7        52.637  
        41.033          45.000          44.000  
  20848814.459 8  20848812.317 7 109561262.582 8  85372403.910 7        -0.104  
        -0.024          52.000          47.000  
  24723795.426 6  24723792.979 6 129924397.606 6 101239779.326 6     -4098.396  
     -3193.407          40.000          38.000  
  23186457.893 7  23186456.349 7 121845642.713 7  94944638.392 7     -3366.033  
     -2622.978          42.000          42.000  
  21242743.840 7  21242739.875 7 111631367.405 7  86985468.285 7     -2099.275  
     -1635.820          47.000          45.000  
  22997606.584 6  22997605.847 6 120853251.105 6  94171374.487 6       212.096  
       165.183          41.000          39.000  
  21887069.438 7  21887068.048 7 115017320.609 7  89623874.202 7     -2038.034  
     -1588.036          46.000          45.000  
  21960649.556 8  21960648.580 7 115404015.264 8  89925250.807 7      2434.585  
      1896.981          48.000          44.000  
  23882430.231 7                 125503032.011 7                      2724.151  
                        44.000                  
 26  4 14  1 39 30.0000000  0  9G08G10G15G18G23G24G27G32G02
  22222972.324 7  22222971.304 7 116782507.126 7  90999367.699 7        33.193  
        25.941          46.000          44.000  
  20848843.987 8  20848841.592 7 109561415.469 8  85372523.058 7        -9.845  
        -7.635          52.000          47.000  
  24747200.460 6  24747198.088 6 130047391.699 6 101335618.859 6     -4101.072  
     -3195.842          38.000          39.000  
  23205697.109 7  23205694.791 7 121946741.515 7  95023416.605 7     -3373.873  
     -2628.882          42.000          43.000  
  21254751.239 7  21254747.371 7 111694467.256 7  87034636.995 7     -2107.017  
     -1641.949          47.000          46.000  
  22996455.941 6  22996454.835 6 120847203.128 6  94166661.774 6       191.214  
       148.995          41.000          39.000  
  21898752.973 7  21898751.763 7 115078717.698 7  89671716.065 7     -2054.980  
     -1601.094          47.000          45.000  
  21946785.171 8  21946784.635 7 115331157.459 8  89868478.551 7      2422.711  
      1887.763          48.000          44.000  
  23866888.794 7                 125421364.544 7                      2720.538  
                        44.000                  
 26  4 14  1 40  0.0000000  0  9G08G10G15G18G23G24G27G32G02
  22222835.817 7  22222834.647 7 116781790.413 7  90998809.244 7        14.408  
        11.264          45.000          43.000  
  20848925.427 8  20848922.901 7 109561843.736 8  85372856.777 7       -18.933  
       -14.807          51.000          47.000  
  24770618.166 5  24770616.618 6 130170456.662 5 101431513.582 6     -4103.434  
     -3197.219          35.000          37.000  
  23224975.636 7  23224973.911 7 122048052.083 7  95102359.825 7     -3380.750  
     -2634.136          42.000          43.000  
  21266799.131 7  21266795.101 7 111757779.347 7  87083971.074 7     -2113.964  
     -1647.271          47.000          45.000  
  22995420.348 6  22995419.183 6 120841760.876 6  94162421.075 6       171.137  
       133.607          41.000          39.000  
  21910530.420 7  21910528.940 7 115140607.286 7  89719941.694 7     -2071.362  
     -1613.840          46.000          45.000  
  21932985.335 8  21932984.427 7 115258637.396 8  89811969.464 7      2411.507  
      1878.912          48.000          44.000  
  23851366.121 7                 125339790.927 7                      2717.529  
                        44.000                  
 26  4 14  1 40 30.0000000  0  9G08G10G15G18G23G24G27G32G02
  22222811.954 7  22222809.502 7 116781660.838 7  90998708.268 7        -5.363  
        -4.333          45.000          43.000  
  20849063.422 8  20849061.071 7 109562569.456 8  85373422.269 7       -29.047  
       -22.595          51.000          46.000  
  24794053.682 5  24794052.242 6 130293612.184 5 101527478.868 6     -4106.584  
     -3199.619          35.000          36.000  
  23244299.146 7  23244296.856 7 122149595.467 7  95181484.447 7     -3388.474  
     -2640.454          43.000          42.000  
  21278891.471 7  21278887.616 7 111821325.123 7  87133487.247 7     -2122.100  
     -1653.485          47.000          45.000  
  22994504.141 6  22994503.459 6 120836947.711 6  94158670.573 6       149.984  
       117.161          41.000          39.000  
  21922405.219 7  21922403.611 7 115203009.484 7  89768566.769 7     -2088.580  
     -1627.402          46.000          45.000  
  21919253.822 8  21919253.279 7 115186479.126 8  89755742.287 7      2399.345  
      1869.547          48.000          45.000  
  23835865.437 7                 125258335.255 7                      2713.281  
                        44.000                  
 26  4 14  1 41  0.0000000  0  9G08G10G15G18G23G24G27G32G02
  22222895.206 7  22222894.491 7 116782104.037 7  90999053.627 7       -25.313  
       -19.873          45.000          44.000  
  20849255.661 8  20849253.010 7 109563577.948 8  85374208.113 7       -39.240  
       -30.695          51.000          47.000  
  24817502.980 5  24817502.053 6 130416841.548 5 101623501.732 6     -4109.795  
     -3202.403          35.000          36.000  
  23263663.034 7  23263661.504 7 122251356.006 7  95260778.297 7     -3396.500  
     -2646.667          42.000          43.000  
  21291025.377 7  21291021.521 7 111885089.209 7  87183173.557 7     -2129.950  
     -1659.869          47.000          46.000  
  22993705.431 6  22993704.245 6 120832750.167 6  94155399.772 6       128.897  
       100.388          41.000          39.000  
  21934374.461 7  21934372.682 7 115265907.699 7  89817578.356 7     -2105.789  
     -1640.894          47.000          44.000  
  21905589.091 8  21905588.532 7 115114669.967 8  89699787.131 7      2386.837  
      1860.114          48.000          45.000  
  23820384.826 7                 125176984.632 7                      2709.106  
                        44.000                  
 26  4 14  1 41 30.0000000  0  9G08G10G15G18G23G24G27G32G02
  22223096.314 7  22223095.192 7 116783157.959 7  90999874.874 7       -45.379  
       -35.688          45.000          44.000  
  20849508.256 8  20849505.742 7 109564906.863 8  85375243.624 7       -50.360  
       -38.953          52.000          47.000  
  24840973.957 6  24840972.687 6 130540180.358 6 101719609.902 6     -4113.540  
     -3205.542          38.000          36.000  
  23283076.230 7  23283074.109 7 122353370.391 7  95340269.939 7     -3405.114  
     -2653.507          43.000          42.000  
  21303207.781 7  21303204.442 7 111949108.670 7  87233058.841 7     -2138.781  
     -1666.632          47.000          46.000  
  22993030.887 6  22993030.230 6 120829207.104 6  94152638.948 6       106.784  
        83.297          40.000          39.000  
  21946444.637 7  21946442.761 7 115329337.645 7  89867004.269 7     -2123.713  
     -1654.809          46.000          45.000  
  21891998.260 8  21891997.275 7 115043249.521 8  89644134.903 7      2373.638  
      1849.652          48.000          45.000  
  23804931.720 7                 125095778.672 7                      2703.894  
                        43.000                  
 26  4 14  1 42  0.0000000  0  9G08G10G15G18G23G24G27G32G02
  22223411.881 7  22223411.240 7 116784819.408 7  91001169.499 7       -65.795  
       -51.063          45.000          44.000  
  20849821.626 8  20849818.996 7 109566552.670 8  85376526.083 7       -60.120  
       -46.899          51.000          47.000  
  24864465.081 6  24864463.040 5 130663623.078 6 101815799.052 5     -4116.584  
     -3207.644          39.000          32.000  
  23302536.520 7  23302534.747 7 122455634.039 7  95419955.822 7     -3413.242  
     -2659.676          43.000          43.000  
  21315437.932 7  21315434.825 7 112013379.319 7  87283139.829 7     -2146.597  
     -1672.570          47.000          46.000  
  22992480.774 6  22992479.844 6 120826316.145 6  94150386.256 6        85.499  
        66.592          41.000          38.000  
  21958615.103 7  21958613.459 7 115393293.823 7  89916840.241 7     -2140.660  
     -1668.198          46.000          44.000  
  21878480.473 8  21878480.025 7 114972216.249 8  89588784.348 7      2361.281  
      1839.874          48.000          45.000  
  23789505.859 7                 125014715.594 7                      2699.689  
                        44.000                  
 26  4 14  1 42 30.0000000  0  9G08G10G15G18G23G24G27G32G02
  22223843.920 7  22223842.688 7 116787087.667 7  91002936.979 7       -85.169  
       -66.340          45.000          44.000  
  20850194.953 8  20850192.170 7 109568514.529 8  85378054.813 7       -70.026  
       -54.596          51.000          47.000  
  24887974.903 6  24887971.768 5 130787166.359 6 101912066.618 5     -4118.852  
     -3209.785          41.000          32.000  
  23322043.304 7  23322041.794 7 122558145.058 7  95499834.436 7     -3420.659  
     -2665.378          43.000          43.000  
  21327715.997 7  21327712.753 7 112077899.621 7  87333415.375 7     -2154.103  
     -1678.577          46.000          46.000  
  22992054.749 6  22992054.072 6 120824077.532 6  94148641.921 6        64.353  
        49.923          39.000          39.000  
  21970884.819 7  21970883.587 7 115457773.366 7  89967084.024 7     -2157.385  
     -1681.058          46.000          45.000  
  21865037.431 8  21865036.911 7 114901571.185 8  89533736.292 7      2348.912  
      1830.392          48.000          45.000  
  23774107.643 7                 124933796.406 7                      2695.740  
                        44.000                  
 26  4 14  1 43  0.0000000  0  9G08G10G15G18G23G24G27G32G02
  22224382.754 7  22224381.320 7 116789917.667 7  91005142.157 7      -103.572  
       -80.686          46.000          44.000  
  20850619.466 8  20850617.025 7 109570747.033 8  85379794.423 7       -78.754  
       -61.389          51.000          47.000  
  24911494.074 6  24911492.225 5 130910762.863 6 102008375.579 5     -4120.794  
     -3210.263          39.000          33.000  
  23341589.575 7  23341587.270 7 122660857.025 7  95579869.657 7     -3426.892  
     -2670.320          43.000          42.000  
  21340032.785 7  21340029.594 7 112142623.644 7  87383849.657 7     -2160.833  
     -1683.772          47.000          46.000  
  22991744.447 6  22991743.751 6 120822447.042 6  94147371.428 6        44.442  
        34.425          40.000          39.000  
  21983245.895 7  21983244.342 7 115522728.947 7  90017698.741 7     -2173.028  
     -1693.296          46.000          44.000  
  21851659.611 8  21851659.026 7 114831270.936 8  89478956.929 7      2337.587  
      1821.538          48.000          45.000  
  23758728.147 7                 124852977.778 7                      2692.535  
                        44.000                  
 26  4 14  1 43 30.0000000  0  9G08G10G15G18G23G24G27G32G02
  22225032.151 7  22225031.107 7 116793330.382 7  91007801.406 7      -123.129  
       -96.054          45.000          44.000  
  20851099.732 8  20851097.477 7 109573270.992 8  85381761.147 7       -88.782  
       -69.153          51.000          47.000  
  24935027.385 6  24935025.865 5 131034431.064 6 102104740.449 5     -4122.854  
     -3212.219          40.000          35.000  
  23361176.911 7  23361174.650 7 122763789.749 7  95660076.936 7     -3434.319  
     -2676.321          43.000          42.000  
  21352391.934 7  21352388.676 7 112207571.450 7  87434458.326 7     -2168.358  
     -1689.579          47.000          46.000  
  22991554.297 6  22991553.610 6 120821446.526 6  94146591.823 6        23.164  
        17.884          40.000          39.000  
  21995700.679 7  21995698.848 7 115588179.310 7  90068699.012 7     -2189.715  
     -1706.373          46.000          44.000  
  21838351.963 8  21838351.379 7 114761338.197 8  89424463.944 7      2325.319  
      1811.818          48.000          45.000  
  23743372.346 7                 124772282.689 7                      2688.153  
                        44.000                  
 26  4 14  1 44  0.0000000  0  9G08G10G15G18G23G24G27G32G02
  22225795.179 7  22225794.737 7 116797341.655 7  91010927.058 7      -144.063  
      -112.146          45.000          44.000  
  20851638.647 8  20851636.421 7 109576102.088 8  85383967.204 7       -99.567  
       -77.655          51.000          47.000  
  24958577.051 6  24958575.497 6 131158184.750 6 102201171.873 6     -4126.881  
     -3215.540          40.000          37.000  
  23380808.741 7  23380807.000 7 122866957.904 7  95740467.596 7     -3443.065  
     -2682.687          43.000          42.000  
  21364796.594 7  21364793.209 7 112272758.133 7  87485253.124 7     -2177.094  
     -1696.431          47.000          47.000  
  22991487.099 6  22991486.210 6 120821092.736 6  94146316.158 6         0.674  
         0.391          40.000          39.000  
  22008252.287 7  22008250.174 7 115654138.109 7  90120095.450 7     -2207.489  
     -1720.022          46.000          44.000  
  21825117.667 8  21825116.535 7 114691790.594 8  89370271.033 7      2311.487  
      1801.348          49.000          45.000  
  23728043.334 7                 124691728.313 7                      2682.397  
                        44.000                  
 26  4 14  1 44 30.0000000  0  9G08G10G15G18G23G24G27G32G02
  22226669.071 7  22226668.591 7 116801933.285 7  91014504.977 7      -162.469  
      -126.905          45.000          44.000  
  20852232.536 8  20852230.016 7 109579221.981 8  85386398.299 7      -108.783  
       -84.882          52.000          47.000  
  24982138.999 6  24982137.108 6 131282003.352 6 102297653.935 6     -4128.629  
     -3217.186          38.000          37.000  
  23400482.331 7  23400480.444 7 122970342.052 7  95821026.582 7     -3449.775  
     -2688.210          42.000          42.000  
  21377242.954 7  21377239.802 7 112338164.696 7  87536219.263 7     -2183.967  
     -1701.724          47.000          47.000  
  22991539.261 6  22991538.530 6 120821368.271 6  94146530.892 6       -19.651  
       -15.715          41.000          39.000  
  22020896.289 7  22020894.901 7 115720584.927 7  90171872.177 7     -2223.116  
     -1732.215          46.000          44.000  
  21811953.136 8  21811952.150 7 114622611.649 8  89316365.429 7      2299.783  
      1791.864          49.000          45.000  
  23712738.093 7                 124611298.484 7                      2678.900  
                        43.000                  
 26  4 14  1 45  0.0000000  0  9G08G10G15G18G23G24G27G32G02
  22227654.582 7  22227653.856 7 116807114.335 7  91018542.161 7      -181.413  
      -141.418          45.000          44.000  
  20852882.799 8  20852880.500 7 109582639.567 8  85389061.342 7      -117.798  
       -91.650          52.000          47.000  
  25005714.281 5  25005712.513 6 131405893.981 5 102394192.085 6     -4129.357  
     -3217.755          34.000          36.000  
  23420198.640 7  23420196.326 6 123073950.075 7  95901760.028 6     -3456.057  
     -2692.922          43.000          41.000  
  21389732.963 7  21389729.789 7 112403799.495 7  87587363.253 7     -2190.511  
     -1707.017          47.000          47.000  
  22991713.898 6  22991712.708 6 120822283.157 6  94147243.765 6       -39.914  
       -31.026          41.000          40.000  
  22033635.106 7  22033633.429 7 115787526.673 7  90224034.551 7     -2238.424  
     -1744.049          46.000          44.000  
  21798861.200 8  21798860.063 7 114553812.211 8  89262755.518 7      2288.043  
      1782.807          49.000          45.000  
  23697458.591 7                 124531004.028 7                      2675.409  
                        44.000                  
 26  4 14  1 45 30.0000000  0  9G08G10G15G18G23G24G27G32G02
  22228748.202 7  22228747.243 7 116812858.951 7  91023018.473 7      -201.210  
      -156.899          45.000          44.000  
  20853584.549 8  20853582.414 7 109586328.904 8  85391936.163 7      -127.704  
       -99.530          51.000          46.000  
  25029298.134 6  25029296.423 6 131529848.27316 102490764.214 6     -4132.106  
     -3219.800          36.000          37.000  
  23439952.035 7  23439949.920 6 123177754.906 7  95982646.890 6     -3463.644  
     -2699.205          43.000          41.000  
  21402261.028 7  21402257.818 7 112469635.889 7  87638664.313 7     -2198.070  
     -1712.830          47.000          47.000  
  22992004.808 6  22992004.103 6 120823812.304 6  94148435.330 6       -61.534  
       -48.022          41.000          40.000  
  22046462.582 7  22046460.738 7 115854935.223 7  90276560.691 7     -2254.695  
     -1757.095          46.000          44.000  
  21785836.558 8  21785835.636 7 114485368.177 8  89209422.538 7      2275.323  
      1773.008          49.000          45.000  
  23682200.161 7                 124450820.878 7                      2670.732  
                        44.000                  
 26  4 14  1 46  0.0000000  0  9G08G10G15G18G23G24G27G32G02
  22229952.710 7  22229952.354 7 116819189.333 7  91027951.226 7      -221.074  
      -172.261          45.000          44.000  
  20854342.547 8  20854340.345 7 109590312.088 8  85395039.940 7      -137.958  
      -107.520          51.000          47.000  
  25052894.078 6  25052892.526 6 131653846.355 6 102587386.090 6     -4134.827  
     -3222.045          37.000          37.000  
  23459746.979 7  23459744.716 7 123281777.659 7  96063703.488 7     -3471.393  
     -2704.982          43.000          42.000  
  21414831.992 7  21414828.496 7 112535695.408 7  87690139.256 7     -2206.095  
     -1719.091          47.000          46.000  
  22992416.913 6  22992416.144 6 120825978.802 6  94150123.498 6       -83.608  
       -64.897          41.000          40.000  
  22059382.619 7  22059381.003 7 115922830.695 7  90329466.227 7     -2271.684  
     -1770.096          45.000          44.000  
  21772884.425 8  21772883.422 7 114417303.546 8  89156385.199 7      2262.077  
      1762.923          49.000          45.000  
  23666967.330 7                 124370772.955 7                      2665.667  
                        44.000                  
 26  4 14  1 46 30.0000000  0  9G08G10G15G18G23G24G27G32G02
  22231271.257 7  22231270.621 7 116826119.391 7  91033351.260 7      -240.490  
      -187.225          45.000          44.000  
  20855159.366 8  20855156.903 7 109594603.058 8  85398383.552 7      -147.675  
      -114.960          51.000          47.000  
  25076504.543 6  25076503.004 6 131777920.108 6 102684066.924 6     -4136.671  
     -3223.096          37.000          39.000  
  23479586.006 7  23479583.925 7 123386031.194 7  96144939.928 7     -3478.466  
     -2710.386          43.000          42.000  
  21427447.946 7  21427444.279 7 112601991.337 7  87741798.398 7     -2213.351  
     -1724.586          47.000          46.000  
  22992953.079 6  22992952.252 6 120828797.406 6  94152319.845 6      -104.418  
       -81.389          40.000          39.000  
  22072397.715 7  22072396.345 7 115991224.829 7  90382760.323 7     -2287.622  
     -1782.583          46.000          44.000  
  21760007.206 8  21760006.088 7 114349634.048 8  89103655.772 7      2249.623  
      1753.065          49.000          45.000  
  23651763.211 7                 124290876.233 7                      2661.059  
                        44.000                  
 26  4 14  1 47  0.0000000  0  9G08G10G15G18G23G24G27G32G02
  22232704.190 7  22232703.039 7 116833648.357 7  91039218.012 7      -261.700  
      -204.009          45.000          44.000  
  20856034.353 8  20856031.948 7 109599200.926 8  85401966.322 7      -159.210  
      -124.225          51.000          47.000  
  25100128.651 5  25100127.278 6 131902066.791 5 102780804.564 6     -4140.569  
     -3226.094          34.000          38.000  
  23499467.741 7  23499466.414 7 123490513.531 7  96226354.662 7     -3487.336  
     -2717.526          42.000          42.000  
  21440108.062 7  21440104.511 7 112668522.208 7  87793640.634 7     -2222.552  
     -1731.893          47.000          46.000  
  22993613.637 6  22993612.599 6 120832268.204 6  94155024.372 6      -127.446  
       -98.975          40.000          39.000  
  22085506.811 7  22085505.442 7 116060114.636 7  90436440.669 7     -2305.361  
     -1796.221          46.000          44.000  
  21747205.677 8  21747204.440 7 114282360.743 8  89051235.057 7      2234.934  
      1741.601          49.000          44.000  
  23636588.918 7                 124211131.737 7                      2654.845  
                        44.000                  
 26  4 14  1 47 30.0000000  0  9G08G10G15G18G23G24G27G32G02
  22234251.413 7  22234249.861 7 116841776.350 7  91045551.503 7      -280.760  
      -218.691          46.000          44.000  
  20856967.691 8  20856965.000 7 109604105.838 8  85405788.326 7      -168.292  
      -131.067          51.000          47.000  
  25123766.207 6  25123764.624 6 132026284.314 6 102877597.396 6     -4141.716  
     -3227.000          36.000          37.000  
  23519393.550 7  23519391.846 7 123595223.821 7  96307946.992 7     -3493.782  
     -2722.654          42.000          42.000  
  21452812.901 7  21452809.452 7 112735287.535 7  87845665.546 7     -2229.091  
     -1736.888          47.000          46.000  
  22994398.355 6  22994397.454 6 120836392.137 6  94158237.869 6      -147.514  
      -115.452          41.000          39.000  
  22098710.166 7  22098708.680 7 116129498.144 7  90490505.722 7     -2320.490  
     -1808.197          46.000          44.000  
  21734479.701 8  21734478.156 7 114215485.548 8  88999124.547 7      2222.843  
      1732.059          49.000          44.000  
  23621443.574 7                 124131541.681 7                      2650.551  
                        44.000                  
 26  4 14  1 48  0.0000000  0  9G08G10G15G18G23G24G27G32G02
  22235905.556 7  22235905.433 7 116850471.633 7  91052327.058 7      -298.708  
      -232.662          45.000          44.000  
  20857953.318 8  20857950.821 7 109609286.110 8  85409824.916 7      -176.678  
      -137.732          51.000          47.000  
  25147411.082 6  25147410.118 6 132150538.973 6 102974419.223 6     -4141.944  
     -3226.963          38.000          36.000  
  23539356.806 7  23539354.740 6 123700129.212 7  96389691.380 6     -3499.732  
     -2726.928          43.000          41.000  
  21465556.590 7  21465553.028 7 112802255.030 7  87897848.009 7     -2234.994  
     -1741.611          46.000          46.000  
  22995301.552 6  22995300.701 6 120841138.349 6  94161936.217 6      -167.968  
      -131.081          40.000          39.000  
  22112001.400 7  22111999.171 7 116199341.481 7  90544929.080 7     -2335.352  
     -1819.732          46.000          44.000  
  21721823.816 8  21721822.430 7 114148978.634 8  88947301.015 7      2211.238  
      1722.893          49.000          45.000  
  23606321.603 7                 124052076.476 7                      2647.471  
                        44.000                  
 26  4 14  1 48 30.0000000  0  9G08G10G15G18G23G24G27G32G02
  22237669.584 7  22237668.305 7 116859740.286 7  91059549.397 7      -318.719  
      -248.510          45.000          44.000  
  20858992.773 8  20858990.167 7 109614747.836 8  85414080.799 7      -187.183  
      -145.819          51.000          47.000  
  25171064.836 6  25171063.324 5 132274835.128 6 103071273.424 5     -4144.325  
     -3229.371          40.000          33.000  
  23559357.935 7  23559355.780 6 123805234.693 7  96471591.703 6     -3507.192  
     -2732.820          43.000          41.000  
  21478339.301 7  21478335.971 7 112869430.220 7  87950192.291 7     -2242.986  
     -1747.773          46.000          46.000  
  22996324.201 6  22996323.332 6 120846513.698 6  94166124.814 6      -190.191  
      -148.345          41.000          39.000  
  22125380.206 7  22125378.496 7 116269648.534 7  90599713.801 7     -2351.483  
     -1832.625          46.000          44.000  
  21709239.572 8  21709238.118 7 114082847.898 8  88895770.600 7      2197.601  
      1712.543          49.000          45.000  
  23591224.592 7                 123972743.749 7                      2641.868  
                        44.000                  
 26  4 14  1 49  0.0000000  0  9G08G10G15G18G23G24G27G32G02
  22239545.297 7  22239544.680 7 116869600.117 7  91067232.372 7      -338.374  
      -263.734          45.000          44.000  
  20860089.249 8  20860086.269 7 109620508.847 8  85418569.913 7      -196.808  
      -153.387          51.000          47.000  
  25194728.371 6  25194727.044 5 132399188.495 6 103168172.270 5     -4145.905  
     -3230.849          40.000          33.000  
  23579400.081 7  23579398.120 7 123910557.107 7  96553661.019 7     -3514.355  
     -2738.083          43.000          42.000  
  21491165.171 7  21491161.865 7 112936830.345 7  88002711.856 7     -2250.231  
     -1753.488          46.000          46.000  
  22997470.641 6  22997469.089 6 120852536.810 6  94170818.167 6      -211.573  
      -165.059          41.000          39.000  
  22138850.275 7  22138848.933 7 116340435.055 7  90654872.107 7     -2367.138  
     -1844.866          46.000          44.000  
  21696730.423 8  21696729.085 7 114017112.988 8  88844548.634 7      2184.678  
      1702.520          49.000          44.000  
  23576157.488 7                 123893563.719 7                      2636.867  
                        44.000                  
 26  4 14  1 49 30.0000000  0  9G08G10G15G18G23G24G27G32G02
  22241534.121 7  22241533.634 7 116880051.167 7  91075376.049 7      -358.083  
      -279.150          45.000          44.000  
  20861242.353 8  20861239.531 7 109626569.318 8  85423292.363 7      -206.799  
      -161.115          51.000          47.000  
  25218402.487 6  25218401.042 5 132523596.973 6 103265113.952 5     -4147.740  
     -3231.828          40.000          35.000  
  23599483.221 7  23599481.396 6 124016095.448 7  96635898.646 6     -3521.595  
     -2744.049          42.000          41.000  
  21504033.913 7  21504030.601 7 113004454.972 7  88055406.361 7     -2257.737  
     -1759.329          46.000          46.000  
  22998740.489 6  22998738.985 6 120859208.543 6  94176016.945 6      -232.983  
      -181.850          41.000          40.000  
  22152411.214 7  22152409.692 7 116411698.978 7  90710402.399 7     -2383.379  
     -1857.103          46.000          44.000  
  21684297.324 8  21684295.790 7 113951775.862 8  88793636.631 7      2171.366  
      1691.927          49.000          44.000  
  23561119.117 7                 123814538.387 7                      2631.567  
                        44.000                  
 26  4 14  1 50  0.0000000  0  9G08G10G15G18G23G24G27G32G02
  22243638.525 7  22243637.858 7 116891107.705 7  91083991.521 7      -378.181  
      -294.702          46.000          44.000  
  20862455.136 8  20862452.559 7 109632943.618 8  85428259.351 7      -217.242  
      -169.348          51.000          47.000  
  25242089.748 6  25242088.004 5 132648073.590 6 103362108.729 5     -4149.985  
     -3233.760          38.000          33.000  
  23619610.186 7  23619608.102 6 124121863.051 7  96718314.887 6     -3529.071  
     -2749.966          42.000          40.000  
  21516947.632 7  21516944.343 7 113072317.853 7  88108286.502 7     -2265.858  
     -1765.281          46.000          46.000  
  23000136.198 6  23000135.170 6 120866544.002 6  94181732.901 6      -255.052  
      -199.000          41.000          40.000  
  22166065.557 7  22166063.764 7 116483452.430 7  90766314.162 7     -2399.578  
     -1869.750          45.000          43.000  
  21671942.796 8  21671941.320 7 113886852.649 8  88743047.147 7      2157.595  
      1681.207          49.000          45.000  
  23546113.785 7                 123735684.207 7                      2625.693  
                        44.000                  
 26  4 14  1 50 30.0000000  0  9G08G10G15G18G23G24G27G32G02
  22245854.779 7  22245853.585 7 116902752.574 7  91093065.452 7      -398.277  
      -310.354          46.000          44.000  
  20863724.807 8  20863722.146 7 109639614.767 8  85433457.658 7      -227.667  
      -177.460          51.000          47.000  
  25265785.556 5  25265783.835 5 132772599.062 5 103459141.609 5     -4152.222  
     -3235.383          35.000          34.000  
  23639777.479 7  23639775.472 7 124227841.770 7  96800895.631 7     -3536.265  
     -2755.480          42.000          42.000  
  21529903.574 7  21529900.391 7 113140401.417 7  88161338.616 7     -2273.694  
     -1771.472          46.000          46.000  
  23001654.939 6  23001653.901 6 120874526.877 6  94187953.314 6      -277.336  
      -216.058          40.000          40.000  
  22179808.879 7  22179807.765 7 116555676.218 7  90822592.424 7     -2415.654  
     -1882.385          45.000          44.000  
  21659664.183 8  21659662.651 7 113822328.156 8  88692768.359 7      2143.879  
      1670.380          49.000          44.000  
  23531138.500 7                 123656986.177 7                      2620.403  
                        45.000                  
 26  4 14  1 51  0.0000000  0  9G08G10G15G18G23G24G27G32G02
  22248182.774 7  22248182.275 7 116914989.575 7  91102600.798 7      -417.960  
      -325.932          45.000          44.000  
  20865051.427 8  20865048.822 7 109646586.732 8  85438890.365 7      -237.744  
      -185.413          51.000          46.000  
  25289491.629 5  25289490.034 5 132897175.858 5 103556214.494 5     -4153.793  
     -3236.577          35.000          34.000  
  23659985.415 7  23659983.922 7 124334034.468 7  96883643.118 7     -3543.727  
     -2761.521          42.000          43.000  
  21542902.279 7  21542898.721 7 113208709.033 7  88214565.325 7     -2281.096  
     -1777.434          46.000          46.000  
  23003298.067 6  23003297.633 6 120883161.713 6  94194681.797 6      -299.076  
      -233.325          40.000          40.000  
  22193642.382 7  22193641.549 7 116628372.057 7  90879238.492 7     -2431.491  
     -1894.642          45.000          45.000  
  21647462.224 8  21647460.966 7 113758208.062 8  88642804.693 7      2130.284  
      1659.843          49.000          45.000  
  23516193.097 7                 123578449.981 7                      2614.740  
                        44.000                  
 26  4 14  1 51 30.0000000  0  9G08G10G15G18G23G24G27G32G02
  22250620.967 7  22250620.331 7 116927804.039 7  91112586.078 7      -435.339  
      -339.149          45.000          44.000  
  20866432.677 8  20866430.231 7 109653845.018 8  85444546.164 7      -245.355  
      -191.077          51.000          47.000  
  25313203.935 6  25313202.703 6 133021787.641 6 103653314.584 6     -4152.670  
     -3236.077          38.000          36.000  
  23680230.512 6  23680229.193 7 124440425.593 6  96966545.183 7     -3548.506  
     -2764.665          40.000          42.000  
  21555940.312 7  21555936.953 7 113277225.647 7  88267954.892 7     -2285.952  
     -1781.030          46.000          46.000  
  23005062.791 6  23005061.894 6 120892434.685 6  94201907.505 6      -318.344  
      -248.086          40.000          40.000  
  22207562.808 7  22207561.712 7 116701523.181 7  90936239.341 7     -2444.414  
     -1905.007          45.000          45.000  
  21635335.296 8  21635333.851 7 113694479.668 8  88593146.229 7      2118.978  
      1651.402          49.000          45.000  
  23501276.814 7                 123500063.393 7                      2611.688  
                        44.000                  
 26  4 14  1 52  0.0000000  0  9G08G10G15G18G23G24G27G32G02
  22253165.495 7  22253164.648 7 116941173.180 7  91123003.599 7      -454.769  
      -354.495          46.000          44.000  
  20867864.098 8  20867861.597 7 109661367.051 8  85450407.486 7      -255.188  
      -198.840          51.000          47.000  
  25336919.180 6  25336917.658 5 133146409.235 6 103750422.354 5     -4154.092  
     -3236.481          37.000          35.000  
  23700509.184 7  23700507.467 7 124546991.416 7  97049583.424 7     -3555.206  
     -2770.337          42.000          42.000  
  21569014.036 7  21569010.690 7 113345928.119 7  88321489.265 7     -2293.118  
     -1786.925          46.000          46.000  
  23006944.423 6  23006943.769 6 120902323.750 6  94209613.287 6      -339.754  
      -265.018          39.000          40.000  
  22221565.658 7  22221564.481 7 116775104.794 7  90993575.628 7     -2459.871  
     -1916.757          45.000          45.000  
  21623278.627 8  21623277.145 7 113631122.079 8  88543776.724 7      2105.634  
      1640.868          49.000          45.000  
  23486384.450 7                 123421805.679 7                      2606.441  
                        44.000                  
 26  4 14  1 52 30.0000000  0  9G08G10G15G18G23G24G27G32G02
  22255821.945 7  22255820.688 7 116955129.612 7  91133878.725 7      -475.230  
      -370.005          45.000          44.000  
  20869351.951 8  20869349.314 7 109669185.646 8  85456499.916 7      -265.680  
      -207.056          51.000          47.000  
  25360641.456 6  25360640.359 5 133271072.068 6 103847562.326 5     -4156.133  
     -3238.619          38.000          35.000  
  23720828.289 7  23720826.013 6 124653763.567 7  97132782.477 6     -3562.567  
     -2776.129          43.000          41.000  
  21582129.459 7  21582125.835 7 113414848.694 7  88375193.587 7     -2301.057  
     -1793.054          46.000          46.000  
  23008949.888 6  23008949.114 6 120912862.366 6  94217825.203 6      -362.129  
      -282.341          40.000          40.000  
  22235655.105 7  22235654.140 7 116849147.421 7  91051271.142 7     -2475.771  
     -1929.267          45.000          45.000  
  21611299.360 8  21611297.838 7 113568169.869 8  88494723.094 7      2091.636  
      1629.858          49.000          45.000  
  23471523.702 7                 123343712.109 7                      2600.285  
                        44.000                  
 26  4 14  1 53  0.0000000  0  9G08G10G15G18G23G24G27G32G02
  22258580.944 7  22258580.092 7 116969631.724 7  91145179.084 7      -492.688  
      -384.088          45.000          44.000  
  20870888.214 8  20870885.513 7 109677259.501 8  85462791.226 7      -273.523  
      -213.153          51.000          47.000  
  25384364.027 5  25384362.751 5 133395733.429 5 103944701.077 5     -4155.766  
     -3238.242          32.000          31.000  
  23741177.242 7  23741175.734 7 124760699.708 7  97216109.246 7     -3567.364  
     -2779.865          42.000          43.000  
  21595277.939 7  21595274.479 7 113483945.473 7  88429035.234 7     -2306.352  
     -1797.238          46.000          45.000  
  23011070.856 6  23011070.298 6 120924009.673 6  94226511.435 6      -382.004  
      -297.952          40.000          40.000  
  22249824.684 7  22249823.429 7 116923607.459 7  91109291.919 7     -2489.137  
     -1939.581          46.000          45.000  
  21599389.189 8  21599387.966 7 113505583.449 8  88445954.496 7      2079.982  
      1620.645          49.000          45.000  
  23456686.980 7                 123265743.100 7                      2596.704  
                        44.000                  
 26  4 14  1 53 30.0000000  0  9G08G10G15G18G23G24G27G32G02
  21961655.129 7  21961654.481 7 115409278.244 7  89929319.221 7      -511.141  
      -398.271          45.000          44.000  
  20572684.533 8  20572681.990 7 108110187.408 8  84241696.099 7      -282.264  
      -220.058          51.000          47.000  
  25108297.601 5  25108295.838 5 131944993.891 5 102814254.704 5     -4155.561  
     -3238.778          34.000          34.000  
  23461768.795 6  23461768.025 7 123292400.779 6  96071980.105 7     -3573.215  
     -2784.291          41.000          42.000  
  21308671.526 7  21308668.350 7 111977818.684 7  87255429.926 7     -2312.501  
     -1801.863          46.000          46.000  
  22713519.514 6  22713518.596 6 119360365.054 6  93008087.046 6      -402.653  
      -313.734          40.000          39.000  
  21964284.548 7  21964283.413 7 115423083.595 7  89940052.502 7     -2503.223  
     -1950.495          45.000          45.000  
  21287760.095 8  21287758.877 7 111867960.897 8  87169885.020 7      2067.400  
      1610.865          49.000          45.000  
  23142084.058 7                 121612495.932 7                      2592.142  
                        44.000                  
 26  4 14  1 54  0.0000000  0  9G08G10G15G18G23G24G27G32G02
  21964625.024 7  21964623.846 7 115424881.159 7  89941477.341 7      -530.172  
      -413.105          45.000          44.000  
  20574319.849 8  20574317.502 7 108118782.102 8  84248393.260 7      -291.792  
      -227.412          51.000          47.000  
  25132020.089 5  25132018.394 5 132069656.183 5 102911394.197 5     -4156.309  
     -3238.570          34.000          33.000  
  23482182.600 7  23482181.048 7 123399671.712 7  96155567.766 7     -3579.432  
     -2789.143          43.000          43.000  
  21321888.879 7  21321885.729 7 112047276.480 7  87309552.853 7     -2319.242  
     -1807.089          46.000          46.000  
  22715874.781 6  22715873.600 6 119372741.461 6  93017731.056 6      -423.528  
      -330.194          40.000          40.000  
  21978613.027 7  21978611.934 7 115498381.783 7  89998726.385 7     -2517.657  
     -1961.895          45.000          45.000  
  21275992.546 8  21275991.071 7 111806121.374 8  87121698.409 7      2054.063  
      1600.750          49.000          45.000  
  23127298.052 7                 121534792.136 7                      2586.937  
                        45.000                  
 26  4 14  1 54 30.0000000  0  9G08G10G15G18G23G24G27G32G02
  21967707.041 7  21967706.536 7 115441079.920 7  89954099.753 7      -549.214  
      -427.933          45.000          44.000  
  20576013.604 8  20576011.242 7 108127683.158 8  84255329.141 7      -301.313  
      -234.748          51.000          47.000  
  25155750.348 5  25155749.109 5 132194362.605 5 103008567.962 5     -4157.358  
     -3238.851          35.000          35.000  
  23502636.084 7  23502633.832 7 123507154.225 7  96239320.307 7     -3585.658  
     -2793.977          43.000          42.000  
  21335149.405 7  21335145.987 7 112116959.846 7  87363851.564 7     -2325.922  
     -1812.295          46.000          46.000  
  22718355.193 6  22718354.477 6 119385779.077 6  93027890.264 6      -444.923  
      -346.753          40.000          40.000  
  21993029.392 7  21993028.538 7 115574141.523 7  90057759.904 7     -2532.387  
     -1973.388          45.000          45.000  
  21264305.052 8  21264303.797 7 111744703.728 8  87073840.547 7      2040.727  
      1590.329          49.000          45.000  
  23112545.687 7                 121457269.997 7                      2581.628  
                        44.000                  
 26  4 14  1 55  0.0000000  0  9G08G10G15G18G23G24G27G32G02
  21970903.223 7  21970902.929 7 115457875.965 7  89967187.587 7      -569.658  
      -443.811          45.000          44.000  
  20577766.158 8  20577763.737 7 108136892.358 8  84262505.149 7      -311.870  
      -243.073          51.000          47.000  
  25179489.769 5  25179488.197 5 132319113.346 5 103105776.407 5     -4159.207  
     -3240.489          35.000          34.000  
  23523129.114 6  23523127.739 6 123614849.088 6  96323238.336 6     -3593.032  
     -2799.946          41.000          41.000  
  21348452.917 7  21348449.506 7 112186870.077 7  87418327.060 7     -2334.021  
     -1818.666          46.000          46.000  
  22720963.166 6  22720961.927 6 119399480.128 6  93038566.411 6      -467.478  
      -364.372          41.000          39.000  
  22007533.937 7  22007533.157 7 115650362.255 7  90117152.662 7     -2547.881  
     -1985.618          45.000          44.000  
  21252698.696 8  21252697.199 7 111683711.446 8  87026314.129 7      2026.181  
      1579.029          49.000          45.000  
  23097829.527 7                 121379933.364 7                      2575.091  
                        46.000                  
 26  4 14  1 55 30.0000000  0  9G08G10G15G18G23G24G27G32G02
  21974208.301 7  21974207.651 7 115475243.810 7  89980720.971 7      -588.575  
      -458.530          45.000          44.000  
  20579572.589 8  20579570.138 7 108146384.625 8  84269901.733 7      -321.028  
      -250.332          51.000          47.000  
  25203232.938 6  25203230.660 6 132443881.726 6 103202998.531 6     -4159.080  
     -3240.843          39.000          38.000  
  23543658.440 7  23543656.887 6 123722729.920 7  96407301.230 6     -3599.216  
     -2804.513          43.000          41.000  
  21361794.663 7  21361791.342 7 112256981.483 7  87472959.313 7     -2340.414  
     -1823.805          46.000          46.000  
  22723691.785 6  22723690.738 6 119413819.766 6  93049740.154 6      -488.703  
      -380.781          40.000          40.000  
  22022120.926 7  22022119.753 7 115727016.534 7  90176883.209 7     -2562.429  
     -1996.676          45.000          45.000  
  21241168.717 8  21241166.934 7 111623121.029 8  86979100.847 7      2012.945  
      1568.650          49.000          45.000  
  23083143.592 7                 121302759.133 7                      2569.713  
                        45.000                  
 26  4 14  1 56  0.0000000  0  9G08G10G15G18G23G24G27G32G02
  21977620.422 7  21977619.264 7 115493173.284 7  89994691.985 7      -606.930  
      -473.067          45.000          44.000  
  20581430.840 8  20581428.451 7 108156150.216 8  84277511.276 7      -329.961  
      -257.210          51.000          46.000  
  25226976.393 5  25226974.409 5 132568655.447 5 103300224.905 5     -4159.119  
     -3240.889          35.000          34.000  
  23564221.104 7  23564219.459 6 123830785.771 7  96491500.565 6     -3604.792  
     -2809.091          43.000          41.000  
  21375172.364 7  21375169.290 7 112327283.736 7  87527740.283 7     -2346.565  
     -1828.662          46.000          46.000  
  22726540.226 6  22726539.112 6 119428788.615 6  93061404.211 6      -509.552  
      -396.842          40.000          39.000  
  22036787.580 7  22036786.602 7 115804092.182 7  90236942.125 7     -2576.095  
     -2007.517          45.000          44.000  
  21229713.597 8  21229711.935 7 111562924.344 8  86932194.389 7      1999.921  
      1558.401          49.000          45.000  
  23068487.000 7                 121225739.713 7                      2564.715  
                        44.000                  
 26  4 14  1 56 30.0000000  0  9G08G10G15G18G23G24G27G32G02
  21981140.339 7  21981139.433 7 115511670.255 7  90009105.208 7      -625.782  
      -487.644          46.000          44.000  
  20583342.361 8  20583340.097 7 108166195.393 8  84285338.699 7      -338.998  
      -264.225          51.000          47.000  
  25250721.348 4  25250719.620 3 132693435.44134                     -4159.621  
     -3237.847          25.000          23.000  
  23584817.335 6  23584816.097 6 123939021.885 6  96575840.345 6     -3610.428  
     -2813.395          41.000          41.000  
  21388587.844 7  21388584.656 7 112397782.614 7  87582674.465 7     -2352.904  
     -1833.536          46.000          46.000  
  22729509.504 6  22729508.630 6 119444393.279 6  93073563.709 6      -530.307  
      -413.267          40.000          40.000  
  22051536.096 7  22051534.593 7 115881593.146 7  90297332.444 7     -2590.152  
     -2018.333          46.000          44.000  
  21218334.961 8  21218333.375 7 111503129.323 8  86885600.896 7      1986.667  
      1548.124          50.000          46.000  
  23053861.066 7                 121148883.156 7                      2559.370  
                        43.000                  
 26  4 14  1 57  0.0000000  0  8G08G10G18G23G24G27G32G02
  21984767.777 7  21984767.036 7 115530733.186 7  90023959.447 7      -644.969  
      -502.593          46.000          44.000  
  20585306.907 8  20585304.856 7 108176519.112 8  84293383.147 7      -348.764  
      -271.763          51.000          47.000  
  23605447.926 6  23605447.018 7 124047436.053 6  96660318.826 7     -3616.887  
     -2818.419          41.000          42.000  
  21402040.320 7  21402037.499 7 112468476.493 7  87637760.584 7     -2359.819  
     -1838.963          46.000          46.000  
  22732599.356 6  22732598.963 6 119460633.025 6  93086218.060 6      -552.004  
      -430.098          40.000          40.000  
  22066364.154 7  22066362.680 7 115959515.960 7  90358051.501 7     -2604.500  
     -2029.647          45.000          44.000  
  21207032.804 8  21207031.346 7 111443736.481 8  86839320.803 7      1972.915  
      1537.186          50.000          46.000  
  23039267.642 7                 121072190.743 7                      2553.477  
                        44.000                  
 26  4 14  1 57 30.0000000  0  8G08G10G18G23G24G27G32G02
  21988510.705 7  21988509.384 7 115550399.156 7  90039283.551 7      -664.812  
      -518.042          46.000          44.000  
  20587331.558 8  20587329.324 7 108187158.903 8  84301673.899 7      -359.229  
      -279.926          51.000          47.000  
  23626119.355 6  23626118.101 7 124156064.481 6  96744964.276 7     -3623.779  
     -2823.799          41.000          42.000  
  21415537.315 7  21415534.157 7 112539402.364 7  87693027.466 7     -2367.491  
     -1844.751          45.000          46.000  
  22735818.079 6  22735817.226 6 119477545.534 6  93099396.656 6      -574.154  
      -447.408          40.000          40.000  
  22081279.614 7  22081278.196 7 116037895.732 7  90419126.614 7     -2619.775  
     -2041.283          46.000          44.000  
  21195814.793 8  21195813.183 7 111384784.946 8  86793384.565 7      1958.326  
      1526.124          50.000          46.000  
  23024712.219 7                 120995701.898 7                      2546.766  
                        45.000                  
 26  4 14  1 58  0.0000000  0  8G08G10G18G23G24G27G32G02
  21992360.700 7  21992359.715 7 115570634.182 7  90055051.115 7      -683.436  
      -532.601          46.000          44.000  
  20589409.809 8  20589407.469 7 108198081.338 8  84310184.892 7      -368.656  
      -287.296          51.000          47.000  
  23646824.693 6  23646823.557 7 124264872.610 6  96829749.762 7     -3629.517  
     -2828.286          41.000          42.000  
  21429072.129 7  21429068.835 7 112610526.185 7  87748448.613 7     -2373.286  
     -1849.502          46.000          46.000  
  22739158.160 6  22739157.539 6 119495097.701 6  93113073.670 6      -595.142  
      -464.017          41.000          40.000  
  22096274.822 7  22096273.562 7 116116696.626 7  90480529.874 7     -2633.282  
     -2051.887          45.000          45.000  
  21184674.633 8  21184672.998 7 111326242.837 8  86747767.385 7      1944.872  
      1515.450          50.000          46.000  
  23010189.354 7                 120919385.404 7                      2541.493  
                        44.000                  
 26  4 14  1 58 30.0000000  0  8G08G10G18G23G24G27G32G02
  21996314.471 7  21996313.054 7 115591412.477 7  90071241.977 7      -702.074  
      -546.997          45.000          43.000  
  20591537.369 8  20591535.013 7 108209261.060 8  84318896.368 7      -377.362  
      -294.043          51.000          47.000  
  23667559.612 6  23667558.503 6 124373833.995 6  96914654.644 6     -3635.053  
     -2832.311          41.000          41.000  
  21442639.312 7  21442636.185 7 112681822.198 7  87804003.934 7     -2380.156  
     -1854.462          46.000          46.000  
  22742615.370 6  22742613.895 6 119513264.329 6  93127229.505 6      -616.130  
      -480.023          41.000          39.000  
  22111345.167 7  22111343.522 7 116195890.890 7  90542239.658 7     -2646.780  
     -2062.316          45.000          44.000  
  21173607.706 8  21173606.263 7 111268086.409 8  86702450.718 7      1931.812  
      1505.293          49.000          46.000  
  22995695.680 7                 120843217.748 7                      2536.006  
                        45.000                  
 26  4 14  1 59  0.0000000  0  8G08G10G18G23G24G27G32G02
  22000378.669 7  22000377.444 7 115612770.455 7  90087884.543 7      -722.067  
      -562.567          45.000          43.000  
  20593720.939 8  20593718.343 7 108220735.172 8  84327837.236 7      -387.821  
      -302.243          51.000          47.000  
  23688330.647 7  23688329.097 6 124482984.370 7  96999706.847 6     -3641.913  
     -2838.074          42.000          41.000  
  21456245.826 7  21456242.874 7 112753326.813 7  87859721.797 7     -2387.312  
     -1860.250          46.000          46.000  
  22746196.695 6  22746195.196 6 119532082.628 6  93141893.118 6      -638.322  
      -497.474          41.000          40.000  
  22126496.703 7  22126495.319 7 116275513.094 7  90604282.912 7     -2661.565  
     -2073.937          45.000          44.000  
  21162621.536 8  21162620.349 7 111210354.259 8  86657464.648 7      1916.973  
      1493.841          50.000          46.000  
  22981237.108 7                 120767238.204 7                      2529.050  
                        45.000                  
 26  4 14  1 59 30.0000000  0  8G08G10G18G23G24G27G32G02
  22004555.468 7  22004553.167 7 115634716.898 7  90104985.686 7      -740.942  
      -577.371          45.000          43.000  
  20595962.025 8  20595959.500 7 108232512.955 8  84337014.738 7      -397.262  
      -309.634          51.000          46.000  
  23709138.791 7  23709137.638 6 124592331.919 7  97084912.677 6     -3647.937  
     -2842.365          42.000          41.000  
  21469893.985 7  21469890.747 7 112825048.824 7  87915609.090 7     -2393.669  
     -1865.514          46.000          45.000  
  22749903.171 6  22749902.164 6 119551562.078 6  93157071.920 6      -659.837  
      -514.084          41.000          40.000  
  22141730.830 7  22141729.807 7 116355570.157 7  90666665.017 7     -2675.371  
     -2084.827          45.000          45.000  
  21151718.111 8  21151716.823 7 111153057.208 8  86612817.643 7      1903.021  
      1482.781          50.000          45.000  
  22966816.453 7                 120691458.123 7                      2523.160  
                        46.000                  
 26  4 14  2  0  0.0000000  0  8G08G10G18G23G24G27G32G02
  22008839.879 7  22008838.867 7 115657234.065 7  90122531.529 7      -760.948  
      -593.058          45.000          44.000  
  20598257.891 8  20598255.483 7 108244577.308 8  84346415.528 7      -407.678  
      -317.626          51.000          47.000  
  23729980.786 6  23729979.974 7 124701858.270 6  97170257.790 7     -3654.492  
     -2847.540          41.000          42.000  
  21483580.422 7  21483577.209 7 112896970.642 7  87971652.039 7     -2401.580  
     -1871.416          45.000          46.000  
  22753732.797 7  22753731.722 6 119571685.576 7  93172752.583 6      -682.247  
      -531.620          42.000          40.000  
  22157044.513 7  22157043.294 7 116436042.443 7  90729370.654 7     -2690.066  
     -2096.219          45.000          45.000  
  21140894.706 8  21140893.230 7 111096179.668 8  86568497.508 7      1888.061  
      1471.277          50.000          46.000  
  22952430.812 7                 120615862.612 7                      2515.870  
                        44.000                  
 26  4 14  2  0 30.0000000  0  8G08G10G18G23G24G27G32G02
  22013230.158 7  22013229.564 7 115680304.621 7  90140508.553 7      -777.835  
      -606.049          45.000          44.000  
  20600605.170 8  20600602.698 7 108256911.489 8  84356026.578 7      -415.122  
      -323.452          51.000          47.000  
  23750853.419 6  23750852.094 6 124811545.645 6  97255728.391 6     -3658.484  
     -2850.818          40.000          39.000  
  21497301.435 7  21497298.204 7 112969074.924 7  88027837.183 7     -2406.074  
     -1874.908          46.000          45.000  
  22757681.601 6  22757680.397 6 119592436.567 6  93188922.207 6      -701.681  
      -546.822          41.000          40.000  
  22172433.481 7  22172431.981 7 116516910.751 7  90792384.897 7     -2701.551  
     -2105.077          46.000          44.000  
  21130148.146 8  21130146.682 7 111039706.409 8  86524492.405 7      1876.318  
      1462.009          49.000          46.000  
  22938078.624 7                 120540436.819 7                      2511.682  
                        46.000                  
 26  4 14  2  1  0.0000000  0  8G08G10G18G23G24G27G32G02
  22017725.902 7  22017725.288 7 115703931.065 7  90158918.790 7      -796.978  
      -621.040          45.000          44.000  
  20603004.180 8  20603001.593 7 108269518.685 8  84365850.370 7      -425.036  
      -331.170          51.000          47.000  
  23771757.886 7  23771756.082 6 124921395.823 7  97341325.915 6     -3664.605  
     -2855.609          42.000          41.000  
  21511057.599 7  21511054.350 7 113041364.379 7  88084166.625 7     -2412.788  
     -1880.070          45.000          46.000  
  22761750.398 6  22761749.331 6 119613818.223 6  93205583.252 6      -723.472  
      -563.745          41.000          40.000  
  22187897.430 7  22187896.211 7 116598175.817 7  90855708.309 7     -2715.521  
     -2115.989          45.000          44.000  
  21119479.356 8  21119477.641 7 110983642.083 8  86480805.946 7      1861.982  
      1450.814          49.000          45.000  
  22923758.127 7                 120465185.949 7                      2505.280  
                        45.000                  
 26  4 14  2  1 30.0000000  0  8G08G10G18G23G24G27G32G02
  22022325.385 7  22022324.833 7 115728101.235 7  90177752.675 7      -814.673  
      -634.690          45.000          44.000  
  20605453.088 8  20605450.494 7 108282387.378 8  84375877.927 7      -433.289  
      -337.782          51.000          47.000  
  23792689.846 6  23792688.801 7 125031396.106 6  97427040.370 7     -3669.360  
     -2859.186          41.000          42.000  
  21524846.807 7  21524843.520 7 113113826.951 7  88140630.952 7     -2418.301  
     -1884.441          46.000          45.000  
  22765936.756 6  22765935.752 6 119635819.007 6  93222726.712 6      -743.728  
      -579.430          41.000          40.000  
  22203434.526 7  22203433.533 7 116679823.559 7  90919329.906 7     -2728.058  
     -2125.751          46.000          44.000  
  21108886.835 8  21108885.435 7 110927976.682 8  86437430.326 7      1848.843  
      1440.648          50.000          46.000  
  22909469.829 7                 120390100.790 7                      2500.072  
                        45.000                  
 26  4 14  2  2  0.0000000  0  8G08G10G18G23G24G27G32G02
  22027033.023 7  22027032.400 7 115752839.302 7  90197029.088 7      -833.972  
      -649.891          45.000          44.000  
  20607955.957 8  20607953.865 7 108295542.417 8  84386128.610 7      -443.067  
      -345.313          51.000          46.000  
  23813654.810 6  23813654.492 7 125141570.283 6  97512890.224 7     -3675.287  
     -2863.727          40.000          42.000  
  21538673.733 7  21538670.302 7 113186486.955 7  88197249.130 7     -2425.123  
     -1889.817          46.000          45.000  
  22770245.606 6  22770244.791 6 119658463.820 6  93240372.065 6      -765.292  
      -596.600          40.000          40.000  
  22219048.450 7  22219047.698 7 116761876.407 7  90983267.150 7     -2741.789  
     -2136.396          45.000          44.000  
  21098374.737 8  21098373.330 7 110872736.486 8  86394386.064 7      1834.343  
      1429.385          50.000          46.000  
  22895218.129 7                 120315208.263 7                      2493.309  
                        44.000                  
 26  4 14  2  2 30.0000000  0  8G08G10G18G23G24G27G32G02
  22031852.094 7  22031851.324 7 115778163.929 7  90216762.559 7      -854.237  
      -665.637          45.000          44.000  
  20610517.787 8  20610515.363 7 108309003.294 8  84396617.600 7      -454.017  
      -353.803          51.000          47.000  
  23834657.820 7  23834656.289 6 125251936.364 7  97598889.699 6     -3682.343  
     -2869.244          42.000          41.000  
  21552541.665 7  21552538.201 7 113259363.314 7  88254035.882 7     -2433.051  
     -1895.873          46.000          45.000  
  22774680.926 6  22774680.296 6 119681772.040 6  93258534.331 6      -788.042  
      -614.122          40.000          40.000  
  22234743.296 7  22234742.253 7 116844351.205 7  91047533.211 7     -2756.585  
     -2147.987          46.000          44.000  
  21087947.874 8  21087946.495 7 110817942.403 8  86351689.412 7      1818.638  
      1417.124          50.000          46.000  
  22881007.559 7                 120240529.922 7                      2485.354  
                        45.000                  
 26  4 14  2  3  0.0000000  0  8G08G10G18G23G24G27G32G02
  22036781.736 7  22036780.975 7 115804069.798 7  90236948.934 7      -872.271  
      -679.565          45.000          44.000  
  20613136.491 8  20613134.243 7 108322765.358 8  84407341.278 7      -463.095  
      -360.762          51.000          47.000  
  23855695.395 6  23855693.304 6 125362488.527 6  97685034.226 6     -3687.305  
     -2873.230          41.000          41.000  
  21566449.930 7  21566445.936 7 113332450.904 7  88310987.231 7     -2438.962  
     -1900.502          46.000          45.000  
  22779241.526 6  22779240.898 6 119705738.910 6  93277209.825 6      -808.992  
      -630.656          39.000          40.000  
  22250516.354 7  22250515.051 7 116927240.840 7  91112122.499 7     -2768.951  
     -2157.630          45.000          44.000  
  21077605.068 8  21077603.653 7 110763591.240 8  86309337.889 7      1805.010  
      1406.581          50.000          46.000  
  22866836.812 7                 120166063.015 7                      2479.570  
                        45.000                  
 26  4 14  2  3 30.0000000  0  8G08G10G18G23G24G27G32G02
  22041815.412 7  22041814.745 7 115830521.686 7  90257560.816 7      -890.704  
      -694.169          46.000          44.000  
  20615806.301 8  20615803.865 7 108336794.196 8  84418272.843 7      -472.115  
      -367.768          51.000          47.000  
  23876760.494 6  23876759.642 6 125473191.257 6  97771296.004 6     -3692.554  
     -2877.173          38.000          41.000  
  21580391.581 7  21580387.762 7 113405714.751 7  88368075.974 7     -2444.897  
     -1905.339          46.000          44.000  
  22783921.476 6  22783920.653 6 119730329.963 6  93296371.674 6      -830.059  
      -646.735          40.000          40.000  
  22266361.912 7  22266360.496 7 117010508.355 7  91177006.280 7     -2781.698  
     -2167.540          45.000          44.000  
  21067340.368 8  21067338.887 7 110709649.988 8  86267305.786 7      1791.193  
      1395.840          50.000          46.000  
  22852700.205 7                 120091775.443 7                      2473.383  
                        45.000                  
 26  4 14  2  4  0.0000000  0  8G08G10G18G23G24G27G32G02
  22046958.542 7  22046957.145 7 115857545.884 7  90278618.631 7      -910.654  
      -709.999          45.000          43.000  
  20618531.715 8  20618529.318 7 108351116.837 8  84429433.354 7      -482.621  
      -376.090          51.000          47.000  
  23897860.110 6  23897859.844 7 125584070.277 6  97857695.172 7     -3699.249  
     -2882.587          41.000          42.000  
  21594371.608 7  21594368.155 7 113479181.467 7  88425322.753 7     -2452.496  
     -1911.154          46.000          45.000  
  22788724.784 6  22788723.761 6 119755572.060 6  93316040.858 6      -852.498  
      -664.133          40.000          40.000  
  22282283.439 7  22282282.515 7 117094178.236 7  91242203.567 7     -2795.991  
     -2178.652          45.000          44.000  
  21057158.951 8  21057157.944 7 110656147.091 8  86225615.265 7      1775.793  
      1383.526          50.000          46.000  
  22838603.965 7                 120017696.409 7                      2465.391  
                        45.000                  
 26  4 14  2  4 30.0000000  0  8G08G10G18G23G24G27G32G02
  22052206.048 7  22052204.447 7 115885122.282 7  90300106.728 7      -928.539  
      -723.470          46.000          43.000  
  20621309.726 8  20621307.097 7 108365714.068 8  84440807.822 7      -491.256  
      -382.690          51.000          46.000  
  23918989.934 7  23918989.376 7 125695105.032 7  97944215.690 7     -3703.979  
     -2886.212          42.000          43.000  
  21608386.558 7  21608383.571 7 113552831.212 7  88482712.144 7     -2458.142  
     -1915.454          46.000          45.000  
  22793648.161 6  22793647.791 6 119781445.790 6  93336202.227 6      -873.216  
      -680.422          40.000          40.000  
  22298278.125 7  22298276.777 7 117178228.676 7  91307697.393 7     -2808.052  
     -2188.090          45.000          44.000  
  21047057.874 8  21047056.289 7 110603064.690 8  86184252.380 7      1762.253  
      1373.215          50.000          46.000  
  22824543.084 7                 119943808.243 7                      2459.820  
                        45.000                  
 26  4 14  2  5  0.0000000  0  8G08G10G18G23G24G27G32G02
  22057558.126 7  22057557.536 7 115913249.085 7  90322023.726 7      -946.708  
      -737.776          46.000          44.000  
  20624139.495 8  20624136.848 7 108380584.851 8  84452395.453 7      -500.262  
      -389.844          51.000          47.000  
  23940148.366 6  23940147.586 7 125806293.311 6  98030855.860 7     -3708.813  
     -2889.954          41.000          42.000  
  21622436.385 7  21622432.927 7 113626662.522 7  88540243.015 7     -2464.164  
     -1920.152          46.000          45.000  
  22798691.777 6  22798691.035 6 119807949.994 6  93356854.870 6      -894.232  
      -696.773          40.000          40.000  
  22314343.841 7  22314342.485 7 117262656.098 7  91373484.962 7     -2820.515  
     -2197.633          45.000          44.000  
  21037036.431 8  21037034.940 7 110550403.161 8  86143217.467 7      1748.312  
      1362.116          50.000          46.000  
  22810519.273 7                 119870112.609 7                      2453.190  
                        45.000                  
 26  4 14  2  5 30.0000000  0  8G08G10G18G23G24G27G32G02
  22063016.846 7  22063015.099 7 115941933.184 7  90344374.949 7      -965.715  
      -752.317          45.000          43.000  
  20627022.789 8  20627020.393 7 108395737.017 8  84464202.337 7      -510.096  
      -397.573          51.000          47.000  
  23961337.179 6  23961335.785 6 125917641.685 6  98117620.729 6     -3714.642  
     -2894.342          41.000          40.000  
  21636521.719 7  21636518.702 7 113700682.660 7  88597921.021 7     -2470.984  
     -1925.198          46.000          45.000  
  22803856.667 6  22803856.335 6 119835092.152 6  93378004.599 6      -916.019  
      -713.433          40.000          40.000  
  22330482.344 7  22330481.434 7 117347465.769 7  91439570.397 7     -2833.784  
     -2208.031          44.000          44.000  
  21027097.240 8  21027095.641 7 110498171.609 8  86102517.593 7      1733.476  
      1350.664          50.000          46.000  
  22796533.809 7                 119796619.081 7                      2446.075  
                        45.000                  
 26  4 14  2  6  0.0000000  0  8G08G10G18G23G24G27G32G02
  22068580.226 7  22068579.011 7 115971170.540 7  90367157.318 7      -983.653  
      -766.693          45.000          44.000  
  20629959.197 8  20629956.647 7 108411167.422 8  84476226.026 7      -518.885  
      -404.216          51.000          47.000  
  23982555.567 6  23982554.013 6 126029145.681 6  98204506.952 6     -3719.232  
     -2897.901          40.000          38.000  
  21650643.049 7  21650639.654 7 113774887.975 7  88655743.325 7     -2476.555  
     -1929.664          46.000          45.000  
  22809142.533 6  22809141.667 6 119862868.923 6  93399648.889 6      -936.493  
      -729.805          41.000          40.000  
  22346693.077 7  22346692.240 7 117432651.857 7  91505949.155 7     -2845.690  
     -2217.510          45.000          44.000  
  21017239.414 8  21017238.033 7 110446368.284 8  86062151.395 7      1719.680  
      1339.849          50.000          46.000  
  22782586.590 7                 119723326.575 7                      2439.722  
                        45.000                  
 26  4 14  2  6 30.0000000  0  8G08G10G18G23G24G27G32G02
  22074249.537 7  22074248.392 7 116000961.661 7  90390371.159 7     -1003.027  
      -781.491          45.000          44.000  
  20632948.582 8  20632946.124 7 108426877.398 8  84488467.575 7      -529.028  
      -412.256          51.000          47.000  
  24003803.929 6  24003802.350 6 126140805.460 6  98291514.521 6     -3725.390  
     -2902.718          40.000          41.000  
  21664799.323 7  21664795.699 7 113849279.334 7  88713710.604 7     -2483.537  
     -1935.176          46.000          45.000  
  22814549.338 6  22814548.363 6 119891281.390 6  93421788.496 6      -958.301  
      -746.830          40.000          40.000  
  22362974.908 7  22362973.813 7 117518213.196 7  91572620.306 7     -2858.992  
     -2227.714          45.000          44.000  
  21007463.797 8  21007462.153 7 110394995.867 8  86022120.965 7      1704.477  
      1328.227          50.000          46.000  
  22768678.750 7                 119650239.023 7                      2432.150  
                        45.000                  
 26  4 14  2  7  0.0000000  0  8G08G10G18G23G24G27G32G02
  22080024.355 7  22080024.021 7 116031310.468 7  90414019.594 7     -1021.064  
      -795.709          45.000          44.000  
  20635992.293 8  20635990.021 7 108442871.918 8  84500930.835 7      -538.187  
      -419.283          51.000          47.000  
  24025082.884 6  24025081.900 7 126252624.626 6  98378646.263 7     -3730.346  
     -2906.908          40.000          42.000  
  21678991.640 7  21678988.272 7 113923861.181 7  88771826.317 7     -2489.551  
     -1939.668          46.000          45.000  
  22820078.348 6  22820077.160 6 119920334.149 6  93444427.018 6      -979.495  
      -763.185          41.000          40.000  
  22379328.375 7  22379327.524 7 117604152.117 7  91639585.671 7     -2871.112  
     -2237.176          45.000          44.000  
  20997770.559 8  20997769.455 7 110344060.570 8  85982431.175 7      1690.408  
      1317.100          50.000          46.000  
  22754811.009 7                 119577363.097 7                      2425.405  
                        45.000                  
 26  4 14  2  7 30.0000000  0  8G08G10G18G23G24G27G32G02
  22085904.363 7  22085903.708 7 116062210.540 7  90438097.577 7     -1039.203  
      -809.835          45.000          44.000  
  20639089.003 8  20639086.650 7 108459145.470 8  84513611.534 7      -546.973  
      -426.296          51.000          46.000  
  24046390.206 6  24046389.837 7 126364596.414 6  98465896.903 7     -3734.739  
     -2910.181          40.000          42.000  
  21693219.003 7  21693215.721 7 113998627.503 7  88830085.781 7     -2495.234  
     -1944.428          46.000          45.000  
  22825727.617 6  22825726.420 6 119950021.325 6  93467559.898 6      -999.768  
      -779.187          41.000          40.000  
  22395752.629 7  22395751.329 7 117690460.480 7  91706838.906 7     -2883.169  
     -2246.566          44.000          44.000  
  20988160.594 8  20988159.112 7 110293558.229 8  85943078.720 7      1676.309  
      1306.103          50.000          46.000  
  22740982.252 7                 119504695.549 7                      2418.749  
                        45.000                  
 26  4 14  2  8  0.0000000  0  8G08G10G18G23G24G27G32G02
  22091895.463 7  22091895.213 7 116093693.898 7  90462630.056 7     -1059.932  
      -825.824          45.000          44.000  
  20642244.900 8  20642242.478 7 108475731.044 8  84526535.358 7      -559.006  
      -435.512          51.000          47.000  
  24067732.851 6  24067731.661 6 126476752.556 6  98553291.218 6     -3742.944  
     -2916.083          41.000          40.000  
  21707487.833 7  21707484.603 7 114073610.810 7  88888514.316 7     -2504.177  
     -1951.113          46.000          45.000  
  22831503.687 7  22831502.673 6 119980375.598 7  93491212.578 6     -1023.949  
      -797.908          42.000          40.000  
  22412252.272 7  22412251.696 7 117777168.664 7  91774403.688 7     -2897.858  
     -2257.789          44.000          44.000  
  20978639.246 8  20978637.630 7 110243523.082 8  85904090.319 7      1659.155  
      1292.938          50.000          46.000  
  22727200.691 7                 119432271.274 7                      2409.078  
                        45.000                  
 26  4 14  2  8 30.0000000  0  8G08G10G18G23G24G27G32G02
  22098000.899 7  22098000.466 7 116125775.788 7  90487628.930 7     -1078.574  
      -840.401          45.000          44.000  
  20645463.437 8  20645461.123 7 108492644.902 8  84539714.999 7      -568.691  
      -443.117          51.000          47.000  
  24089112.933 6  24089111.358 6 126589108.014 6  98640840.932 6     -3747.627  
     -2920.551          39.000          38.000  
  21721801.048 7  21721797.857 7 114148826.843 7  88947124.191 7     -2510.412  
     -1956.072          46.000          45.000  
  22837410.023 6  22837408.452 6 120011412.733 6  93515397.379 6     -1045.348  
      -814.560          41.000          40.000  
  22428831.262 7  22428830.434 7 117864290.285 7  91842290.655 7     -2910.265  
     -2267.733          44.000          44.000  
  20969209.626 8  20969208.278 7 110193972.686 8  85865479.657 7      1644.220  
      1281.177          50.000          46.000  
  22713468.298 7                 119360108.912 7                      2401.752  
                        45.000                  
 26  4 14  2  9  0.0000000  0  8G08G10G18G23G24G27G32G02
  22104210.451 7  22104209.545 7 116158407.348 7  90513056.119 7     -1097.091  
      -854.968          45.000          44.000  
  20648735.497 8  20648733.213 7 108509839.238 8  84553113.183 7      -578.212  
      -450.458          51.000          46.000  
  24110523.046 7  24110520.899 6 126701613.685 7  98728507.656 6     -3752.980  
     -2924.820          42.000          38.000  
  21736148.982 7  21736146.032 7 114224227.334 7  89005877.811 7     -2516.623  
     -1961.240          45.000          45.000  
  22843436.553 6  22843435.985 6 120043084.549 6  93540076.704 6     -1066.728  
      -830.924          41.000          41.000  
  22445478.800 7  22445478.156 7 117951774.913 7  91910460.461 7     -2922.439  
     -2277.348          44.000          44.000  
  20959864.111 8  20959862.672 7 110144860.457 8  85827210.424 7      1629.571  
      1269.757          50.000          46.000  
  22699777.501 7                 119288162.729 7                      2394.316  
                        46.000                  
 26  4 14  2  9 30.0000000  0  8G08G10G18G23G24G27G32G02
  22110527.388 7  22110526.689 7 116191605.915 7  90538925.140 7     -1116.400  
      -869.958          45.000          44.000  
  20652064.407 8  20652062.079 7 108527332.412 8  84566744.243 7      -588.418  
      -458.560          51.000          47.000  
  24131964.165 7  24131962.249 6 126814286.561 7  98816304.635 6     -3759.092  
     -2929.089          43.000          41.000  
  21750535.715 7  21750532.750 7 114299830.130 7  89064789.072 7     -2523.819  
     -1966.772          45.000          45.000  
  22849587.578 6  22849587.099 6 120075408.914 6  93565264.544 6     -1088.315  
      -848.341          40.000          41.000  
  22462199.142 7  22462197.998 7 118039638.235 7  91978925.369 7     -2935.252  
     -2287.506          45.000          44.000  
  20950605.309 8  20950603.887 7 110096205.993 8  85789297.885 7      1613.763  
      1257.513          50.000          46.000  
  22686131.727 7                 119216453.158 7                      2385.996  
                        45.000                  
 26  4 14  2 10  0.0000000  0  8G08G10G18G23G24G27G32G02
  22116953.627 7  22116952.789 7 116225374.374 7  90565238.208 7     -1134.253  
      -883.790          45.000          44.000  
  20655450.891 8  20655448.253 7 108545128.381 8  84580611.225 7      -597.248  
      -465.320          51.000          46.000  
  24153437.340 7  24153435.898 6 126927129.345 7  98904234.041 6     -3763.364  
     -2932.500          42.000          40.000  
  21764961.893 7  21764958.900 7 114375638.721 7  89123860.670 7     -2529.339  
     -1970.766          46.000          45.000  
  22855863.532 6  22855862.856 6 120108389.325 6  93590963.576 6     -1109.380  
      -864.507          41.000          41.000  
  22478991.056 7  22478990.072 7 118127881.548 7  92047686.353 7     -2946.539  
     -2296.094          45.000          44.000  
  20941434.839 8  20941433.357 7 110048014.468 8  85751746.080 7      1599.603  
      1246.393          50.000          46.000  
  22672531.940 7                 119144986.105 7                      2379.126  
                        46.000                  
 26  4 14  2 10 30.0000000  0  8G08G10G18G23G24G27G32G02
  22123483.584 7  22123483.831 7 116259691.786 7  90591979.054 7     -1153.879  
      -899.177          44.000          45.000  
  20658891.205 8  20658888.661 7 108563207.326 8  84594698.728 7      -608.111  
      -473.975          51.000          46.000  
  24174938.397 6  24174937.795 6 127040120.996 6  98992279.371 6     -3769.681  
     -2937.409          39.000          41.000  
  21779423.237 7  21779419.981 7 114451632.790 7  89183076.821 7     -2536.932  
     -1976.786          46.000          45.000  
  22862260.448 6  22862259.804 6 120142005.405 6  93617157.931 6     -1131.669  
      -881.790          41.000          41.000  
  22495851.085 7  22495850.020 7 118216482.396 7  92116725.943 7     -2960.137  
     -2306.419          44.000          44.000  
  20932348.874 8  20932347.272 7 110000267.265 8  85714540.500 7      1583.350  
      1233.875          50.000          46.000  
  22658974.556 7                 119073744.048 7                      2370.146  
                        45.000                  
 26  4 14  2 11  0.0000000  0  8G08G10G18G23G24G27G32G02
  22130123.908 7  22130124.369 7 116294587.123 7  90619170.212 7     -1171.837  
      -913.287          45.000          45.000  
  20662390.938 8  20662388.785 7 108581599.328 8  84609030.149 7      -617.466  
      -481.069          51.000          47.000  
  24196473.481 6  24196472.809 6 127153290.246 6  99080463.125 6     -3774.955  
     -2941.217          38.000          39.000  
  21793925.463 7  21793922.010 7 114527841.922 7  89242460.537 7     -2543.265  
     -1981.703          46.000          45.000  
  22868784.515 7  22868783.139 6 120176286.683 7  93643870.622 6     -1153.130  
      -898.476          42.000          41.000  
  22512784.519 7  22512783.987 7 118305468.165 7  92186065.465 7     -2972.037  
     -2315.650          44.000          44.000  
  20923353.835 8  20923352.036 7 109952995.664 8  85677705.518 7      1568.463  
      1222.125          50.000          46.000  
  22645466.671 7                 119002759.256 7                      2362.516  
                        45.000                  
 26  4 14  2 11 30.0000000  0  8G08G10G18G23G24G27G32G02
  22136867.749 7  22136867.639 7 116330024.198 7  90646783.499 7     -1190.222  
      -927.390          45.000          45.000  
  20665943.924 8  20665941.456 7 108600269.305 8  84623578.198 7      -626.880  
      -488.605          51.000          47.000  
  24218036.216 6  24218035.225 6 127266600.615 6  99168756.861 6     -3779.471  
     -2944.773          40.000          40.000  
  21808461.362 7  21808458.551 7 114604230.559 7  89301984.150 7     -2549.247  
     -1986.426          46.000          45.000  
  22875427.502 6  22875427.029 7 120211197.511 6  93671073.880 7     -1174.135  
      -914.999          41.000          42.000  
  22529784.551 7  22529783.317 7 118394801.101 7  92255675.507 7     -2983.565  
     -2324.698          44.000          44.000  
  20914442.287 8  20914440.566 7 109906165.736 8  85641214.689 7      1553.656  
      1210.681          50.000          46.000  
  22632001.431 7                 118931998.797 7                      2354.881  
                        45.000                  
 26  4 14  2 12  0.0000000  0  8G08G10G18G23G24G27G32G02
  22143716.449 7  22143716.258 7 116366015.280 7  90674828.481 7     -1209.715  
      -942.632          44.000          44.000  
  20669552.124 8  20669549.716 7 108619230.744 8  84638353.341 7      -637.806  
      -496.955          51.000          47.000  
  24239627.867 6  24239626.280 6 127380064.255 6  99257170.139 6     -3785.442  
     -2949.994          41.000          40.000  
  21823034.883 7  21823031.306 7 114680811.708 7  89361657.771 7     -2556.711  
     -1992.320          46.000          45.000  
  22882192.790 6  22882192.884 7 120246750.776 6  93698777.711 7     -1196.630  
      -932.514          41.000          42.000  
  22546852.041 7  22546850.614 7 118484491.998 7  92325564.482 7     -2996.499  
     -2334.839          44.000          43.000  
  20905617.451 8  20905615.765 7 109859792.136 8  85605079.446 7      1537.317  
      1197.900          50.000          46.000  
  22618581.893 7                 118861478.135 7                      2345.630  
                        45.000                  
 26  4 14  2 12 30.0000000  0  8G08G10G18G23G24G27G32G02
  22150673.072 7  22150673.047 7 116402573.420 7  90703315.338 7     -1227.734  
      -956.755          45.000          44.000  
  20673218.189 8  20673216.115 7 108638497.891 8  84653366.713 7      -647.004  
      -504.009          51.000          47.000  
  24261250.752 6  24261250.187 6 127493694.142 6  99345712.811 6     -3790.014  
     -2953.363          40.000          41.000  
  21837646.344 7  21837643.358 7 114757599.123 7  89421492.128 7     -2562.643  
     -1997.102          45.000          45.000  
  22889083.471 6  22889082.544 6 120282960.026 6  93726992.726 6     -1217.610  
      -948.848          41.000          41.000  
  22563989.695 7  22563988.541 7 118574552.385 7  92395741.389 7     -3007.899  
     -2343.756          44.000          43.000  
  20896882.504 8  20896881.259 7 109813890.218 8  85569311.750 7      1522.540  
      1186.475          50.000          46.000  
  22605210.969 7                 118791213.497 7                      2338.155  
                        46.000                  
 26  4 14  2 13  0.0000000  0  8G08G10G18G23G24G27G32G02
  22157736.072 7  22157736.154 7 116439690.434 7  90732237.696 7     -1246.548  
      -971.645          45.000          44.000  
  20676941.680 8  20676939.544 7 108658063.757 8  84668612.851 7      -657.096  
      -512.226          51.000          46.000  
  24282904.181 6  24282903.343 7 127607481.988 6  99434378.555 7     -3795.650  
     -2957.591          39.000          42.000  
  21852296.272 7  21852293.109 7 114834585.337 7  89481481.361 7     -2569.546  
     -2002.363          46.000          45.000  
  22896097.317 7  22896096.406 6 120319817.660 7  93755712.943 6     -1239.562  
      -965.936          42.000          41.000  
  22581196.330 7  22581194.992 7 118664972.597 7  92466198.634 7     -3020.219  
     -2353.209          44.000          44.000  
  20888236.182 8  20888234.915 7 109768454.127 8  85533907.033 7      1506.647  
      1173.981          50.000          46.000  
  22591888.006 7                 118721200.321 7                      2329.053  
                        46.000                  
 26  4 14  2 13 30.0000000  0  8G08G10G18G23G24G27G32G02
  22164907.189 7  22164906.916 7 116477372.468 7  90761600.304 7     -1263.976  
      -985.130          44.000          44.000  
  20680723.303 8  20680720.994 7 108677935.707 8  84684097.492 7      -666.307  
      -519.219          51.000          46.000  
  24304588.323 6  24304587.539 6 127721433.795 6  99523172.087 6     -3799.874  
     -2961.112          39.000          41.000  
  21866986.143 7  21866982.529 7 114911777.241 7  89541630.894 7     -2575.205  
     -2006.862          46.000          45.000  
  22903235.547 6  22903234.866 6 120357330.274 6  93784943.569 6     -1260.061  
      -981.911          41.000          41.000  
  22598472.081 7  22598471.181 7 118755757.244 7  92536939.902 7     -3030.965  
     -2361.759          44.000          44.000  
  20879680.490 8  20879678.896 7 109723492.352 8  85498871.920 7      1492.047  
      1162.598          50.000          47.000  
  22578614.544 7                 118651448.008 7                      2321.951  
                        46.000                  
 26  4 14  2 14  0.0000000  0  8G08G10G18G23G24G27G32G02
  22172173.435 7  22172173.384 7 116515558.571 7  90791355.669 7     -1282.077  
      -998.810          44.000          44.000  
  20684551.668 8  20684549.370 7 108698054.031 8  84699774.111 7      -675.520  
      -526.324          52.000          47.000  
  24326292.139 6  24326291.448 6 127835488.471 6  99612045.746 6     -3804.204  
     -2964.034          40.000          40.000  
  21881702.705 7  21881699.431 7 114989114.684 7  89601893.813 7     -2581.087  
     -2011.189          46.000          45.000  
  22910487.220 6  22910486.552 6 120395437.543 6  93814637.567 6     -1280.906  
      -997.869          41.000          40.000  
  22615804.902 7  22615805.132 7 118846843.964 7  92607916.528 7     -3041.965  
     -2370.588          44.000          45.000  
  20871203.670 8  20871202.326 7 109678946.273 8  85464160.731 7      1477.173  
      1151.019          50.000          46.000  
  22565379.959 7                 118581899.143 7                      2314.118  
                        46.000                  
 26  4 14  2 14 30.0000000  0  9G08G10G18G23G24G27G32G02G28
  22179540.204 7  22179540.123 7 116554270.170 7  90821520.547 7     -1299.334  
     -1012.590          45.000          44.000  
  20688431.446 8  20688429.056 7 108718441.480 8  84715660.441 7      -684.332  
      -533.185          51.000          47.000  
  24348020.127 6  24348018.406 6 127949667.413 6  99701016.346 6     -3808.387  
     -2967.333          40.000          38.000  
  21896451.405 7  21896448.229 7 115066619.901 7  89662287.481 7     -2586.589  
     -2015.313          46.000          44.000  
  22917856.117 6  22917855.231 6 120434161.385 6  93844811.986 6     -1301.314  
     -1013.817          41.000          41.000  
  22633199.942 7  22633198.991 7 118938252.730 7  92679144.087 7     -3052.485  
     -2378.519          44.000          44.000  
  20862810.255 8  20862808.871 7 109634839.690 8  85429791.991 7      1462.708  
      1139.795          50.000          47.000  
  22552188.812 7                 118512578.416 7                      2306.738  
                        46.000                  
  25829144.522 5                 135733068.002 5                      3317.405  
                        35.000                  
 26  4 14  2 15  0.0000000  0  8G08G10G18G23G24G27G32G02
  22187012.719 7  22187012.944 7 116593537.775 7  90852118.658 7     -1318.530  
     -1027.583          45.000          45.000  
  20692368.183 8  20692365.850 7 108739129.798 8  84731781.206 7      -694.861  
      -541.248          51.000          46.000  
  24369777.068 6  24369775.250 6 128064001.076 6  99790107.551 6     -3814.110  
     -2971.973          41.000          37.000  
  21911238.426 7  21911234.700 7 115144324.210 7  89722836.300 7     -2593.787  
     -2021.189          46.000          44.000  
  22925348.240 6  22925347.364 6 120473532.792 6  93875491.036 6     -1323.567  
     -1031.536          41.000          41.000  
  22650661.197 7  22650660.193 7 119030012.597 7  92750645.247 7     -3064.779  
     -2388.105          44.000          43.000  
  20854507.010 8  20854505.191 7 109591205.434 8  85395791.307 7      1446.313  
      1126.947          50.000          47.000  
  22539047.086 7                 118443519.679 7                      2297.228  
                        46.000                  
 26  4 14  2 15 30.0000000  0  9G08G10G28G18G23G24G27G32G02
  22194588.452 7  22194587.914 7 116633346.716 7  90883138.590 7     -1335.000  
     -1040.279          44.000          45.000  
  20696359.778 8  20696357.536 7 108760105.697 8  84748126.068 7      -702.966  
      -547.736          51.000          47.000  
  25791218.657 6  25791219.536 5 135533763.505 6 105610732.945 5      3327.693  
      2592.418          38.000          35.000  
  24391560.755 6  24391559.408 6 128178474.802 6  99879307.802 6     -3817.059  
     -2974.065          41.000          40.000  
  21926060.090 7  21926056.699 7 115222213.795 7  89783529.478 7     -2598.410  
     -2024.691          45.000          45.000  
  22932960.785 6  22932959.968 6 120513537.656 6  93906663.630 6     -1342.883  
     -1046.338          41.000          40.000  
  22668186.795 7  22668185.526 7 119122107.491 7  92822407.470 7     -3074.311  
     -2395.734          44.000          43.000  
  20846291.314 8  20846289.326 7 109548031.238 8  85362149.094 7      1432.440  
      1116.113          51.000          46.000  
  22525953.388 7                 118374711.874 7                      2290.503  
                        45.000                  
 26  4 14  2 16  0.0000000  0  9G08G10G28G18G23G24G27G32G02
  22202263.324 7  22202263.115 7 116673680.864 7  90914567.776 7     -1353.709  
     -1054.887          44.000          45.000  
  20700403.148 8  20700400.781 7 108781354.378 8  84764683.486 7      -713.397  
      -555.878          51.000          47.000  
  25772212.980 6  25772214.089 6 135433885.879 6 105532906.237 6      3331.458  
      2596.025          40.000          38.000  
  24413367.855 6  24413366.630 6 128293072.446 6  99968604.587 6     -3822.558  
     -2978.558          40.000          41.000  
  21940914.361 7  21940910.859 7 115300273.418 7  89844355.145 7     -2605.484  
     -2030.034          45.000          44.000  
  22940691.520 6  22940689.472 6 120554160.301 6  93938317.677 6     -1364.703  
     -1063.584          41.000          40.000  
  22685772.028 7  22685770.953 7 119214519.879 7  92894417.098 7     -3086.187  
     -2404.896          44.000          43.000  
  20838160.233 8  20838158.691 7 109505303.307 8  85328854.638 7      1416.357  
      1103.674          51.000          47.000  
  22512904.906 7                 118306142.172 7                      2281.124  
                        46.000                  
 26  4 14  2 16 30.0000000  0  9G08G10G28G18G23G24G27G32G02
  22210039.771 7  22210039.653 7 116714545.039 7  90946409.963 7     -1371.085  
     -1068.333          44.000          45.000  
  20704499.796 8  20704497.547 7 108802881.967 8  84781458.228 7      -722.296  
      -562.842          51.000          46.000  
  25753179.103 6  25753180.751 6 135333862.785 6 105454966.075 6      3336.906  
      2600.169          38.000          36.000  
  24435199.530 6  24435198.619 6 128407798.805 6 100058001.637 6     -3826.360  
     -2981.674          41.000          38.000  
  21955801.740 7  21955798.652 7 115378508.792 7  89905317.763 7     -2610.901  
     -2034.616          45.000          44.000  
  22948539.884 6  22948538.830 6 120595406.092 6  93970457.252 6     -1385.100  
     -1079.297          41.000          40.000  
  22703418.451 7  22703417.817 7 119307253.209 7  92966676.801 7     -3096.509  
     -2412.939          43.000          44.000  
  20830115.750 8  20830114.102 7 109463028.857 8  85295913.534 7      1401.568  
      1092.035          51.000          47.000  
  22499903.494 7                 118237818.983 7                      2273.329  
                        46.000                  
 26  4 14  2 17  0.0000000  0  9G08G10G18G23G24G27G32G02G28
  22217916.775 7  22217916.275 7 116755938.794 7  90978664.822 7     -1388.303  
     -1081.550          45.000          44.000  
  20708649.546 8  20708647.067 7 108824689.449 8  84798451.064 7      -731.128  
      -569.702          51.000          46.000  
  24457055.559 6  24457055.212 6 128522653.389 6 100147498.654 6     -3830.264  
     -2984.546          41.000          39.000  
  21970723.007 7  21970719.679 7 115456920.385 7  89966417.704 7     -2616.185  
     -2038.801          45.000          44.000  
  22956507.351 6  22956506.274 6 120637275.040 6  94003082.424 6     -1405.506  
     -1095.393          41.000          40.000  
  22721125.580 7  22721125.093 7 119400305.656 7  93039185.148 7     -3106.567  
     -2420.836          43.000          43.000  
  20822157.808 8  20822156.463 7 109421209.828 8  85263327.306 7      1386.768  
      1080.664          50.000          47.000  
  22486949.271 7                 118169745.525 7                      2265.225  
                        45.000                  
                  25734118.961 6                 105376915.081 6                
      2603.735                          36.000  
 26  4 14  2 17 30.0000000  0  9G08G10G28G18G23G24G27G32G02
  22225897.695 7  22225896.307 7 116797876.439 7  91011343.507 7     -1406.883  
     -1096.434          45.000          44.000  
  20712855.464 8  20712853.294 7 108846792.522 8  84815674.244 7      -741.504  
      -577.899          51.000          47.000  
  25715032.363 5  25715034.780 6 135133432.67315 105298767.507 6      3344.762  
      2606.630          34.000          40.000  
  24478938.989 6  24478937.438 6 128637650.572 6 100237106.854 6     -3835.600  
     -2988.407          40.000          38.000  
  21985680.798 7  21985677.707 7 115535523.439 7  90027666.817 7     -2623.248  
     -2044.143          45.000          45.000  
  22964596.217 6  22964595.122 6 120679781.952 6  94036204.691 6     -1427.408  
     -1112.208          41.000          40.000  
  22738895.990 7  22738895.123 7 119493690.152 7  93111952.237 7     -3118.096  
     -2429.719          43.000          42.000  
  20814289.653 8  20814288.033 7 109379862.885 8  85231108.945 7      1370.551  
      1067.834          51.000          47.000  
  22474046.389 7                 118101939.311 7                      2255.911  
                        46.000                  
 26  4 14  2 18  0.0000000  0  9G08G10G28G18G23G24G27G32G02
  22234251.103 7  22234250.367 7 116841774.113 7  91045549.469 7     -1424.916  
     -1110.170          45.000          44.000  
  20717259.505 8  20717257.227 7 108869935.146 8  84833707.449 7      -750.970  
      -585.242          51.000          47.000  
  25695287.340 5  25695288.416 6 135029665.064 5 105217909.606 6      3349.712  
      2610.603          32.000          37.000  
  24501578.479 6  24501576.938 6 128756621.589 6 100329811.564 6     -3839.943  
     -2991.938          38.000          37.000  
  22001173.585 7  22001170.323 7 115616939.518 7  90091107.892 7     -2629.177  
     -2048.567          45.000          45.000  
  22973080.191 6  22973078.942 6 120724367.201 6  94070946.450 6     -1448.764  
     -1128.739          41.000          40.000  
  22757323.326 7  22757321.986 7 119590525.620 7  93187408.419 7     -3128.871  
     -2438.148          43.000          42.000  
  20806252.328 8  20806250.912 7 109337626.939 8  85198197.836 7      1354.809  
      1055.847          50.000          47.000  
  22460766.038 7                 118032148.641 7                      2247.060  
                        46.000                  
 26  4 14  2 18 30.0000000  0 10G08G10G28G18G23G24G27G32G02G01
  22242157.588 7  22242157.262 7 116883324.940 7  91077926.729 7     -1441.258  
     -1123.138          45.000          44.000  
  20721426.791 8  20721424.365 7 108891832.751 8  84850770.505 7      -759.674  
      -591.925          51.000          47.000  
  25676786.199 6  25676786.888 5 134932440.134 6 105142149.849 5      3354.329  
      2614.296          38.000          35.000  
  24522775.074 5  24522775.193 6 128868014.577 5 100416611.213 6     -3842.593  
     -2994.651          35.000          39.000  
  22015695.020 7  22015691.802 7 115693249.452 7  90150570.172 7     -2634.318  
     -2052.836          45.000          45.000  
  22981127.044 6  22981126.310 6 120766653.119 6  94103896.518 6     -1468.191  
     -1143.674          41.000          40.000  
  22774614.584 7  22774613.086 7 119681391.534 7  93258213.017 7     -3138.355  
     -2445.342          43.000          42.000  
  20798813.692 8  20798812.324 7 109298536.392 8  85167737.706 7      1340.454  
      1044.489          51.000          47.000  
  22448384.426 7                 117967085.549 7                      2239.345  
                        45.000                  
                  25045916.126 4                 102558828.967 4                
      2600.760                          27.000  
 26  4 14  2 19  0.0000000  0 10G08G10G28G18G23G24G27G32G02G01
  22250435.955 7  22250435.483 7 116926828.309 7  91111825.432 7     -1458.394  
     -1136.403          45.000          44.000  
  20725790.433 8  20725788.359 7 108914765.316 8  84868640.032 7      -768.732  
      -599.109          51.000          47.000  
  25657623.003 5  25657623.867 6 134831737.524 5 105063680.280 6      3358.647  
      2617.842          34.000          37.000  
  24544727.863 6  24544727.813 7 128983374.122 6 100506501.642 7     -3847.015  
     -2997.651          39.000          42.000  
  22030750.802 7  22030747.363 7 115772366.826 7  90212220.058 7     -2639.528  
     -2056.953          45.000          45.000  
  22989568.253 6  22989567.303 6 120811010.800 6  94138460.934 6     -1488.864  
     -1160.098          41.000          40.000  
  22792559.963 7  22792559.277 7 119775698.273 7  93331698.755 7     -3148.341  
     -2453.224          43.000          42.000  
  20791205.454 8  20791203.867 7 109258554.121 8  85136582.712 7      1325.311  
      1032.751          51.000          47.000  
  22435625.162 7                 117900037.589 7                      2230.978  
                        45.000                  
                  25026862.824 5                 102480800.076 5                
      2600.768                          32.000  
 26  4 14  2 19 30.0000000  0 10G08G10G28G18G23G24G27G32G02G01
  22258813.091 7  22258812.805 7 116970851.027 7  91146128.823 7     -1476.360  
     -1150.134          45.000          44.000  
  20730207.336 8  20730204.822 7 108937974.755 8  84886725.295 7      -778.699  
      -606.757          51.000          47.000  
  25638434.902 6  25638435.774 6 134730902.675 6 104985107.735 6      3363.114  
      2620.471          38.000          40.000  
  24566703.611 7  24566702.462 6 129098851.966 7 100596484.257 6     -3851.478  
     -3001.010          42.000          41.000  
  22045839.046 7  22045835.525 7 115851655.172 7  90274003.159 7     -2646.095  
     -2061.882          45.000          45.000  
  22998126.185 6  22998125.336 6 120855983.798 6  94173504.830 6     -1509.987  
     -1176.429          41.000          40.000  
  22810563.989 7  22810563.156 7 119870307.274 7  93405420.012 7     -3159.033  
     -2461.674          43.000          42.000  
  20783683.717 8  20783682.582 7 109219029.000 8  85105783.945 7      1309.436  
      1020.380          51.000          47.000  
  22422915.753 7                 117833246.736 7                      2221.708  
                        46.000                  
                  25007808.497 5                 102402776.544 5                
      2600.083                          33.000  
 26  4 14  2 20  0.0000000  0 10G08G10G01G28G18G23G24G27G32G02
  22267294.302 7  22267293.477 7 117015419.082 7  91180857.182 7     -1495.062  
     -1164.950          44.000          44.000  
  20734681.596 8  20734679.389 7 108961488.576 8  84905047.759 7      -789.270  
      -615.082          51.000          47.000  
  24988761.494 5  24988761.096 5 131316846.593 5 102324781.197 5      3335.807  
      2598.251          34.000          32.000  
  25619227.657 6  25619227.889 6 134629965.709 6 104906455.593 6      3365.854  
      2622.657          37.000          39.000  
  24588705.268 6  24588704.847 7 129214474.221 6 100686579.495 7     -3856.985  
     -3005.615          40.000          42.000  
  22060964.517 7  22060961.017 7 115931141.463 7  90335940.521 7     -2653.302  
     -2067.470          45.000          45.000  
  23006806.623 6  23006805.066 6 120901598.498 6  94209048.781 6     -1531.466  
     -1193.600          41.000          39.000  
  22828629.416 7  22828628.251 6 119965243.197 7  93479396.022 6     -3170.281  
     -2470.385          42.000          41.000  
  20776255.021 8  20776253.449 7 109179989.379 8  85075363.484 7      1292.743  
      1007.367          51.000          47.000  
  22410260.888 7                 117766743.077 7                      2211.405  
                        46.000                  
 26  4 14  2 20 30.0000000  0 10G08G10G01G28G18G23G24G27G32G02
  22275879.802 7  22275879.714 7 117060538.290 7  91216015.013 7     -1512.442  
     -1178.778          44.000          44.000  
  20739215.356 8  20739213.081 7 108985314.168 8  84923613.148 7      -798.602  
      -622.437          51.000          47.000  
  24969722.495 5  24969721.958 5 131216797.853 5 102246821.277 5      3334.735  
      2598.247          35.000          34.000  
  25600001.695 4  25600002.773 6 134528936.726 4 104827731.870 6      3369.346  
      2625.669          26.000          37.000  
  24610736.072 6  24610735.328 6 129330247.007 6 100776792.039 6     -3860.964  
     -3008.563          39.000          39.000  
  22076129.193 7  22076126.440 7 116010832.724 7  90398037.562 7     -2659.036  
     -2071.891          45.000          45.000  
  23015610.118 6  23015608.696 6 120947861.218 6  94245097.665 6     -1552.021  
     -1209.584          41.000          39.000  
  22846758.893 7  22846756.998 6 120060510.690 7  93553630.403 6     -3180.568  
     -2478.353          43.000          41.000  
  20768919.909 8  20768918.372 7 109141443.542 8  85045327.791 7      1277.301  
       995.422          51.000          47.000  
  22397661.500 7                 117700535.914 7                      2202.511  
                        46.000                  
 26  4 14  2 21  0.0000000  0 10G08G10G01G28G18G23G24G27G32G02
  22284567.460 7  22284567.367 7 117106191.367 7  91251588.810 7     -1530.171  
     -1192.529          44.000          44.000  
  20743805.759 8  20743803.410 7 109009435.741 8  84942409.166 7      -808.478  
      -629.944          51.000          46.000  
  24950690.112 6  24950689.123 5 131116780.686 6 102168885.972 5      3333.492  
      2597.331          36.000          35.000  
  25580756.980 6  25580757.429 6 134427802.517 6 104748926.000 6      3373.309  
      2628.665          38.000          36.000  
  24632791.900 5  24632791.959 6 129446153.113 5 100867108.359 6     -3864.928  
     -3011.752          35.000          39.000  
  22091329.972 7  22091326.635 7 116090712.606 7  90460281.631 7     -2665.212  
     -2077.025          45.000          44.000  
  23024533.576 6  23024532.454 6 120994755.072 6  94281638.325 6     -1572.988  
     -1225.717          41.000          39.000  
  22864947.217 7  22864946.256 7 120156091.067 7  93628108.593 7     -3190.647  
     -2486.179          43.000          42.000  
  20761676.063 8  20761674.361 7 109103376.568 8  85015665.236 7      1261.414  
       983.026          51.000          47.000  
  22385117.144 7                 117634611.318 7                      2193.343  
                        46.000                  
 26  4 14  2 21 30.0000000  0 10G08G10G01G28G18G23G24G27G32G02
  22293355.016 7  22293354.818 7 117152370.360 7  91287572.399 7     -1547.508  
     -1205.778          44.000          44.000  
  20748450.968 8  20748448.577 7 109033846.888 8  84961430.853 7      -817.847  
      -637.329          51.000          46.000  
  24931662.362 6  24931661.827 6 131016790.552 6 102090971.683 6      3333.442  
      2597.412          36.000          36.000  
  25561491.000 6  25561491.241 6 134326559.536 6 104670035.441 6      3377.346  
      2631.755          37.000          41.000  
  24654871.815 6  24654871.500 6 129562184.682 6 100957522.534 6     -3869.954  
     -3014.977          36.000          40.000  
  22106565.059 7  22106561.966 7 116170774.339 7  90522667.372 7     -2671.296  
     -2081.458          45.000          44.000  
  23033575.839 6  23033574.466 6 121042272.550 6  94318664.947 6     -1593.913  
     -1242.198          41.000          40.000  
  22883193.622 7  22883192.341 7 120251975.265 7  93702823.502 7     -3200.783  
     -2493.869          43.000          43.000  
  20754521.987 8  20754520.482 7 109065782.900 8  84986371.507 7      1245.734  
       970.660          51.000          47.000  
  22372624.377 7                 117568965.259 7                      2183.834  
                        46.000                  
 26  4 14  2 22  0.0000000  0 10G08G10G01G28G18G23G24G27G32G02
  22302239.991 7  22302240.469 7 117199061.528 7  91323955.136 7     -1565.457  
     -1219.970          44.000          44.000  
  20753148.962 8  20753146.668 7 109058535.578 8  84980668.782 7      -828.271  
      -645.300          51.000          46.000  
  24912637.770 6  24912637.213 6 130916817.328 6 102013070.563 6      3331.382  
      2596.208          37.000          36.000  
  25542201.407 6  25542202.576 6 134225198.207 6 104591052.760 6      3379.811  
      2633.898          36.000          40.000  
  24676974.061 7  24676972.899 6 129678328.221 7 101048024.002 6     -3873.792  
     -3018.489          42.000          39.000  
  22121832.754 7  22121829.348 7 116251005.385 7  90585185.059 7     -2677.870  
     -2086.899          44.000          44.000  
  23042733.870 6  23042733.299 6 121090400.413 6  94356167.168 6     -1614.771  
     -1258.349          40.000          40.000  
  22901494.358 7  22901493.306 7 120348148.303 7  93777763.490 7     -3211.104  
     -2502.053          42.000          42.000  
  20747456.024 8  20747454.660 7 109028651.302 8  84957437.817 7      1229.639  
       958.136          51.000          47.000  
  22360183.759 7                 117503587.992 7                      2174.260  
                        46.000                  
 26  4 14  2 22 30.0000000  0 10G08G10G01G28G18G23G24G27G32G02
  22311225.230 7  22311225.144 7 117246276.715 7  91360746.163 7     -1582.116  
     -1232.818          44.000          45.000  
  20757902.586 8  20757900.123 7 109083515.111 8  85000133.356 7      -836.932  
      -652.130          51.000          46.000  
  24893619.729 6  24893618.161 6 130816876.271 6 101935194.530 6      3331.362  
      2595.717          38.000          37.000  
  25522894.311 6  25522894.503 5 134123734.561 6 104511990.385 5      3384.440  
      2637.102          38.000          35.000  
  24699098.752 7  24699098.075 6 129794595.694 7 101138622.028 6     -3876.962  
     -3021.229          43.000          40.000  
  22137134.669 7  22137131.577 7 116331418.647 7  90647844.735 7     -2682.836  
     -2090.674          44.000          44.000  
  23052011.236 6  23052009.874 6 121139150.797 6  94394154.492 6     -1634.459  
     -1274.052          41.000          39.000  
  22919852.331 7  22919851.688 7 120444620.791 7  93852936.814 7     -3220.140  
     -2509.124          42.000          42.000  
  20740480.846 8  20740479.477 7 108991995.964 8  84928875.241 7      1214.618  
       946.454          51.000          47.000  
  22347797.194 7                 117438495.039 7                      2165.862  
                        46.000                  
 26  4 14  2 23  0.0000000  0 10G08G10G01G28G18G23G24G27G32G02
  22320307.658 7  22320306.726 7 117294002.926 7  91397935.403 7     -1599.976  
     -1246.426          44.000          44.000  
  20762709.131 8  20762706.997 7 109108774.232 8  85019815.787 7      -847.070  
      -660.187          51.000          46.000  
  24874605.965 6  24874604.460 6 130716958.004 6 101857336.215 6      3329.549  
      2594.292          39.000          38.000  
  25503565.337 6  25503565.517 6 134022160.246 6 104432841.569 6      3387.048  
      2639.521          38.000          37.000  
  24721245.129 7  24721244.003 6 129910974.417 7 101229306.749 6     -3881.298  
     -3024.815          42.000          40.000  
  22152469.440 7  22152466.188 7 116412002.431 7  90710637.273 7     -2689.625  
     -2095.814          45.000          44.000  
  23061404.159 6  23061402.830 6 121188511.248 6  94432617.163 6     -1655.924  
     -1290.615          41.000          39.000  
  22938265.170 7  22938264.112 7 120541378.595 7  93928332.465 7     -3230.336  
     -2517.337          43.000          42.000  
  20733594.362 8  20733592.795 7 108955806.375 8  84900675.586 7      1197.986  
       933.405          51.000          47.000  
  22335462.803 7                 117373677.077 7                      2155.012  
                        46.000                  
 26  4 14  2 23 30.0000000  0 10G08G10G01G28G18G23G24G27G32G02
  22329489.937 7  22329489.477 7 117342258.583 7  91435537.198 7     -1617.173  
     -1260.060          44.000          44.000  
  20767572.625 8  20767570.272 7 109134332.967 8  85039731.682 7      -856.702  
      -667.633          51.000          46.000  
  24855601.210 6  24855599.052 6 130617084.457 6 101779512.693 6      3328.244  
      2594.499          40.000          38.000  
  25484218.174 5  25484220.168 6 133920497.752 5 104353624.257 6      3390.134  
      2641.928          35.000          39.000  
  24743415.719 6  24743415.502 6 130027483.029 6 101320092.610 6     -3885.533  
     -3027.618          40.000          41.000  
  22167840.122 7  22167836.806 7 116492776.310 7  90773577.956 7     -2695.340  
     -2100.417          44.000          44.000  
  23070917.025 6  23070915.432 6 121238500.525 6  94471569.827 6     -1676.459  
     -1306.588          41.000          39.000  
  22956735.201 7  22956734.059 7 120638438.917 7  94003963.853 7     -3239.991  
     -2524.806          43.000          43.000  
  20726800.138 8  20726798.587 7 108920103.374 8  84872855.084 7      1182.257  
       921.204          51.000          47.000  
  22323184.476 7                 117309156.155 7                      2146.013  
                        46.000                  
 26  4 14  2 24  0.0000000  0 10G08G10G01G28G18G23G24G27G32G02
  22338770.611 7  22338769.977 7 117391026.150 7  91473537.869 7     -1633.370  
     -1272.714          45.000          45.000  
  20772490.557 8  20772487.937 7 109160175.459 8  85059868.690 7      -865.289  
      -674.316          51.000          46.000  
  24836601.820 6  24836599.964 6 130517241.776 6 101701713.273 6      3328.386  
      2593.799          41.000          39.000  
  25464854.381 6  25464854.936 6 133818734.252 6 104274328.194 6      3394.356  
      2645.003          41.000          37.000  
  24765607.826 6  24765607.753 6 130144104.263 6 101410966.232 6     -3888.420  
     -3030.062          38.000          41.000  
  22183243.759 7  22183240.966 7 116573723.975 7  90836654.050 7     -2700.401  
     -2104.521          44.000          44.000  
  23080546.134 6  23080544.533 6 121289101.486 6  94510999.166 6     -1696.190  
     -1321.750          41.000          38.000  
  22975259.263 7  22975258.189 7 120735783.102 7  94079816.428 7     -3248.698  
     -2531.362          44.000          43.000  
  20720095.650 8  20720094.104 7 108884871.806 8  84845401.947 7      1167.236  
       909.534          51.000          47.000  
  22310960.466 7                 117244918.781 7                      2137.149  
                        46.000                  
 26  4 14  2 24 30.0000000  0 10G08G10G01G28G18G23G24G27G32G02
  22348142.567 7  22348142.295 7 117440278.792 7  91511916.552 7     -1650.367  
     -1286.005          44.000          45.000  
  20777457.043 8  20777454.965 7 109186276.608 8  85080207.251 7      -874.768  
      -681.610          51.000          46.000  
  24817603.757 6  24817601.688 6 130417406.771 6 101623919.815 6      3327.351  
      2592.999          41.000          40.000  
  25445466.241 6  25445466.559 5 133716847.280 6 104194930.77415      3397.682  
      2648.232          37.000          33.000  
  24787815.838 5  24787816.199 6 130260811.519 5 101501906.877 6     -3892.158  
     -3032.949          35.000          40.000  
  22198675.553 7  22198672.784 7 116654819.896 7  90899845.661 7     -2706.059  
     -2108.617          44.000          44.000  
  23090286.288 6  23090284.749 6 121340287.779 6  94550884.583 6     -1716.538  
     -1337.579          41.000          39.000  
  22993831.533 7  22993830.938 7 120833383.240 7  94155868.444 7     -3258.047  
     -2538.704          43.000          42.000  
  20713476.257 8  20713475.151 7 108850087.397 8  84818297.229 7      1151.703  
       897.510          51.000          47.000  
  22298786.263 7                 117180941.731 7                      2127.653  
                        46.000                  
 26  4 14  2 25  0.0000000  0 10G08G10G01G28G18G23G24G27G32G02
  22357607.824 7  22357608.267 7 117490022.573 7  91550677.938 7     -1666.826  
     -1299.181          44.000          45.000  
  20782474.853 8  20782472.736 7 109212644.131 8  85100753.365 7      -883.929  
      -688.782          51.000          46.000  
  24798608.971 6  24798607.234 6 130317589.133 6 101546139.893 6      3326.250  
      2591.654          41.000          41.000  
  25426055.998 5  25426056.195 6 133614847.270 5 104115450.334 6      3401.304  
      2650.493          34.000          37.000  
  24810042.301 6  24810042.317 6 130377611.192 6 101592919.527 6     -3895.715  
     -3035.326          37.000          38.000  
  22214137.758 7  22214134.423 7 116736071.314 7  90963158.428 7     -2711.569  
     -2112.895          45.000          44.000  
  23100139.073 6  23100138.016 6 121392065.766 6  94591231.070 6     -1736.345  
     -1352.846          40.000          39.000  
  23012453.588 7  23012453.331 7 120931244.185 7  94232123.661 7     -3267.003  
     -2545.465          43.000          42.000  
  20706943.795 8  20706942.313 7 108815758.562 8  84791547.520 7      1136.115  
       885.205          51.000          47.000  
  22286663.397 7                 117117235.055 7                      2118.523  
                        47.000                  
 26  4 14  2 25 30.0000000  0 10G08G10G01G28G18G23G24G27G32G02
  22367173.031 7  22367172.849 7 117540285.142 7  91589843.532 7     -1684.383  
     -1312.367          44.000          44.000  
  20787548.908 8  20787546.810 7 109239307.391 8  85121529.934 7      -894.012  
      -696.802          51.000          46.000  
  24779623.434 7  24779621.844 6 130217820.098 7 101468397.850 6      3324.597  
      2590.228          42.000          41.000  
  25406631.105 6  25406630.628 6 133512766.481 6 104035907.031 6      3403.621  
      2652.012          41.000          37.000  
  24832292.168 6  24832291.941 6 130494531.019 6 101684025.836 6     -3899.761  
     -3038.417          39.000          36.000  
  22229634.660 7  22229631.304 7 116817507.170 7  91026614.952 7     -2717.998  
     -2117.984          45.000          44.000  
  23110109.851 6  23110108.801 6 121444463.528 6  94632060.489 6     -1757.027  
     -1369.230          40.000          39.000  
  23031131.069 7  23031130.603 7 121029392.451 7  94308602.799 7     -3276.709  
     -2553.476          44.000          42.000  
  20700503.632 8  20700502.118 7 108781915.360 8  84765176.217 7      1119.708  
       872.394          51.000          47.000  
  22274598.146 7                 117053830.206 7                      2108.034  
                        47.000                  
 26  4 14  2 26  0.0000000  0 10G08G10G01G28G18G23G24G27G32G02
  22376839.221 7  22376839.215 7 117591082.123 7  91629425.578 7     -1701.962  
     -1326.152          44.000          44.000  
  20792682.407 8  20792680.044 7 109266283.779 8  85142550.500 7      -904.187  
      -704.584          51.000          46.000  
  24760651.034 6  24760649.216 7 130118119.129 6 101390708.825 7      3322.584  
      2588.899          41.000          42.000  
  25387193.008 5  25387193.697 5 133410625.054 5 103956316.463 5      3405.748  
      2653.653          34.000          30.000  
  24854567.213 6  24854566.502 6 130611587.076 6 101775238.418 6     -3903.746  
     -3042.611          41.000          38.000  
  22245169.537 7  22245166.429 7 116899144.472 7  91090228.411 7     -2724.455  
     -2122.998          44.000          44.000  
  23120202.247 6  23120201.053 6 121497497.076 6  94673385.325 6     -1778.076  
     -1385.761          40.000          39.000  
  23049865.728 7  23049864.757 7 121127842.611 7  94385317.174 7     -3286.544  
     -2561.058          43.000          42.000  
  20694159.470 8  20694157.785 7 108748575.896 8  84739197.432 7      1103.192  
       859.589          51.000          47.000  
  22262593.888 7                 116990746.736 7                      2097.469  
                        46.000                  
 26  4 14  2 26 30.0000000  0 10G08G10G01G28G18G23G24G27G32G02
  22386603.834 7  22386603.501 7 117642395.680 7  91669410.154 7     -1719.115  
     -1339.658          44.000          44.000  
  20797872.010 8  20797869.961 7 109293557.222 8  85163802.522 7      -914.142  
      -712.335          51.000          46.000  
  24741688.838 6  24741686.998 7 130018472.092 6 101313061.833 7      3320.573  
      2587.622          41.000          42.000  
  25367741.431 6  25367743.185 6 133308409.580 6 103876668.135 6      3408.394  
      2655.973          36.000          40.000  
  24876864.958 6  24876863.687 6 130728761.835 6 101866543.445 6     -3907.758  
     -3045.308          40.000          38.000  
  22260739.790 7  22260736.752 7 116980966.698 7  91153985.966 7     -2730.572  
     -2127.488          44.000          44.000  
  23130411.798 6  23130411.109 6 121551148.886 6  94715191.933 6     -1798.582  
     -1401.675          40.000          40.000  
  23068654.169 7  23068652.769 7 121226575.747 7  94462252.069 7     -3295.715  
     -2568.128          43.000          42.000  
  20687908.142 8  20687906.315 7 108715724.790 8  84713599.190 7      1086.890  
       846.985          51.000          47.000  
  22250647.206 7                 116927970.579 7                      2087.285  
                        46.000                  
 26  4 14  2 27  0.0000000  0 10G08G10G01G28G18G23G24G27G32G02
  22396465.459 7  22396464.693 7 117694215.980 7  91709789.573 7     -1736.137  
     -1352.656          45.000          44.000  
  20803117.269 8  20803114.776 7 109321119.691 8  85185279.765 7      -923.975  
      -719.708          51.000          46.000  
  24722735.506 6  24722733.974 7 129918872.913 6 101235452.182 7      3318.950  
      2585.998          40.000          42.000  
  25348276.004 5  25348276.633 6 133206115.061 5 103796958.414 6      3410.769  
      2657.318          35.000          37.000  
  24899183.409 6  24899182.876 6 130846045.852 6 101957933.513 6     -3911.700  
     -3047.713          37.000          39.000  
  22276343.601 7  22276340.385 7 117062965.347 7  91217881.026 7     -2736.274  
     -2132.238          44.000          44.000  
  23140736.805 6  23140736.037 6 121605409.558 6  94757472.956 6     -1818.752  
     -1417.468          38.000          39.000  
  23087493.961 7  23087493.310 7 121325581.014 7  94539398.975 7     -3304.671  
     -2575.241          43.000          42.000  
  20681748.433 8  20681746.412 7 108683354.623 8  84688375.706 7      1070.866  
       834.398          51.000          47.000  
  22238758.947 7                 116865496.006 7                      2077.000  
                        47.000                  
 26  4 14  2 27 30.0000000  0 10G08G10G01G28G18G23G24G27G32G02
  22406418.798 7  22406418.258 7 117746520.946 7  91750546.680 7     -1752.430  
     -1365.614          45.000          44.000  
  20808413.093 8  20808411.100 7 109348950.902 8  85206966.440 7      -933.026  
      -727.032          51.000          46.000  
  24703788.044 6  24703786.425 7 129819303.348 6 101157865.589 7      3317.612  
      2585.062          39.000          42.000  
  25328791.769 7  25328791.333 5 133103723.972 7 103717173.165 5      3413.630  
      2660.007          42.000          35.000  
  24921517.607 5  24921518.189 6 130963417.372 5 102049391.796 6     -3914.506  
     -3050.293          34.000          40.000  
  22291977.163 7  22291973.884 7 117145119.706 7  91281897.413 7     -2741.860  
     -2136.522          44.000          44.000  
  23151174.081 6  23151173.252 6 121660257.419 6  94800211.526 6     -1838.872  
     -1432.958          39.000          39.000  
  23106381.831 7  23106380.403 7 121424835.253 7  94616739.878 7     -3313.470  
     -2581.883          43.000          42.000  
  20675676.230 8  20675674.736 7 108651445.823 8  84663511.725 7      1055.051  
       822.216          51.000          47.000  
  22226924.414 7                 116803304.937 7                      2067.325  
                        47.000                  
 26  4 14  2 28  0.0000000  0 10G08G10G01G28G18G23G24G27G32G02
  22416463.961 7  22416463.829 7 117799309.510 7  91791680.600 7     -1767.211  
     -1377.184          45.000          44.000  
  20813760.665 8  20813758.453 7 109377051.615 8  85228863.094 7      -940.771  
      -733.167          50.000          46.000  
  24684846.985 6  24684845.009 7 129719766.087 6 101080304.154 7      3317.909  
      2585.400          39.000          42.000  
  25309289.975 6  25309289.396 6 133001239.862 6 103637315.505 6      3418.195  
      2663.434          38.000          40.000  
  24943869.002 6  24943869.488 6 131080914.79416 102140917.758 6     -3916.039  
     -3051.745          37.000          40.000  
  22307639.875 7  22307637.182 7 117227430.117 7  91346035.363 7     -2745.856  
     -2139.634          44.000          44.000  
  23161723.283 6  23161722.102 6 121715691.657 6  94843407.041 6     -1856.837  
     -1447.372          40.000          39.000  
  23125315.836 7  23125314.758 7 121524336.342 7  94694273.145 7     -3320.299  
     -2587.545          43.000          42.000  
  20669692.125 8  20669690.621 7 108619999.741 8  84639008.312 7      1040.797  
       811.029          51.000          47.000  
  22215143.691 7                 116741399.977 7                      2059.036  
                        47.000                  
 26  4 14  2 28 30.0000000  0 10G08G10G01G28G18G23G24G27G32G02
  22426600.778 7  22426600.830 7 117852577.485 7  91833188.072 7     -1783.123  
     -1389.448          44.000          44.000  
  20819158.930 8  20819156.689 7 109405419.396 8  85250967.853 7      -949.591  
      -739.911          51.000          46.000  
  24665911.422 6  24665909.763 7 129620260.750 6 101002767.636 7      3316.546  
      2584.261          38.000          42.000  
  25289769.325 6  25289770.125 6 132898662.897 6 103557385.830 6      3421.185  
      2666.013          36.000          38.000  
  24966236.980 6  24966236.509 6 131198456.089 6 102232508.327 6     -3919.024  
     -3054.033          39.000          38.000  
  22323332.808 7  22323329.580 7 117309893.746 7  91410292.729 7     -2751.012  
     -2143.599          45.000          44.000  
  23172382.696 6  23172381.476 6 121771708.418 6  94887056.440 6     -1876.507  
     -1461.900          40.000          39.000  
  23144296.627 7  23144295.688 7 121624079.035 7  94771994.675 7     -3328.318  
     -2593.423          43.000          42.000  
  20663795.771 8  20663794.368 7 108589014.585 8  84614864.061 7      1025.590  
       799.199          51.000          47.000  
  22203418.859 7                 116679780.965 7                      2049.674  
                        47.000                  
 26  4 14  2 29  0.0000000  0 10G08G10G01G28G18G23G24G27G32G02
  22436826.123 7  22436824.830 7 117906310.053 7  91875057.582 7     -1799.929  
     -1402.547          45.000          43.000  
  20824605.517 8  20824603.169 7 109434041.397 8  85273270.712 7      -959.283  
      -747.491          51.000          46.000  
  24646980.058 6  24646978.592 6 129520776.432 6 100925247.495 6      3314.445  
      2582.898          38.000          41.000  
  25270230.167 6  25270229.864 5 132795983.348 6 103477375.830 5      3423.162  
      2667.609          37.000          35.000  
  24988618.061 6  24988617.067 6 131316066.035 6 102324152.412 6     -3922.336  
     -3056.329          41.000          39.000  
  22339051.511 7  22339048.007 7 117392497.245 7  91474659.087 7     -2756.782  
     -2147.958          44.000          44.000  
  23183150.804 6  23183149.283 6 121828293.307 6  94931148.570 6     -1896.681  
     -1477.941          41.000          39.000  
  23163320.178 7  23163318.710 7 121724047.610 7  94849892.229 7     -3336.949  
     -2600.031          43.000          42.000  
  20657984.999 8  20657983.371 7 108558478.082 8  84591069.409 7      1009.409  
       786.434          51.000          47.000  
  22191745.119 7                 116618437.232 7                      2039.297  
                        46.000                  
 26  4 14  2 29 30.0000000  0 10G08G10G01G28G18G23G24G27G32G02
  22447149.018 7  22447147.426 7 117960556.391 7  91917327.442 7     -1816.113  
     -1415.169          45.000          44.000  
  20830110.081 8  20830107.953 7 109462968.632 8  85295811.422 7      -968.561  
      -754.712          51.000          46.000  
  24628062.691 6  24628061.348 6 129421366.162 6 100847785.052 6      3313.149  
      2581.445          39.000          41.000  
  25250681.382 5  25250682.189 6 132693254.854 5 103397327.974 6      3425.883  
      2669.638          32.000          40.000  
  25011020.624 6  25011020.475 6 131433794.103 6 102415888.531 6     -3925.550  
     -3059.001          39.000          40.000  
  22354806.875 7  22354803.194 7 117475291.285 7  91539173.903 7     -2762.255  
     -2152.288          44.000          44.000  
  23194036.152 6  23194035.196 6 121885495.835 6  94975721.971 6     -1916.468  
     -1493.290          41.000          40.000  
  23182395.854 7  23182394.292 6 121824290.254 7  94928003.356 6     -3345.206  
     -2606.775          43.000          41.000  
  20652268.924 8  20652267.620 7 108528441.843 8  84567664.568 7       993.635  
       774.195          51.000          47.000  
  22180133.520 7                 116557421.673 7                      2029.355  
                        46.000                  
 26  4 14  2 30  0.0000000  0 10G08G10G01G28G18G23G24G27G32G02
  22457563.133 7  22457562.524 7 118015286.811 7  91959974.503 7     -1832.736  
     -1428.067          44.000          44.000  
  20835667.532 8  20835665.571 7 109492173.307 8  85318568.315 7      -978.772  
      -762.512          51.000          47.000  
  24609154.785 6  24609153.164 6 129322004.224 6 100770360.248 6      3310.951  
      2579.996          39.000          41.000  
  25231117.904 5  25231118.447 6 132590452.647 5 103317222.588 6      3427.769  
      2670.471          34.000          40.000  
  25033441.006 6  25033440.337 6 131551611.110 6 102507693.976 6     -3929.278  
     -3061.641          40.000          37.000  
  22370592.685 7  22370589.482 7 117558247.601 7  91603815.176 7     -2768.357  
     -2157.212          44.000          43.000  
  23205033.204 6  23205032.208 6 121943286.600 6  95020753.727 6     -1936.462  
     -1508.975          41.000          40.000  
  23201517.707 7  23201516.691 7 121924776.312 7  95006304.109 7     -3354.101  
     -2613.686          42.000          42.000  
  20646643.418 8  20646641.733 7 108498878.638 8  84544628.325 7       976.942  
       761.196          51.000          47.000  
  22168581.371 7                 116496708.993 7                      2018.519  
                        47.000                  
 26  4 14  2 30 30.0000000  0 10G08G10G01G28G18G23G24G27G32G02
  22468066.073 7  22468065.945 7 118070481.047 7  92002982.980 7     -1847.545  
     -1439.968          43.000          45.000  
  20841274.250 8  20841271.984 7 109521636.993 8  85341527.045 7      -986.511  
      -768.842          51.000          46.000  
  24590252.803 6  24590251.224 6 129222674.254 6 100692960.311 6      3309.964  
      2579.253          40.000          40.000  
  25211539.057 6  25211538.611 6 132487561.212 6 103237047.516 6      3430.654  
      2673.266          37.000          38.000  
  25055873.437 6  25055872.866 6 131669497.253 6 102599553.327 6     -3931.064  
     -3063.077          37.000          37.000  
  22386406.227 7  22386402.617 7 117641347.393 7  91668568.247 7     -2772.540  
     -2160.590          44.000          43.000  
  23216138.455 6  23216137.410 6 122001645.638 6  95066228.334 6     -1954.676  
     -1523.187          40.000          39.000  
  23220681.547 7  23220680.621 7 122025484.498 7  95084777.949 7     -3361.158  
     -2618.773          43.000          42.000  
  20641104.409 8  20641102.693 7 108469770.613 8  84521946.762 7       962.321  
       749.827          51.000          47.000  
  22157082.265 7                 116436282.695 7                      2009.191  
                        47.000                  
 26  4 14  2 31  0.0000000  0 10G08G10G01G28G18G23G24G27G32G02
  22478663.817 7  22478663.807 7 118126170.678 7  92046377.444 7     -1864.715  
     -1453.065          44.000          45.000  
  20846936.565 8  20846934.429 7 109551393.261 8  85364713.749 7      -996.881  
      -776.898          51.000          46.000  
  24571363.979 6  24571361.626 6 129123411.735 6 100615612.984 6      3307.731  
      2577.035          41.000          40.000  
  25191947.969 6  25191949.035 6 132384616.693 6 103156831.248 6      3432.111  
      2674.364          40.000          41.000  
  25078325.943 6  25078325.001 6 131787484.457 6 102691491.444 6     -3934.319  
     -3066.029          36.000          38.000  
  22402252.956 7  22402249.745 7 117724623.744 7  91733458.902 7     -2778.987  
     -2165.466          44.000          44.000  
  23227357.465 6  23227357.325 6 122060604.947 6  95112170.623 6     -1975.357  
     -1539.270          39.000          40.000  
  23239893.798 7  23239893.035 7 122126445.461 7  95163448.809 7     -3369.767  
     -2625.661          42.000          42.000  
  20635658.381 8  20635656.747 7 108441151.815 8  84499646.425 7       945.789  
       736.969          51.000          47.000  
  22145644.396 7                 116376178.354 7                      1997.980  
                        47.000                  
 26  4 14  2 31 30.0000000  0 10G08G10G01G28G18G23G24G27G32G02
  22489353.383 7  22489352.811 7 118182344.428 7  92090149.184 7     -1879.025  
     -1464.086          44.000          44.000  
  20852652.981 8  20852650.741 7 109581432.815 8  85388121.197 7     -1004.431  
      -782.727          51.000          46.000  
  24552486.065 6  24552483.855 6 129024209.568 6 100538312.612 6      3307.397  
      2577.356          41.000          40.000  
  25172347.899 6  25172348.276 6 132281612.844 6 103076568.694 6      3435.847  
      2677.258          38.000          41.000  
  25100795.160 6  25100795.808 6 131905562.180 6 102783499.984 6     -3936.119  
     -3066.684          38.000          40.000  
  22418131.666 7  22418128.313 7 117808066.982 7  91798479.584 7     -2782.678  
     -2168.457          44.000          43.000  
  23238689.677 6  23238689.268 6 122120153.581 6  95158572.138 6     -1993.304  
     -1553.370          39.000          40.000  
  23259152.129 7  23259150.987 7 122227647.092 7  95242307.158 7     -3375.723  
     -2630.611          42.000          42.000  
  20630303.885 8  20630302.234 7 108413013.502 8  84477720.488 7       931.412  
       725.767          51.000          47.000  
  22134267.233 7                 116316389.023 7                      1989.206  
                        47.000                  
 26  4 14  2 32  0.0000000  0 10G08G10G01G28G18G23G24G27G32G02
  22500123.007 7  22500122.318 7 118238938.425 7  92134248.371 7     -1895.205  
     -1476.934          44.000          44.000  
  20858411.278 8  20858409.131 7 109611693.681 8  85411701.094 7     -1014.246  
      -790.320          50.000          46.000  
  24533608.581 6  24533606.191 6 128925007.738 6 100461012.535 6      3304.927  
      2575.343          41.000          40.000  
  25152724.276 6  25152724.111 6 132178490.487 6 102996213.711 6      3437.403  
      2678.742          37.000          40.000  
  25123269.123 6  25123270.098 6 132023666.883 6 102875529.561 6     -3939.169  
     -3069.416          37.000          39.000  
  22434030.151 7  22434026.852 7 117891614.649 7  91863581.646 7     -2788.436  
     -2172.701          43.000          43.000  
  23250121.506 6  23250121.074 6 122180227.853 6  95205383.246 6     -2013.255  
     -1568.817          40.000          40.000  
  23278443.432 7  23278442.608 7 122329024.520 7  95321302.493 7     -3383.808  
     -2636.951          42.000          42.000  
  20625029.020 8  20625027.263 7 108385294.165 8  84456121.021 7       915.303  
       713.295          51.000          47.000  
  22122937.621 7                 116256854.603 7                      1978.370  
                        46.000                  
 26  4 14  2 32 30.0000000  0 10G08G10G01G28G18G23G24G27G32G02
  22510987.383 7  22510986.627 7 118296031.557 7  92178736.540 7     -1911.370  
     -1489.402          44.000          44.000  
  20864227.296 8  20864225.085 7 109642256.766 8  85435516.501 7     -1023.914  
      -797.931          50.000          46.000  
  24514747.224 6  24514744.594 6 128825889.254 6 100383777.402 6      3302.423  
      2573.408          41.000          40.000  
  25133094.409 6  25133093.578 6 132075333.425 6 102915831.783 6      3438.857  
      2679.603          39.000          41.000  
  25145764.972 6  25145764.750 6 132141877.909 6 102967642.133 6     -3942.051  
     -3071.943          41.000          39.000  
  22449964.067 7  22449960.706 7 117975347.315 7  91928827.862 7     -2794.316  
     -2177.427          43.000          43.000  
  23261668.233 7  23261667.241 6 122240907.003 7  95252665.713 6     -2032.886  
     -1584.159          42.000          39.000  
  23297783.284 7  23297781.704 6 122430655.822 7  95400495.682 6     -3392.050  
     -2643.046          42.000          41.000  
  20619849.521 8  20619847.528 7 108358075.231 8  84434911.499 7       898.944  
       700.266          51.000          47.000  
  22111673.590 7                 116197658.205 7                      1967.542  
                        47.000                  
 26  4 14  2 33  0.0000000  0 10G08G10G01G28G18G23G24G27G32G02
  22521938.395 7  22521938.062 7 118353577.969 7  92223577.892 7     -1926.389  
     -1500.907          45.000          44.000  
  20870092.481 8  20870090.202 7 109673078.185 8  85459533.197 7     -1032.080  
      -804.242          51.000          46.000  
  24495893.506 6  24495891.178 6 128726812.261 6 100306574.603 6      3301.307  
      2572.522          41.000          40.000  
  25113448.143 6  25113448.936 6 131972100.627 6 102835390.761 6      3442.022  
      2681.952          37.000          38.000  
  25168271.233 6  25168270.659 6 132260150.033 6 103059802.214 6     -3944.069  
     -3073.213          38.000          38.000  
  22465924.445 7  22465920.968 7 118059220.619 7  91994183.668 7     -2798.332  
     -2180.754          43.000          42.000  
  23273321.666 6  23273320.288 6 122302145.502 6  95300384.017 6     -2051.019  
     -1598.292          40.000          39.000  
  23317161.954 6  23317161.242 6 122532494.193 6  95479850.227 6     -3398.376  
     -2648.105          41.000          40.000  
  20614756.901 8  20614754.937 7 108331313.267 8  84414058.028 7       883.856  
       688.714          51.000          47.000  
  22100465.355 7                 116138758.081 7                      1957.782  
                        47.000                  
 26  4 14  2 33 30.0000000  0 10G08G10G01G28G18G23G24G27G32G02
  22532979.631 7  22532979.419 7 118411601.295 7  92268790.846 7     -1942.012  
     -1513.167          44.000          44.000  
  20876011.604 8  20876009.554 7 109704183.565 8  85483771.167 7     -1041.534  
      -811.493          50.000          46.000  
  24477052.955 6  24477050.532 6 128627804.530 6 100229425.771 6      3299.095  
      2571.044          40.000          41.000  
  25093795.825 6  25093794.877 6 131868820.750 6 102754913.044 6      3443.578  
      2683.411          40.000          38.000  
  25190793.608 6  25190792.762 6 132378507.258 6 103152028.688 6     -3946.552  
     -3075.443          40.000          36.000  
  22481916.970 7  22481913.334 7 118143259.836 7  92059668.751 7     -2804.012  
     -2185.182          43.000          43.000  
  23285086.019 6  23285085.186 6 122363967.232 6  95348556.800 6     -2070.275  
     -1613.212          39.000          39.000  
  23336585.398 7  23336584.474 6 122634562.444 7  95559383.852 6     -3406.048  
     -2654.019          42.000          41.000  
  20609756.188 8  20609754.190 7 108305034.351 8  84393580.979 7       867.852  
       676.139          51.000          47.000  
  22089318.709 7                 116080182.022 7                      1947.162  
                        46.000                  
 26  4 14  2 34  0.0000000  0 10G08G10G01G28G18G23G24G27G32G02
  22544108.698 7  22544108.766 7 118470087.350 7  92314364.374 7     -1957.218  
     -1525.232          44.000          44.000  
  20881982.502 8  20881980.293 7 109735560.797 8  85508220.965 7     -1050.647  
      -818.640          51.000          46.000  
  24458223.305 6  24458221.510 7 128528855.935 6 100152323.069 7      3297.269  
      2569.173          40.000          42.000  
  25074132.008 6  25074130.827 6 131765484.526 6 102674391.468 6      3445.389  
      2684.706          39.000          40.000  
  25213329.584 6  25213329.285 6 132496936.072 6 103244310.892 6     -3948.786  
     -3077.188          40.000          39.000  
  22497938.339 7  22497934.745 7 118227452.357 7  92125273.300 7     -2809.103  
     -2188.855          44.000          43.000  
  23296958.714 6  23296957.298 6 122426358.333 6  95397173.245 6     -2088.914  
     -1628.093          41.000          39.000  
  23356049.430 7  23356048.219 6 122736845.530 7  95639084.913 6     -3413.243  
     -2659.415          43.000          41.000  
  20604844.868 8  20604843.141 7 108279226.786 8  84373471.207 7       852.369  
       664.123          51.000          47.000  
  22078231.442 7                 116021919.921 7                      1936.669  
                        46.000                  
 26  4 14  2 34 30.0000000  0 10G08G10G01G28G18G23G24G27G32G02
  22555326.069 7  22555326.536 7 118529034.585 7  92360297.256 7     -1972.163  
     -1536.774          43.000          44.000  
  20888005.373 8  20888003.049 7 109767210.330 8  85532882.942 7     -1059.088  
      -825.232          50.000          46.000  
  24439405.497 6  24439404.001 7 128429969.109 6 100075268.493 7      3295.848  
      2567.650          40.000          42.000  
  25054457.426 6  25054455.984 6 131662095.238 6 102593828.502 6      3447.564  
      2686.553          38.000          39.000  
  25235879.784 6  25235879.068 6 132615435.497 6 103336648.170 6     -3950.743  
     -3078.860          41.000          39.000  
  22513988.551 7  22513985.643 7 118311798.270 7  92190997.363 7     -2813.634  
     -2192.401          43.000          43.000  
  23308939.219 6  23308938.444 6 122489317.481 6  95446232.365 6     -2107.312  
     -1642.153          41.000          40.000  
  23375553.629 7  23375553.432 7 122839341.054 7  95718951.493 7     -3419.548  
     -2664.443          42.000          42.000  
  20600023.960 8  20600022.168 7 108253891.458 8  84353729.411 7       837.067  
       652.215          51.000          47.000  
  22067204.491 7                 115963974.303 7                      1926.494  
                        46.000                  
 26  4 14  2 35  0.0000000  0 10G08G10G01G28G18G23G24G27G32G02
  22566627.887 7  22566628.515 7 118588428.361 7  92406578.103 7     -1987.431  
     -1548.576          43.000          44.000  
  20894077.489 8  20894075.208 7 109799119.605 8  85557747.317 7     -1068.292  
      -832.257          50.000          46.000  
  24420597.856 6  24420595.912 7 128331133.581 6  99998253.865 7      3293.694  
      2566.287          40.000          43.000  
  25034771.486 7  25034770.173 6 131558643.386 7 102513216.759 6      3449.060  
      2687.374          42.000          40.000  
  25258440.006 6  25258439.193 6 132733991.508 6 103429029.507 6     -3952.873  
     -3080.099          38.000          37.000  
  22530065.605 7  22530062.337 7 118396284.619 7  92256830.860 7     -2818.840  
     -2196.489          43.000          43.000  
  23321025.642 6  23321024.518 6 122552830.427 6  95495722.957 6     -2126.390  
     -1657.152          41.000          39.000  
  23395095.397 7  23395094.540 6 122942033.624 7  95798971.631 6     -3426.564  
     -2670.101          42.000          41.000  
  20595290.160 8  20595288.456 7 108229016.196 8  84334346.113 7       821.190  
       639.805          51.000          47.000  
  22056235.859 7                 115906334.797 7                      1916.153  
                        46.000                  
 26  4 14  2 35 30.0000000  0 10G08G10G01G28G18G23G24G27G32G02
  22578017.890 7  22578017.486 7 118648278.342 7  92453214.430 7     -2002.262  
     -1560.369          44.000          44.000  
  20900200.943 8  20900198.926 7 109831300.360 8  85582823.251 7     -1077.045  
      -839.362          50.000          46.000  
  24401802.182 6  24401800.343 7 128232363.157 6  99921289.964 7      3290.974  
      2564.640          39.000          43.000  
  25015076.116 6  25015074.470 6 131455143.530 6 102432567.622 6      3450.677  
      2688.800          41.000          40.000  
  25281013.097 6  25281012.916 6 132852614.408 6 103521462.879 6     -3955.376  
     -3081.895          37.000          38.000  
  22546172.005 7  22546168.882 7 118480922.685 7  92322782.567 7     -2823.699  
     -2200.337          43.000          43.000  
  23333219.026 6  23333217.775 6 122616906.994 6  95545652.764 6     -2144.830  
     -1671.969          41.000          39.000  
  23414676.557 7  23414675.539 6 123044932.053 7  95879152.159 6     -3433.337  
     -2675.274          42.000          41.000  
  20590646.471 8  20590644.668 7 108204613.116 8  84315330.752 7       805.565  
       627.642          51.000          47.000  
  22045328.757 7                 115849015.187 7                      1905.544  
                        46.000                  
 26  4 14  2 36  0.0000000  0 10G08G10G01G28G18G23G24G27G32G02
  22589494.791 7  22589493.740 7 118708588.749 7  92500209.521 7     -2017.800  
     -1572.659          44.000          44.000  
  20906377.907 8  20906375.605 7 109863758.892 8  85608115.623 7     -1086.328  
      -846.765          51.000          46.000  
  24383020.823 6  24383018.818 7 128133666.209 6  99844383.380 7      3288.779  
      2562.495          38.000          44.000  
  24995372.815 6  24995371.532 6 131351604.834 6 102351888.325 6      3452.317  
      2689.857          39.000          39.000  
  25303599.417 5  25303599.402 6 132971308.962 5 103613952.121 6     -3957.610  
     -3083.672          34.000          37.000  
  22562308.409 7  22562304.520 7 118565718.405 7  92388857.153 7     -2828.935  
     -2204.411          43.000          42.000  
  23345520.507 6  23345519.213 6 122681551.725 6  95596025.253 6     -2164.234  
     -1686.363          41.000          40.000  
  23434297.109 7  23434296.390 6 123148039.784 7  95959495.826 6     -3440.027  
     -2680.819          42.000          41.000  
  20586093.899 8  20586092.020 7 108180688.917 8  84296688.536 7       789.714  
       615.331          52.000          47.000  
  22034483.190 7                 115792023.923 7                      1894.487  
                        46.000                  
 26  4 14  2 36 30.0000000  0 10G08G10G01G28G18G23G24G27G32G02
  22601060.700 7  22601060.484 7 118769369.998 7  92547571.515 7     -2034.040  
     -1584.991          44.000          44.000  
  20912609.644 8  20912607.464 7 109896507.776 8  85633634.230 7     -1096.869  
      -854.700          50.000          46.000  
  24364256.271 6  24364254.207 7 128035057.470 6  99767545.498 7      3285.242  
      2559.742          40.000          43.000  
  24975665.129 6  24975664.941 6 131248042.936 6 102271190.858 6      3452.112  
      2690.039          39.000          39.000  
  25326201.627 6  25326202.229 6 133090086.213 6 103706505.791 6     -3961.169  
     -3086.349          37.000          39.000  
  22578476.654 7  22578473.407 7 118650683.878 7  92455063.990 7     -2835.372  
     -2209.387          43.000          43.000  
  23357932.397 7  23357931.242 6 122746775.259 7  95646848.773 6     -2183.983  
     -1701.825          42.000          40.000  
  23453959.390 7  23453958.702 6 123251366.516 7  96040010.094 6     -3447.924  
     -2686.960          42.000          40.000  
  20581634.912 8  20581633.051 7 108157256.503 8  84278429.528 7       772.642  
       602.080          52.000          47.000  
  22023703.040 7                 115735375.440 7                      1882.272  
                        47.000                  
 26  4 14  2 37  0.0000000  0 10G08G10G01G28G18G23G24G27G32G02
  22612706.794 7  22612706.955 7 118830571.902 7  92595261.288 7     -2046.679  
     -1594.624          44.000          44.000  
  20918887.474 8  20918885.248 7 109929498.871 8  85659341.583 7     -1103.235  
      -859.680          50.000          46.000  
  24345499.767 7  24345497.507 7 127936490.957 7  99690740.493 7      3285.295  
      2559.976          42.000          43.000  
  24955944.629 6  24955943.909 6 131144412.549 6 102190440.053 6      3455.415  
      2693.025          37.000          37.000  
  25348811.039 6  25348811.260 6 133208896.589 6 103799085.320 6     -3960.508  
     -3086.187          37.000          40.000  
  22594668.046 7  22594664.460 7 118735770.608 7  92521365.328 7     -2837.756  
     -2211.254          43.000          43.000  
  23370444.690 7  23370443.193 6 122812527.682 7  95698084.434 6     -2200.014  
     -1714.280          42.000          41.000  
  23473653.583 7  23473653.205 6 123354861.249 7  96120655.295 6     -3452.238  
     -2690.165          42.000          40.000  
  20577260.177 8  20577258.124 7 108134268.071 8  84260516.491 7       759.373  
       591.790          52.000          47.000  
  22012980.252 7                 115679023.990 7                      1873.791  
                        47.000                  
 26  4 14  2 37 30.0000000  0 10G08G10G01G28G18G23G24G27G32G02
  22624431.658 7  22624431.652 7 118892186.144 7  92643272.382 7     -2060.961  
     -1606.036          44.000          44.000  
  20925210.572 8  20925208.352 7 109962726.079 8  85685232.919 7     -1112.109  
      -866.559          51.000          46.000  
  24326750.554 7  24326748.113 7 127837962.676 7  99613965.249 7      3283.213  
      2558.458          43.000          42.000  
  24936209.697 6  24936210.002 6 131040710.504 6 102109633.498 6      3457.492  
      2694.327          39.000          38.000  
  25371424.310 6  25371424.698 6 133327732.461 6 103891684.720 6     -3962.039  
     -3087.309          38.000          38.000  
  22610881.214 7  22610878.078 7 118820972.055 7  92587756.068 7     -2842.272  
     -2214.868          44.000          43.000  
  23383056.001 6  23383054.754 6 122878800.951 6  95749725.919 6     -2218.252  
     -1728.439          41.000          41.000  
  23493378.817 7  23493377.921 6 123458514.989 7  96201424.359 6     -3458.121  
     -2694.604          42.000          41.000  
  20572969.233 8  20572966.953 7 108111717.808 8  84242944.868 7       743.960  
       579.744          51.000          47.000  
  22002312.614 8                 115622965.379 8                      1863.312  
                        48.000                  
 26  4 14  2 38  0.0000000  0 10G08G10G01G28G18G23G24G27G32G02
  22636241.992 7  22636241.306 7 118954249.834 7  92691633.674 7     -2076.003  
     -1617.507          44.000          43.000  
  20931586.153 8  20931583.618 7 109996228.584 8  85711338.761 7     -1121.063  
      -873.431          51.000          46.000  
  24308016.459 7  24308013.909 7 127739514.015 7  99537252.040 7      3280.473  
      2556.289          44.000          42.000  
  24916470.838 6  24916471.060 6 130936978.980 6 102028803.976 6      3458.561  
      2694.812          39.000          40.000  
  25394050.246 6  25394050.443 6 133446631.672 6 103984333.428 6     -3963.879  
     -3088.665          39.000          36.000  
  22627123.943 7  22627120.795 7 118906327.045 7  92654266.430 7     -2847.506  
     -2218.886          44.000          43.000  
  23395773.434 6  23395772.520 6 122945632.360 6  95801802.325 6     -2236.571  
     -1742.723          41.000          41.000  
  23513140.877 7  23513139.865 6 123562364.023 7  96282345.676 6     -3464.390  
     -2699.831          42.000          41.000  
  20568768.734 8  20568766.566 7 108089645.244 8  84225745.486 7       728.193  
       567.451          51.000          47.000  
  21991708.855 7                 115567240.850 7                      1852.147  
                        47.000                  
 26  4 14  2 38 30.0000000  0 10G08G10G01G28G18G23G24G27G32G02
  22648138.222 7  22648137.657 7 119016767.571 7  92740348.802 7     -2092.104  
     -1630.500          43.000          43.000  
  20938015.065 8  20938012.575 7 110030013.192 8  85737664.439 7     -1131.714  
      -881.952          50.000          46.000  
  24289299.109 7  24289296.256 6 127641153.853 7  99460607.800 6      3276.391  
      2552.708          43.000          41.000  
  24896726.982 6  24896726.690 6 130833227.707 6 101947958.988 6      3457.941  
      2694.226          37.000          37.000  
  25416689.797 6  25416689.626 6 133565599.581 6 104077035.720 6     -3967.600  
     -3091.571          38.000          39.000  
  22643397.085 7  22643393.572 7 118991841.942 7  92720901.405 7     -2853.855  
     -2223.841          44.000          43.000  
  23408598.302 6  23408597.217 6 123013026.798 6  95854317.468 6     -2256.514  
     -1758.425          40.000          41.000  
  23532940.357 7  23532940.156 7 123666412.282 7  96363422.194 7     -3472.385  
     -2705.776          42.000          42.000  
  20564660.572 8  20564658.517 7 108068057.452 8  84208923.849 7       710.740  
       553.837          51.000          47.000  
  21981170.060 7                 115511859.374 7                      1839.604  
                        47.000                  
 26  4 14  2 39  0.0000000  0 10G08G10G01G28G18G23G24G27G32G02
  22660123.086 7  22660121.921 7 119079743.781 7  92789421.150 7     -2105.974  
     -1641.377          44.000          43.000  
  20944498.849 8  20944496.463 7 110064086.474 8  85764215.050 7     -1139.813  
      -888.269          50.000          46.000  
  24270600.113 7  24270597.412 6 127542890.967 7  99384039.341 6      3274.236  
      2551.593          42.000          40.000  
  24876982.501 6  24876982.173 6 130729466.289 6 101867106.113 6      3459.916  
      2695.900          37.000          40.000  
  25439342.290 6  25439342.111 6 133684641.229 6 104169795.527 6     -3968.994  
     -3092.441          37.000          39.000  
  22659701.869 7  22659698.239 7 119077522.918 7  92787665.799 7     -2858.176  
     -2226.956          45.000          43.000  
  23421530.640 6  23421529.779 6 123080988.853 6  95907274.931 6     -2273.643  
     -1772.228          39.000          41.000  
  23552778.919 7  23552778.619 6 123770663.501 7  96444656.811 6     -3477.744  
     -2709.779          43.000          41.000  
  20560646.296 8  20560644.145 7 108046961.264 8  84192485.278 7       695.805  
       542.118          52.000          47.000  
  21970697.387 7                 115456829.570 7                      1829.174  
                        47.000                  
 26  4 14  2 39 30.0000000  0 10G08G10G01G28G18G23G24G27G32G02
  22672187.911 7  22672187.376 7 119143145.778 7  92838825.277 7     -2121.761  
     -1653.376          44.000          43.000  
  20951031.850 8  20951029.695 7 110098418.012 8  85790966.891 7     -1150.092  
      -896.124          50.000          46.000  
  24251914.212 6  24251911.592 6 127444697.012 6  99307524.630 6      3270.752  
      2548.527          40.000          40.000  
  24857230.606 6  24857228.360 6 130625667.088 6 101786223.739 6      3459.472  
      2695.813          41.000          36.000  
  25462002.918 6  25462002.874 6 133803724.763 6 104262587.936 6     -3971.716  
     -3094.579          36.000          38.000  
  22676032.066 7  22676028.537 7 119163339.106 7  92854535.564 7     -2864.083  
     -2231.752          44.000          43.000  
  23434565.118 6  23434564.527 6 123149486.259 6  95960649.461 6     -2293.432  
     -1787.018          38.000          41.000  
  23572649.360 7  23572648.884 6 123875084.332 7  96526023.661 6     -3484.938  
     -2715.598          42.000          41.000  
  20556719.616 8  20556717.583 7 108026326.506 8  84176406.265 7       678.918  
       528.991          52.000          47.000  
  21960288.056 8                 115402123.027 8                      1816.801  
                        48.000                  
 26  4 14  2 40  0.0000000  0 10G08G10G01G28G18G23G24G27G32G02
  22684343.078 7  22684342.785 7 119207021.411 7  92888598.476 7     -2137.073  
     -1665.319          44.000          43.000  
  20957623.956 8  20957621.419 7 110133057.806 8  85817958.935 7     -1160.052  
      -904.010          51.000          46.000  
  24233251.141 6  24233248.879 6 127346624.285 6  99231104.390 6      3267.020  
      2545.344          39.000          39.000  
  24837480.335 6  24837479.912 6 130521883.191 6 101705353.490 6      3459.135  
      2695.299          37.000          38.000  
  25484680.932 5  25484681.222 6 133922898.720 5 104355450.714 6     -3974.062  
     -3096.848          33.000          38.000  
  22692397.320 7  22692394.361 7 119249340.159 7  92921549.379 7     -2869.921  
     -2236.446          44.000          43.000  
  23447710.876 6  23447710.272 6 123218566.885 6  96014478.508 6     -2312.804  
     -1802.004          38.000          41.000  
  23592561.359 7  23592560.637 6 123979721.968 7  96607559.447 6     -3491.765  
     -2720.808          42.000          41.000  
  20552890.266 8  20552888.257 7 108006203.450 8  84160725.984 7       662.057  
       515.816          52.000          47.000  
  21949949.122 7                 115347791.766 7                      1804.641  
                        47.000                  
 26  4 14  2 40 30.0000000  0 10G08G10G01G28G18G23G24G27G32G02
  22696582.791 7  22696582.710 7 119271341.631 7  92938718.113 7     -2150.450  
     -1676.072          44.000          44.000  
  20964269.062 8  20964266.632 7 110167979.062 8  85845170.304 7     -1168.011  
      -910.138          51.000          46.000  
  24214606.663 6  24214604.069 6 127248648.099 6  99154759.345 6      3265.295  
      2543.845          38.000          38.000  
  24817730.090 6  24817727.985 6 130418090.816 6 101624476.377 6      3460.383  
      2696.165          38.000          37.000  
  25507371.099 5  25507371.338 6 134042134.870 5 104448362.063 6     -3974.851  
     -3097.324          34.000          40.000  
  22708793.125 7  22708789.613 7 119335498.875 7  92988686.028 7     -2873.730  
     -2239.207          44.000          43.000  
  23460962.044 6  23460961.539 6 123288201.938 6  96068739.559 6     -2329.780  
     -1814.994          39.000          41.000  
  23612509.020 7  23612508.867 7 124084546.642 7  96689240.939 7     -3496.338  
     -2724.488          42.000          42.000  
  20549153.153 8  20549151.196 7 107986565.477 8  84145423.683 7       647.320  
       504.381          52.000          47.000  
  21939676.278 7                 115293811.357 7                      1794.295  
                        47.000                  
 26  4 14  2 41  0.0000000  0 10G08G10G01G28G18G23G24G27G32G02
  22708904.196 7  22708903.565 7 119336089.288 7  92989170.807 7     -2165.015  
     -1687.157          44.000          43.000  
  20970965.151 8  20970962.584 7 110203166.863 8  85872589.380 7     -1177.228  
      -917.261          51.000          46.000  
  24195978.311 6  24195976.132 6 127150755.738 6  99078479.631 6      3261.522  
      2541.989          38.000          40.000  
  24797974.184 6  24797973.355 6 130314277.794 6 101543583.365 6      3461.099  
      2696.898          41.000          38.000  
  25530069.434 5  25530069.612 6 134161416.912 5 104541309.074 6     -3976.608  
     -3098.355          34.000          37.000  
  22725215.175 7  22725212.469 7 119421799.909 7  93055933.594 7     -2878.584  
     -2243.338          43.000          43.000  
  23474315.936 6  23474314.390 6 123358374.515 6  96123419.476 6     -2348.169  
     -1829.402          39.000          40.000  
  23632488.950 7  23632488.371 6 124189540.631 7  96771054.382 6     -3502.322  
     -2729.091          43.000          41.000  
  20545505.595 8  20545503.880 7 107967397.906 8  84130487.931 7       631.387  
       492.026          51.000          47.000  
  21929468.743 7                 115240168.723 7                      1782.784  
                        47.000                  
 26  4 14  2 41 30.0000000  0 10G08G10G01G28G18G23G24G27G32G02
  22721310.976 7  22721310.166 7 119401286.766 7  93039974.008 7     -2181.065  
     -1699.584          44.000          43.000  
  20977716.556 8  20977714.193 7 110238645.837 8  85900235.320 7     -1187.677  
      -925.427          51.000          46.000  
  24177371.355 6  24177369.282 7 127052973.983 6  99002286.180 7      3257.164  
      2538.040          40.000          42.000  
  24778219.930 6  24778219.106 6 130210471.896 6 101462695.792 6      3459.676  
      2695.939          37.000          41.000  
  25552779.835 5  25552780.689 6 134280768.463 5 104634310.302 6     -3979.708  
     -3100.848          33.000          36.000  
  22741669.252 7  22741666.779 7 119508267.552 7  93123310.957 7     -2885.536  
     -2248.243          43.000          43.000  
  23487775.551 6  23487774.691 6 123429107.207 6  96178535.849 6     -2367.712  
     -1844.741          39.000          40.000  
  23652504.767 7  23652504.556 6 124294725.676 7  96853016.691 6     -3509.528  
     -2734.668          42.000          41.000  
  20541952.497 8  20541950.507 7 107948725.559 8  84115938.070 7       613.847  
       478.455          52.000          47.000  
  21919330.051 7                 115186890.454 7                      1769.716  
                        47.000                  
 26  4 14  2 42  0.0000000  0 10G08G10G01G28G18G23G24G27G32G02
  22733805.974 7  22733805.000 7 119466947.885 7  93091138.512 7     -2195.636  
     -1710.908          45.000          43.000  
  20984526.515 8  20984523.992 7 110274432.136 8  85928120.749 7     -1197.144  
      -932.819          51.000          46.000  
  24158789.014 6  24158786.869 7 126955321.229 6  98926193.206 7      3254.153  
      2535.693          41.000          43.000  
  24758472.416 6  24758470.918 6 130106692.336 6 101381828.775 6      3459.629  
      2695.903          39.000          41.000  
  25575508.778 6  25575508.482 6 134400203.783 6 104727376.818 6     -3981.711  
     -3102.192          36.000          36.000  
  22758157.971 7  22758155.252 7 119594917.443 7  93190830.341 7     -2890.509  
     -2252.131          42.000          43.000  
  23501344.263 6  23501343.674 6 123500414.087 6  96234099.646 6     -2385.678  
     -1858.888          38.000          39.000  
  23672559.383 6  23672559.398 6 124400115.046 6  96935138.204 6     -3515.368  
     -2739.185          41.000          41.000  
  20538496.601 8  20538494.598 7 107930564.696 8  84101786.764 7       597.857  
       465.906          52.000          47.000  
  21909264.372 7                 115133994.961 7                      1757.872  
                        47.000                  
 26  4 14  2 42 30.0000000  0 10G08G10G01G28G18G23G24G27G32G02
  22746382.285 7  22746381.700 7 119533039.529 7  93142638.459 7     -2210.607  
     -1722.648          43.000          43.000  
  20991389.060 8  20991386.517 7 110310494.809 8  85956221.523 7     -1207.095  
      -940.492          51.000          46.000  
  24140225.813 7  24140223.144 7 126857768.789 7  98850178.403 7      3249.666  
      2532.209          42.000          43.000  
  24738722.692 7  24738721.169 6 130002910.989 7 101300960.341 6      3458.705  
      2695.192          42.000          40.000  
  25598246.448 6  25598246.715 6 134519690.993 6 104820483.891 6     -3984.270  
     -3104.887          38.000          38.000  
  22774675.364 6  22774672.666 7 119681718.321 6  93258467.402 7     -2896.149  
     -2256.799          41.000          43.000  
  23515016.875 6  23515015.721 6 123572262.128 6  96290085.127 6     -2404.461  
     -1873.439          39.000          38.000  
  23692646.881 6  23692646.946 6 124505674.946 6  97017392.622 6     -3521.881  
     -2744.366          41.000          41.000  
  20535132.005 8  20535130.326 7 107912884.605 8  84088010.091 7       580.931  
       452.716          52.000          47.000  
  21899266.262 8                 115081453.122 8                      1744.951  
                        48.000                  
 26  4 14  2 43  0.0000000  0 10G08G10G01G28G18G23G24G27G32G02
  22759040.367 7  22759039.581 7 119599557.758 7  93194470.815 7     -2223.547  
     -1732.768          44.000          43.000  
  20998303.850 8  20998301.333 7 110346832.298 8  85984536.464 7     -1215.097  
      -946.925          51.000          46.000  
  24121680.956 7  24121678.289 7 126760317.161 7  98774242.162 7      3247.515  
      2530.359          42.000          42.000  
  24718973.606 6  24718972.487 6 129899129.373 6 101220091.676 6      3459.871  
      2696.129          39.000          41.000  
  25620993.940 6  25620993.336 6 134639227.085 6 104913628.882 6     -3984.812  
     -3104.618          38.000          37.000  
  22791221.454 6  22791219.096 7 119768668.157 6  93326220.513 7     -2899.953  
     -2259.757          41.000          43.000  
  23528791.409 6  23528790.192 6 123644647.637 6  96346489.411 6     -2421.033  
     -1886.257          40.000          37.000  
  23712765.882 6  23712765.726 6 124611400.919 6  97099776.416 6     -3526.172  
     -2747.675          41.000          41.000  
  20531858.874 8  20531857.049 7 107895683.795 8  84074606.880 7       566.188  
       441.212          51.000          47.000  
  21889335.008 7                 115029265.419 7                      1734.357  
                        47.000                  
 26  4 14  2 43 30.0000000  0 10G08G10G01G28G18G23G24G27G32G02
  22771777.265 7  22771775.930 7 119666488.243 7  93246624.428 7     -2238.367  
     -1744.124          44.000          43.000  
  21005268.467 8  21005266.317 7 110383432.561 8  86013056.145 7     -1225.116  
      -954.903          51.000          46.000  
  24103153.739 7  24103151.109 7 126662956.651 7  98698376.867 7      3242.921  
      2527.146          42.000          42.000  
  24699223.006 7  24699221.010 6 129795338.422 7 101139215.780 6      3459.157  
      2695.570          42.000          38.000  
  25643747.446 5  25643744.442 4 134758798.143 5                     -3986.837  
     -3111.810          35.000          24.000  
  22807793.731 7  22807791.018 7 119855754.565 7  93394080.015 7     -2905.913  
     -2264.297          42.000          43.000  
  23542665.692 6  23542664.319 6 123717556.489 6  96403301.513 6     -2439.670  
     -1900.943          41.000          38.000  
  23732914.285 7  23732913.563 6 124717278.028 7  97182277.997 6     -3532.562  
     -2752.551          42.000          41.000  
  20528674.536 8  20528672.558 7 107878950.392 8  84061567.886 7       549.282  
       428.056          52.000          47.000  
  21879469.926 7                 114977421.807 7                      1721.628  
                        47.000                  
 26  4 14  2 44  0.0000000  0 10G08G10G01G28G18G23G24G27G32G02
  22784596.696 7  22784596.077 7 119733856.361 7  93299119.040 7     -2252.982  
     -1755.413          43.000          43.000  
  21012288.782 8  21012286.120 7 110420323.236 8  86041802.109 7     -1234.625  
      -961.979          51.000          46.000  
  24084649.406 6  24084646.858 7 126565717.049 6  98622605.832 7      3239.323  
      2524.356          41.000          42.000  
  24679476.038 6  24679475.368 7 129691568.799 6 101058356.452 7      3458.530  
      2694.752          39.000          42.000  
  25666513.217 6  25666512.039 5 134878431.028 6 105100074.72915     -3988.987  
     -3108.641          39.000          35.000  
  22824396.921 7  22824394.335 7 119943004.783 7  93462067.183 7     -2911.198  
     -2268.378          42.000          43.000  
  23556644.189 7  23556642.770 6 123791014.195 7  96460541.315 6     -2458.080  
     -1915.223          42.000          37.000  
  23753095.658 7  23753094.909 6 124823331.064 7  97264916.692 6     -3537.921  
     -2757.184          43.000          41.000  
  20525584.707 8  20525582.529 7 107862712.163 8  84048914.733 7       532.927  
       415.288          52.000          47.000  
  21869675.224 7                 114925952.088 7                      1709.281  
                        47.000                  
 26  4 14  2 44 30.0000000  0 10G08G10G01G28G18G23G24G27G32G02
  22797499.840 7  22797499.887 7 119801665.800 7  93351957.532 7     -2267.380  
     -1766.754          43.000          43.000  
  21019365.103 8  21019362.594 7 110457510.397 8  86070779.119 7     -1244.389  
      -969.495          51.000          46.000  
  24066169.830 6  24066167.132 7 126468606.671 6  98546935.500 7      3235.052  
      2520.743          40.000          42.000  
  24659735.870 6  24659733.540 6 129587829.730 6 100977520.944 6      3457.648  
      2694.094          41.000          40.000  
  25689291.013 5  25689289.730 4 134998129.683 5 105193346.601 4     -3990.834  
     -3109.635          34.000          26.000  
  22841032.252 7  22841029.544 7 120030424.471 7  93530186.401 7     -2916.574  
     -2272.763          42.000          43.000  
  23570728.099 7  23570726.665 6 123865024.670 7  96518211.820 6     -2476.091  
     -1929.146          42.000          37.000  
  23773310.852 7  23773310.087 6 124929563.288 7  97347694.986 6     -3543.945  
     -2761.511          42.000          41.000  
  20522590.003 8  20522587.782 7 107846975.241 8  84036652.218 7       516.397  
       402.396          52.000          47.000  
  21859953.197 7                 114874864.254 7                      1696.654  
                        47.000                  
 26  4 14  2 45  0.0000000  0 10G08G10G01G28G18G23G24G27G32G02
  22810483.017 7  22810482.844 7 119869893.358 7  93405121.837 7     -2281.701  
     -1777.765          43.000          43.000  
  21026494.075 8  21026491.720 7 110494973.219 8  86099970.932 7     -1253.832  
      -976.952          51.000          46.000  
  24047711.378 7  24047708.307 7 126371606.910 7  98471351.360 7      3230.985  
      2517.512          42.000          42.000  
  24639996.726 7  24639995.984 7 129484103.100 7 100896695.126 7      3456.508  
      2693.732          42.000          44.000  
  25712077.115 7  25712076.743 6 135117873.340 7 105286653.386 6     -3992.764  
     -3111.226          42.000          38.000  
  22857696.294 7  22857692.879 7 120117992.363 7  93598421.100 7     -2921.980  
     -2276.750          44.000          42.000  
  23584912.624 7  23584910.973 6 123939564.899 7  96576295.149 6     -2493.895  
     -1943.359          42.000          37.000  
  23793555.501 6  23793555.012 6 125035950.922 6  97430594.347 6     -3549.164  
     -2765.765          41.000          41.000  
  20519686.792 8  20519684.612 7 107831718.813 8  84024764.109 7       500.178  
       389.698          52.000          47.000  
  21850300.795 7                 114824139.434 7                      1684.282  
                        47.000                  
 26  4 14  2 45 30.0000000  0 10G08G10G01G28G18G23G24G27G32G02
  22823549.847 7  22823550.265 7 119938560.424 7  93458628.601 7     -2295.460  
     -1788.449          42.000          43.000  
  21033679.956 8  21033677.619 7 110532735.384 8  86129395.991 7     -1262.872  
      -984.001          51.000          46.000  
  24029279.321 7  24029275.843 6 126274743.769 7  98395873.641 6      3227.307  
      2514.873          42.000          41.000  
  24620265.090 6  24620263.189 6 129380415.849 6 100815900.043 6      3456.210  
      2693.399          38.000          38.000  
  25734876.042 5  25734875.384 5 135237682.884 5 105380011.507 5     -3993.815  
     -3111.831          33.000          32.000  
  22874392.754 7  22874389.520 7 120205731.776 7  93666789.472 7     -2926.600  
     -2280.256          44.000          42.000  
  23599202.098 7  23599200.370 6 124014656.368 7  96634808.033 6     -2511.338  
     -1956.992          42.000          38.000  
  23813834.088 6  23813833.283 6 125142514.794 6  97513631.087 6     -3554.144  
     -2769.342          41.000          40.000  
  20516879.652 8  20516877.435 7 107816966.734 8  84013269.004 7       484.256  
       377.298          52.000          47.000  
  21840721.620 7                 114773803.628 7                      1672.308  
                        46.000                  
 26  4 14  2 46  0.0000000  0 10G08G10G01G28G23G24G27G32G02G18
  22836695.516 7  22836695.623 7 120007640.212 7  93512456.969 7     -2309.384  
     -1799.430          43.000          43.000  
  21040918.176 8  21040915.788 7 110570772.493 8  86159035.304 7     -1272.256  
      -991.461          51.000          46.000  
  24010868.580 6  24010865.236 6 126177995.071 6  98320485.092 6      3223.235  
      2511.599          41.000          41.000  
  24600538.294 6  24600537.299 6 129276746.581 6 100735118.869 6      3455.626  
      2692.541          37.000          41.000  
  22891116.837 7  22891113.511 7 120293617.962 7  93735272.216 7     -2931.935  
     -2284.689          44.000          42.000  
  23613591.443 7  23613589.921 6 124090272.512 7  96693729.707 6     -2529.220  
     -1970.895          42.000          38.000  
  23834140.530 6  23834140.453 6 125249227.690 6  97596783.932 6     -3559.485  
     -2773.486          41.000          41.000  
  20514163.594 8  20514161.381 7 107802694.575 8  84002147.860 7       467.939  
       364.625          52.000          47.000  
  21831212.914 7                 114723834.377 7                      1659.576  
                        47.000                  
                  25757682.294 3                                                
     -3109.943                          20.000  
 26  4 14  2 46 30.0000000  0 10G08G10G01G28G18G23G24G27G32G02
  22849917.941 7  22849917.552 7 120077120.616 7  93566597.522 7     -2322.627  
     -1809.958          44.000          43.000  
  21048206.694 8  21048204.696 7 110609074.845 8  86188881.301 7     -1281.259  
      -998.497          50.000          46.000  
  23992477.869 6  23992474.937 7 126081353.332 6  98245179.938 7      3219.424  
      2508.714          40.000          42.000  
  24580812.996 6  24580808.784 6 129173088.506 6 100654346.379 6      3454.690  
      2692.067          41.000          38.000  
  25780494.980 5  25780497.815 4 135477420.39815 105566830.22814     -3997.043  
     -3114.220          30.000          28.000  
  22907866.912 7  22907863.578 7 120381640.816 7  93803861.437 7     -2936.504  
     -2288.351          43.000          42.000  
  23628078.189 6  23628077.179 6 124166401.390 6  96753050.937 6     -2546.249  
     -1984.261          40.000          39.000  
  23854473.269 6  23854473.474 6 125356077.050 6  97680043.085 6     -3564.441  
     -2777.106          40.000          41.000  
  20511537.045 8  20511535.067 7 107788892.721 8  83991393.187 7       452.091  
       352.164          52.000          47.000  
  21821773.108 7                 114674224.039 7                      1647.508  
                        47.000                  
 26  4 14  2 47  0.0000000  0  9G08G10G01G28G23G24G27G32G02
  22863218.094 7  22863218.246 7 120147016.186 7  93621061.585 7     -2335.815  
     -1820.125          43.000          43.000  
  21055549.268 8  21055546.833 7 110647659.380 8  86218947.169 7     -1289.916  
     -1005.205          50.000          46.000  
  23974111.272 6  23974108.322 7 125984837.765 6  98169973.100 7      3216.138  
      2506.128          41.000          42.000  
  24561092.601 6  24561091.602 6 129069461.536 6 100573598.401 6      3454.714  
      2691.964          40.000          40.000  
  22924646.127 7  22924643.004 7 120469816.845 7  93872569.996 7     -2940.772  
     -2291.420          43.000          42.000  
  23642665.325 6  23642664.370 6 124243057.690 6  96812783.117 6     -2562.618  
     -1997.094          39.000          40.000  
  23874834.631 6  23874834.918 6 125463076.894 6  97763419.520 6     -3568.262  
     -2780.390          41.000          41.000  
  20509003.186 8  20509001.470 8 107775578.053 8  83981018.135 8       436.786  
       340.332          52.000          48.000  
  21812403.786 7                 114624991.136 7                      1635.841  
                        47.000                  
